[{"business_status": "OPERATIONAL", "geometry": {"location": {"lat": 19.350233, "lng": -99.095119}, "viewport": {"northeast": {"lat": 19.35159198029151, "lng": -99.09376346970849}, "southwest": {"lat": 19.3488940197085, "lng": -99.0964614302915}}}, "icon": "https://maps.gstatic.com/mapfiles/place_api/icons/v1/png_71/restaurant-71.png", "name": "Taqueria el Cu\u00f1ado", "opening_hours": {"open_now": true}, "photos": [{"height": 4160, "html_attributions": ["<a href=\"https://maps.google.com/maps/contrib/116579480232269405932\">Roberto Pelaez</a>"], "photo_reference": "CmRaAAAA0wpd8q_gmz2G6YAE57X04WvEK-TwoWYHyplFxR-cvBD-eLIKdj8jhb6zi-N_JpAtiLpjIg7Mx-0GqyRjh-K9ev698tJOogQQs2N_rKvxeQbSoHb76PoGImU9bMh0cRM0EhCLW9rJBkveNn7LZ6VHbzTuGhR0KBSqJUGD81FanXz13r8wcapCKQ", "width": 3120}], "place_id": "ChIJe3dWd_v90YURf2HHRC4M67A", "plus_code": {"compound_code": "9W23+3X Mexico City, CDMX, Mexico", "global_code": "76F29W23+3X"}, "rating": 4.9, "reference": "ChIJe3dWd_v90YURf2HHRC4M67A", "scope": "GOOGLE", "types": ["restaurant", "food", "point_of_interest", "establishment"], "user_ratings_total": 9, "vicinity": "Puente Titla, Ampliaci\u00f3n el Santuario, Ciudad de M\u00e9xico"}, {"business_status": "OPERATIONAL", "geometry": {"location": {"lat": 19.3503829, "lng": -99.0951813}, "viewport": {"northeast": {"lat": 19.3517132802915, "lng": -99.09384446970849}, "southwest": {"lat": 19.3490153197085, "lng": -99.0965424302915}}}, "icon": "https://maps.gstatic.com/mapfiles/place_api/icons/v1/png_71/restaurant-71.png", "name": "Taqueria Estrella", "opening_hours": {"open_now": true}, "place_id": "ChIJwQdvevv90YURR0zVPLt_QAI", "plus_code": {"compound_code": "9W23+5W Mexico City, CDMX, Mexico", "global_code": "76F29W23+5W"}, "rating": 5, "reference": "ChIJwQdvevv90YURR0zVPLt_QAI", "scope": "GOOGLE", "types": ["restaurant", "food", "point_of_interest", "establishment"], "user_ratings_total": 2, "vicinity": "Puente Titla 27, Ampliaci\u00f3n el Santuario, Ciudad de M\u00e9xico"}, {"business_status": "OPERATIONAL", "geometry": {"location": {"lat": 19.3524013, "lng": -99.093204}, "viewport": {"northeast": {"lat": 19.3536836302915, "lng": -99.0918290697085}, "southwest": {"lat": 19.3509856697085, "lng": -99.0945270302915}}}, "icon": "https://maps.gstatic.com/mapfiles/place_api/icons/v1/png_71/shopping-71.png", "name": "Colmi Cr\u00eapes", "opening_hours": {"open_now": true}, "photos": [{"height": 1200, "html_attributions": ["<a href=\"https://maps.google.com/maps/contrib/113183646409282632797\">Ylenia P\u00e9rez Hern\u00e1ndez</a>"], "photo_reference": "CmRaAAAAzEEhp_rlKFe8FdaelZCCkM-1YVNUAkM7A0QhBafGNglwfGOGZoEpGiwXDYseWdlcJ64CMwZn1dKFxchHIf1aDEQZp9jVMxUZ0AAvtty8ovfMbeQgqkkEvxuLRCKTeV-kEhCiJzqcmxlIMdfTOXkRjsECGhTY0ZR0yzaJEtNFWR-ziClETmATGw", "width": 800}], "place_id": "ChIJueZql3H90YURtJpEeOn4ufY", "plus_code": {"compound_code": "9W24+XP Mexico City, CDMX, Mexico", "global_code": "76F29W24+XP"}, "rating": 5, "reference": "ChIJueZql3H90YURtJpEeOn4ufY", "scope": "GOOGLE", "types": ["restaurant", "food", "point_of_interest", "store", "establishment"], "user_ratings_total": 1, "vicinity": "Misi\u00f3n 19, El Santuario, Ciudad de M\u00e9xico"}, {"business_status": "OPERATIONAL", "geometry": {"location": {"lat": 19.3496687, "lng": -99.0953443}, "viewport": {"northeast": {"lat": 19.3513392302915, "lng": -99.09461615}, "southwest": {"lat": 19.3486412697085, "lng": -99.09752875}}}, "icon": "https://maps.gstatic.com/mapfiles/place_api/icons/v1/png_71/restaurant-71.png", "name": "Los Cochicornios", "opening_hours": {"open_now": true}, "photos": [{"height": 672, "html_attributions": ["<a href=\"https://maps.google.com/maps/contrib/116525733011495667847\">Los Cochicornios</a>"], "photo_reference": "CmRaAAAAJPTmb7wYx8BY_qI4imVixIwG1xzLzC9rWyZwoRKRiaRhI330d7DObeqtTabzatheJEIu1l5YQs_uY3O6SBHttMXT2KCb85QC4d60rBg-Yu4dqnk8nUsJx4phi5u3mTeiEhD4f0jOZdR-Ba9_2gmG7NlTGhSX9u_sbQ4mEztD_oe04W3ugBsIPA", "width": 1200}], "place_id": "ChIJG_37Ud_90YURD3HOI-P4kI4", "plus_code": {"compound_code": "8WX3+VV Mexico City, CDMX, Mexico", "global_code": "76F28WX3+VV"}, "reference": "ChIJG_37Ud_90YURD3HOI-P4kI4", "scope": "GOOGLE", "types": ["restaurant", "food", "point_of_interest", "establishment"], "vicinity": "Loma Encantada, Ampliaci\u00f3n el Santuario, Ciudad de M\u00e9xico"}, {"business_status": "OPERATIONAL", "geometry": {"location": {"lat": 19.3518878, "lng": -99.09180309999999}, "viewport": {"northeast": {"lat": 19.3531180802915, "lng": -99.09039101970849}, "southwest": {"lat": 19.3504201197085, "lng": -99.0930889802915}}}, "icon": "https://maps.gstatic.com/mapfiles/place_api/icons/v1/png_71/restaurant-71.png", "name": "Comedor Comunitario Del Centro Social Villa Estrella", "opening_hours": {"open_now": false}, "photos": [{"height": 3456, "html_attributions": ["<a href=\"https://maps.google.com/maps/contrib/116209682721376976758\">Lady Moon</a>"], "photo_reference": "CmRaAAAAeZF3RGqRQ-hT0qyFYIzeHKChYadMV4eCflAYEFt9NV7CbQs1JYs-iB1lXmVEHlcrgjcNuXO-ltL9rmcBQYlNU2z-Um5eKb68TTPm5ooADaDNi2Bo_YdSSstxxNgIkw8WEhBSFZlUgL74erYC2fOWq7uBGhQxYz7FIEMOlmwhrY4q1qHQPlQM7w", "width": 4608}], "place_id": "ChIJsZHSwPr90YURV3zCQsu9Bsc", "plus_code": {"compound_code": "9W25+Q7 Mexico City, CDMX, Mexico", "global_code": "76F29W25+Q7"}, "rating": 4.5, "reference": "ChIJsZHSwPr90YURV3zCQsu9Bsc", "scope": "GOOGLE", "types": ["restaurant", "food", "point_of_interest", "establishment"], "user_ratings_total": 2, "vicinity": "El Santuario, Ciudad de M\u00e9xico"}, {"business_status": "OPERATIONAL", "geometry": {"location": {"lat": 19.3493159, "lng": -99.0954379}, "viewport": {"northeast": {"lat": 19.3506558802915, "lng": -99.0940939197085}, "southwest": {"lat": 19.3479579197085, "lng": -99.0967918802915}}}, "icon": "https://maps.gstatic.com/mapfiles/place_api/icons/v1/png_71/restaurant-71.png", "name": "El Loco de la Barba", "opening_hours": {"open_now": true}, "photos": [{"height": 1056, "html_attributions": ["<a href=\"https://maps.google.com/maps/contrib/115993827915507057089\">El Loco de la Barba</a>"], "photo_reference": "CmRaAAAAHJyKX3ShHnK-I158wbaTQZVOlzIuumcxCUdOMRbFZfmR8W6a5e9NFw6A-xFYoXBLXF7XZWEBLtjy8HYOXh2-PlNz2wy_PvxSbcEfP7sNm91GIoMpxcYUaRoAuvdhMzo-EhASn1OIS07d7tOhWzrh2Ov6GhTABwoDVWLwOckL_Edu2rTFcc6LUA", "width": 816}], "place_id": "ChIJQzhfuG_90YUR9pY8jUyUVCE", "plus_code": {"compound_code": "8WX3+PR Mexico City, CDMX, Mexico", "global_code": "76F28WX3+PR"}, "rating": 5, "reference": "ChIJQzhfuG_90YUR9pY8jUyUVCE", "scope": "GOOGLE", "types": ["restaurant", "food", "point_of_interest", "establishment"], "user_ratings_total": 1, "vicinity": "Loma Encantada 54 E.6 D.102, Ciudad de M\u00e9xico"}, {"business_status": "OPERATIONAL", "geometry": {"location": {"lat": 19.3526365, "lng": -99.09253989999999}, "viewport": {"northeast": {"lat": 19.3539161802915, "lng": -99.09116436970848}, "southwest": {"lat": 19.3512182197085, "lng": -99.09386233029149}}}, "icon": "https://maps.gstatic.com/mapfiles/place_api/icons/v1/png_71/restaurant-71.png", "name": "Carnitas emblema", "place_id": "ChIJBVF4iyT90YURDGZPUiWGabc", "plus_code": {"compound_code": "9W34+3X Mexico City, CDMX, Mexico", "global_code": "76F29W34+3X"}, "reference": "ChIJBVF4iyT90YURDGZPUiWGabc", "scope": "GOOGLE", "types": ["restaurant", "food", "point_of_interest", "establishment"], "vicinity": "Misi\u00f3n 8, El Santuario, Ciudad de M\u00e9xico"}, {"business_status": "OPERATIONAL", "geometry": {"location": {"lat": 19.352643, "lng": -99.09253969999999}, "viewport": {"northeast": {"lat": 19.3539198802915, "lng": -99.09116306970849}, "southwest": {"lat": 19.3512219197085, "lng": -99.09386103029149}}}, "icon": "https://maps.gstatic.com/mapfiles/place_api/icons/v1/png_71/restaurant-71.png", "name": "Carnitas emblema", "photos": [{"height": 719, "html_attributions": ["<a href=\"https://maps.google.com/maps/contrib/114398509280235148177\">Luis Le\u00f3n</a>"], "photo_reference": "CmRaAAAA4pe9Ok8gtubnQgKEDXU3c-0sJfmmtBYY29uv9OhFhCC5Ycv6glidKYH7QXk_fAQw5yADkYeEcW-lyQI8JjuRykcmt3Fnp7W0GdEhdT8-CueVORwo9OpCPNPYe-P0j02REhCU042VZfqNaW1bOKhAJr6UGhRopt0mBt4VWFHJI_Lkzq8WSDh_6w", "width": 1280}], "place_id": "ChIJSZqrgpL90YURj4YoPItZV7s", "plus_code": {"compound_code": "9W34+3X Mexico City, CDMX, Mexico", "global_code": "76F29W34+3X"}, "reference": "ChIJSZqrgpL90YURj4YoPItZV7s", "scope": "GOOGLE", "types": ["restaurant", "food", "point_of_interest", "establishment"], "vicinity": "Misi\u00f3n 8, El Santuario, Ciudad de M\u00e9xico"}, {"business_status": "OPERATIONAL", "geometry": {"location": {"lat": 19.351851, "lng": -99.09548799999999}, "viewport": {"northeast": {"lat": 19.3532160802915, "lng": -99.09412966970848}, "southwest": {"lat": 19.3505181197085, "lng": -99.09682763029149}}}, "icon": "https://maps.gstatic.com/mapfiles/place_api/icons/v1/png_71/restaurant-71.png", "name": "posaditas cuchi", "place_id": "ChIJAQAA8DwCzoURpVVPXq79BGU", "plus_code": {"compound_code": "9W23+PR Mexico City, CDMX, Mexico", "global_code": "76F29W23+PR"}, "rating": 3.5, "reference": "ChIJAQAA8DwCzoURpVVPXq79BGU", "scope": "GOOGLE", "types": ["restaurant", "food", "point_of_interest", "establishment"], "user_ratings_total": 4, "vicinity": "Catedral de Saltillo, Ampliaci\u00f3n el Santuario, Ciudad de M\u00e9xico"}, {"business_status": "OPERATIONAL", "geometry": {"location": {"lat": 19.3482602, "lng": -99.0918868}, "viewport": {"northeast": {"lat": 19.34960918029151, "lng": -99.0905378197085}, "southwest": {"lat": 19.3469112197085, "lng": -99.09323578029151}}}, "icon": "https://maps.gstatic.com/mapfiles/place_api/icons/v1/png_71/restaurant-71.png", "name": "JUGOS Y LICUADOS DON MEMO", "opening_hours": {"open_now": false}, "place_id": "ChIJCR-QPvr90YURGRossWM3S1E", "plus_code": {"compound_code": "8WX5+86 Mexico City, CDMX, Mexico", "global_code": "76F28WX5+86"}, "rating": 4, "reference": "ChIJCR-QPvr90YURGRossWM3S1E", "scope": "GOOGLE", "types": ["restaurant", "food", "point_of_interest", "establishment"], "user_ratings_total": 20, "vicinity": "Parque Nacional Cerro de la Estrella, Ciudad de M\u00e9xico"}, {"business_status": "OPERATIONAL", "geometry": {"location": {"lat": 19.3502694, "lng": -99.0900315}, "viewport": {"northeast": {"lat": 19.3516112802915, "lng": -99.0886827197085}, "southwest": {"lat": 19.3489133197085, "lng": -99.09138068029151}}}, "icon": "https://maps.gstatic.com/mapfiles/place_api/icons/v1/png_71/restaurant-71.png", "name": "El Sue\u00f1o de AIDAVA", "opening_hours": {"open_now": false}, "photos": [{"height": 4160, "html_attributions": ["<a href=\"https://maps.google.com/maps/contrib/103373011464109047056\">ARMANDO HERNANDEZ</a>"], "photo_reference": "CmRaAAAAcBXU3lHuU36SLxXi8n7nD9eHYFUmPXctRF-etOA4fRXCtJVi8VkwBWpYH0JarC4SHGKANb8jnIMp61BKwXBcKBxtvNWtRiYdW2vcGpBXRQbB7a34lNqAjL4ddrAyNaljEhCXYx9CIqGKPznKejW8yopCGhSKnD0GmvritkM58u2tk4lPo1r0DQ", "width": 3120}], "place_id": "ChIJX3lVU5790YURUCk57y5UivI", "plus_code": {"compound_code": "9W25+4X Mexico City, CDMX, Mexico", "global_code": "76F29W25+4X"}, "rating": 5, "reference": "ChIJX3lVU5790YURUCk57y5UivI", "scope": "GOOGLE", "types": ["restaurant", "food", "point_of_interest", "establishment"], "user_ratings_total": 1, "vicinity": ""}, {"business_status": "OPERATIONAL", "geometry": {"location": {"lat": 19.35326689999999, "lng": -99.0947451}, "viewport": {"northeast": {"lat": 19.3546167802915, "lng": -99.09339081970849}, "southwest": {"lat": 19.3519188197085, "lng": -99.09608878029151}}}, "icon": "https://maps.gstatic.com/mapfiles/place_api/icons/v1/png_71/restaurant-71.png", "name": "Carnitas El Flaco", "place_id": "ChIJQdmvtuT90YUR6WPn29vRL-I", "plus_code": {"compound_code": "9W34+84 Mexico City, CDMX, Mexico", "global_code": "76F29W34+84"}, "reference": "ChIJQdmvtuT90YUR6WPn29vRL-I", "scope": "GOOGLE", "types": ["restaurant", "food", "point_of_interest", "establishment"], "vicinity": "Convento, Ampliaci\u00f3n el Santuario, Ciudad de M\u00e9xico"}, {"business_status": "OPERATIONAL", "geometry": {"location": {"lat": 19.3495573, "lng": -99.08956409999999}, "viewport": {"northeast": {"lat": 19.3509064802915, "lng": -99.08822446970848}, "southwest": {"lat": 19.3482085197085, "lng": -99.0909224302915}}}, "icon": "https://maps.gstatic.com/mapfiles/place_api/icons/v1/png_71/restaurant-71.png", "name": "Antojitos Mexicanos", "photos": [{"height": 3120, "html_attributions": ["<a href=\"https://maps.google.com/maps/contrib/101989023061212969154\">Denisse Marenii</a>"], "photo_reference": "CmRaAAAACVo1fMgJLWsUvbdfsw1REFsEy4IuBoSNvshwLBvVQ8JMwvpbI1rHDmOiYquwBaobnlZIR8uL7FyWm_qH0aWa8ypSZbu8sY8N-xsMMH8OKt4lsZ64-mFJSIaKuxtCIN_XEhCU3q0NXSvVsgE-gjsYe2UDGhQQKREOjaGo6G0YJeq3FRSw6-c6rg", "width": 4160}], "place_id": "ChIJD-mKld390YUR0i9wLcARtVY", "plus_code": {"compound_code": "8WX6+R5 Mexico City, CDMX, Mexico", "global_code": "76F28WX6+R5"}, "reference": "ChIJD-mKld390YUR0i9wLcARtVY", "scope": "GOOGLE", "types": ["restaurant", "food", "point_of_interest", "establishment"], "vicinity": "Ampliaci\u00f3n Veracruzana, Ciudad de M\u00e9xico"}, {"business_status": "OPERATIONAL", "geometry": {"location": {"lat": 19.35418499999999, "lng": -99.0933216}, "viewport": {"northeast": {"lat": 19.3555248302915, "lng": -99.0919901197085}, "southwest": {"lat": 19.35282686970849, "lng": -99.0946880802915}}}, "icon": "https://maps.gstatic.com/mapfiles/place_api/icons/v1/png_71/restaurant-71.png", "name": "El Cant\u00f3n", "opening_hours": {"open_now": true}, "photos": [{"height": 3024, "html_attributions": ["<a href=\"https://maps.google.com/maps/contrib/114479039228414084198\">Aletvia Sampedro</a>"], "photo_reference": "CmRaAAAACwpJ2yZ0vHkDUt-e2RkbZaKsYeWQH4_0GruxjzgeZn-Rlg9gMHRSRTzgn_UKcdpf5ABCE6uKqlsinfVCaMW2jVrPc1QERjvNJ418oLJbuveLRMAm71wNW2s97swvBjBeEhAgIUIWwZuhhg2DPu4fyO6vGhQXK4ZLIVJZwoCUo-4iW2dL8-1_iQ", "width": 4032}], "place_id": "ChIJYUPgLsz90YURgtuGUDuaLZA", "plus_code": {"compound_code": "9W34+MM El Santuario, Mexico City, CDMX, Mexico", "global_code": "76F29W34+MM"}, "rating": 5, "reference": "ChIJYUPgLsz90YURgtuGUDuaLZA", "scope": "GOOGLE", "types": ["restaurant", "food", "point_of_interest", "establishment"], "user_ratings_total": 6, "vicinity": "CALLE SAN PABLO N 26 COL, El Santuario"}, {"business_status": "OPERATIONAL", "geometry": {"location": {"lat": 19.3515434, "lng": -99.0892576}, "viewport": {"northeast": {"lat": 19.3529049302915, "lng": -99.08790706970848}, "southwest": {"lat": 19.35020696970849, "lng": -99.0906050302915}}}, "icon": "https://maps.gstatic.com/mapfiles/place_api/icons/v1/png_71/restaurant-71.png", "name": "CARNITAS CRUZ", "opening_hours": {"open_now": false}, "photos": [{"height": 4032, "html_attributions": ["<a href=\"https://maps.google.com/maps/contrib/105473201175041975447\">Amparo Cruz</a>"], "photo_reference": "CmRaAAAA5cugW9PYmbRApHnR5uFTl5HHN0IbHbfoM_vusXVZQlu1vxc9bL6a6tNvqMWOy5iPl5fi_KsTd3z5naenFYEkFsP7Z6_mTEba-xhcg2oHsG7n5wX87Kw5aiy-pcttxEzhEhBA5776qmfSOSIAgxjGCOSeGhQuECBGI7JyoLsq_LarWnyqrUOrmg", "width": 3024}], "place_id": "ChIJaQY1ZSn90YURTkMt5Xpnd54", "plus_code": {"compound_code": "9W26+J7 Mexico City, CDMX, Mexico", "global_code": "76F29W26+J7"}, "rating": 4.2, "reference": "ChIJaQY1ZSn90YURTkMt5Xpnd54", "scope": "GOOGLE", "types": ["restaurant", "food", "point_of_interest", "establishment"], "user_ratings_total": 6, "vicinity": "Jos\u00e9 L\u00f3pez Portillo 31-27, Estado de Veracruz, Ciudad de M\u00e9xico"}, {"business_status": "OPERATIONAL", "geometry": {"location": {"lat": 19.35158209999999, "lng": -99.0891582}, "viewport": {"northeast": {"lat": 19.3529320802915, "lng": -99.08780181970849}, "southwest": {"lat": 19.3502341197085, "lng": -99.0904997802915}}}, "icon": "https://maps.gstatic.com/mapfiles/place_api/icons/v1/png_71/restaurant-71.png", "name": "Comida Corrida", "place_id": "ChIJuRQ_a_D90YURYhrTl8GEs2A", "plus_code": {"compound_code": "9W26+J8 Mexico City, CDMX, Mexico", "global_code": "76F29W26+J8"}, "reference": "ChIJuRQ_a_D90YURYhrTl8GEs2A", "scope": "GOOGLE", "types": ["restaurant", "food", "point_of_interest", "establishment"], "vicinity": "San Pedro, Estado de Veracruz, Ciudad de M\u00e9xico"}, {"business_status": "OPERATIONAL", "geometry": {"location": {"lat": 19.3546883, "lng": -99.09281279999999}, "viewport": {"northeast": {"lat": 19.35542584999999, "lng": -99.08868584999999}, "southwest": {"lat": 19.35247565, "lng": -99.09418844999998}}}, "icon": "https://maps.gstatic.com/mapfiles/place_api/icons/v1/png_71/generic_business-71.png", "name": "Comida para eventos y fiestas", "opening_hours": {"open_now": true}, "photos": [{"height": 3264, "html_attributions": ["<a href=\"https://maps.google.com/maps/contrib/114682679976555546062\">Comida para eventos y fiestas</a>"], "photo_reference": "CmRaAAAALlfDcpZ3djhK5kRk-A0lL9RcG4qNASWQwEJ-xWSwIKdh0XpLFIoJKF_ZwxYh6YOW_aUpfCxpuNu-t0EiEBNeBjMPrdBX0XtCz7Jdwtp67xFTXnfnhyoMg5urjeDDUi_FEhBfgMMAGpwuWQ5607cLSaXMGhQocO3anyCmMbYqWKCA4zxwdGD5tQ", "width": 2448}], "place_id": "ChIJ0To1Xcz90YUR89mdfCry_Qs", "plus_code": {"compound_code": "9W34+VV Mexico City, CDMX, Mexico", "global_code": "76F29W34+VV"}, "rating": 5, "reference": "ChIJ0To1Xcz90YUR89mdfCry_Qs", "scope": "GOOGLE", "types": ["meal_delivery", "restaurant", "food", "point_of_interest", "establishment"], "user_ratings_total": 1, "vicinity": "Catedral de Quer\u00e9taro 50, El Santuario, Ciudad de M\u00e9xico"}, {"business_status": "OPERATIONAL", "geometry": {"location": {"lat": 19.3509429, "lng": -99.08871239999999}, "viewport": {"northeast": {"lat": 19.35232338029151, "lng": -99.0873632197085}, "southwest": {"lat": 19.3496254197085, "lng": -99.0900611802915}}}, "icon": "https://maps.gstatic.com/mapfiles/place_api/icons/v1/png_71/restaurant-71.png", "name": "Pablito\u2019s", "opening_hours": {"open_now": true}, "place_id": "ChIJpYvXuhb90YURy_flyjYupNE", "plus_code": {"compound_code": "9W26+9G Mexico City, CDMX, Mexico", "global_code": "76F29W26+9G"}, "reference": "ChIJpYvXuhb90YURy_flyjYupNE", "scope": "GOOGLE", "types": ["restaurant", "food", "point_of_interest", "establishment"], "vicinity": "Jalapa 11, Estado de Veracruz, Ciudad de M\u00e9xico"}, {"business_status": "OPERATIONAL", "geometry": {"location": {"lat": 19.3484507, "lng": -99.0976566}, "viewport": {"northeast": {"lat": 19.3498026802915, "lng": -99.09631511970849}, "southwest": {"lat": 19.3471047197085, "lng": -99.09901308029151}}}, "icon": "https://maps.gstatic.com/mapfiles/place_api/icons/v1/png_71/restaurant-71.png", "name": "Cerveceria Coral", "opening_hours": {"open_now": false}, "photos": [{"height": 400, "html_attributions": ["<a href=\"https://maps.google.com/maps/contrib/104024182176569986774\">Cerveceria Coral</a>"], "photo_reference": "CmRaAAAAyW5WmROXaskhEZE6jZReA8uas2nopnfhtB49E88ZdwXSlvPht6Fw_eNSsJaYAGRuqpzBjllfr2o0GwSJwNI_KQUCo4jaOcDmhRE8DadYggrtZsMSNksOP7BUoaeFw4GBEhB4E8DnHztC5LKiBfIqHtHbGhQTE0iL8KVfct6AgKkMKenueng2UQ", "width": 600}], "place_id": "ChIJqb_PbPv-0YURVcArFCoHjds", "plus_code": {"compound_code": "8WX2+9W Estrella del Sur, Mexico City, CDMX, Mexico", "global_code": "76F28WX2+9W"}, "rating": 4.6, "reference": "ChIJqb_PbPv-0YURVcArFCoHjds", "scope": "GOOGLE", "types": ["bar", "liquor_store", "restaurant", "food", "point_of_interest", "store", "establishment"], "user_ratings_total": 12, "vicinity": "Citlali 28, Estrella del Sur"}, {"business_status": "OPERATIONAL", "geometry": {"location": {"lat": 19.3513712, "lng": -99.0984158}, "viewport": {"northeast": {"lat": 19.3526857802915, "lng": -99.09698621970848}, "southwest": {"lat": 19.3499878197085, "lng": -99.0996841802915}}}, "icon": "https://maps.gstatic.com/mapfiles/place_api/icons/v1/png_71/restaurant-71.png", "name": "Poller\u00eda Paty", "opening_hours": {"open_now": false}, "place_id": "ChIJl7ORKv390YURAm29lIvdULQ", "plus_code": {"compound_code": "9W22+GJ Estrella del Sur, Mexico City, CDMX, Mexico", "global_code": "76F29W22+GJ"}, "rating": 3, "reference": "ChIJl7ORKv390YURAm29lIvdULQ", "scope": "GOOGLE", "types": ["restaurant", "food", "point_of_interest", "establishment"], "user_ratings_total": 2, "vicinity": "Avenida Estrella 3, Estrella del Sur"}]