[{"business_status": "OPERATIONAL", "formatted_address": "Ermita Iztapalapa 800, Sta B\u00e1rbara, Iztapalapa, 09000 Ciudad de M\u00e9xico, CDMX", "geometry": {"location": {"lat": 19.3563537, "lng": -99.1065288}, "viewport": {"northeast": {"lat": 19.35763902989272, "lng": -99.10518592010727}, "southwest": {"lat": 19.35493937010728, "lng": -99.10788557989272}}}, "icon": "https://maps.gstatic.com/mapfiles/place_api/icons/v1/png_71/civic_building-71.png", "name": "Court Civico IZP-02", "opening_hours": {"open_now": true}, "photos": [{"height": 2988, "html_attributions": ["<a href=\"https://maps.google.com/maps/contrib/105143792918166207379\">German Mora</a>"], "photo_reference": "CmRaAAAAv0OZ9xdwMtxPHQyQPO7xuMpRHeH4xGiEEaJY_r6FCH0pOYK-onseQmyfvCCLjFo4cCZi-7hxAXHXlr4iXJC-IXghZlJLqdLFtWTTphMASaCUKW1bdnYD6afO6WxF51WjEhDZKo-vkBIJmxdh77Rfr3DvGhTYwbyFJg0YdrTuaLUfOuQsPXlMwg", "width": 5312}], "place_id": "ChIJ60OoNgn-0YURW6IvUh69a9M", "plus_code": {"compound_code": "9V4V+G9 Mexico City", "global_code": "76F29V4V+G9"}, "rating": 3, "reference": "ChIJ60OoNgn-0YURW6IvUh69a9M", "types": ["courthouse", "point_of_interest", "establishment"], "user_ratings_total": 8}, {"business_status": "OPERATIONAL", "formatted_address": "Ermita Iztapalapa 334, Prado Churubusco, Coyoac\u00e1n, 09080 Ciudad de M\u00e9xico, CDMX", "geometry": {"location": {"lat": 19.3579435, "lng": -99.12484789999999}, "viewport": {"northeast": {"lat": 19.35932767989273, "lng": -99.12349352010726}, "southwest": {"lat": 19.35662802010728, "lng": -99.12619317989271}}}, "icon": "https://maps.gstatic.com/mapfiles/place_api/icons/v1/png_71/civic_building-71.png", "name": "Juzgado 35 de Paz Penal", "place_id": "ChIJ15oz__390YURtyof0vSST-8", "rating": 0, "reference": "ChIJ15oz__390YURtyof0vSST-8", "types": ["courthouse", "point_of_interest", "establishment"], "user_ratings_total": 0}, {"business_status": "OPERATIONAL", "formatted_address": "Cafetales S/N, San Francisco Culhuacan, Culhuacan CTM V, Coyoac\u00e1n, 04260 Ciudad de M\u00e9xico, CDMX", "geometry": {"location": {"lat": 19.3343669, "lng": -99.11366729999999}, "viewport": {"northeast": {"lat": 19.33560917989272, "lng": -99.11246342010728}, "southwest": {"lat": 19.33290952010728, "lng": -99.11516307989272}}}, "icon": "https://maps.gstatic.com/mapfiles/place_api/icons/v1/png_71/civic_building-71.png", "name": "Juzgado C\u00edvico COY-03", "photos": [{"height": 2988, "html_attributions": ["<a href=\"https://maps.google.com/maps/contrib/105143792918166207379\">German Mora</a>"], "photo_reference": "CmRaAAAAfUV6N1GgMBOC7vMy3S7oz15XrSPM-YGnWXRZJBs7qHsZT5eqmvyBAz1FiQgC3naSXmEHUV6BY3JyafePwbn6aFAeUribjso7EY9jY-BEZb76iPHM-CNk5Rn3rGRnA4RoEhAfpWxHPEMkap_v6_iYP0XYGhRocR4xWCeOzUQQaLo8fXLNDL2c7Q", "width": 5312}], "place_id": "ChIJh9HLYeMBzoURR2YxUrOXLLQ", "plus_code": {"compound_code": "8VMP+PG Mexico City", "global_code": "76F28VMP+PG"}, "rating": 2.7, "reference": "ChIJh9HLYeMBzoURR2YxUrOXLLQ", "types": ["courthouse", "point_of_interest", "establishment"], "user_ratings_total": 16}, {"business_status": "OPERATIONAL", "formatted_address": "Esquina El Verde, Cjon. San Salvador El Verde 3, Obrera, Cuauht\u00e9moc, 06000 Ciudad de M\u00e9xico, CDMX", "geometry": {"location": {"lat": 19.4238154, "lng": -99.13714429999999}, "viewport": {"northeast": {"lat": 19.42496772989272, "lng": -99.13550312010729}, "southwest": {"lat": 19.42226807010728, "lng": -99.13820277989272}}}, "icon": "https://maps.gstatic.com/mapfiles/place_api/icons/v1/png_71/civic_building-71.png", "name": "SUPREME COURT OF JUSTICE", "opening_hours": {"open_now": false}, "place_id": "ChIJu9vHRND-0YURosNW--dajP8", "plus_code": {"compound_code": "CVF7+G4 Mexico City", "global_code": "76F2CVF7+G4"}, "rating": 5, "reference": "ChIJu9vHRND-0YURosNW--dajP8", "types": ["courthouse", "point_of_interest", "establishment"], "user_ratings_total": 2}, {"business_status": "OPERATIONAL", "formatted_address": "Candelaria P\u00e9rez, Coapa, Stunam, Coyoac\u00e1n, 04908 Ciudad de M\u00e9xico, CDMX", "geometry": {"location": {"lat": 19.3195859, "lng": -99.10076439999999}, "viewport": {"northeast": {"lat": 19.32092942989272, "lng": -99.09931812010728}, "southwest": {"lat": 19.31822977010728, "lng": -99.10201777989272}}}, "icon": "https://maps.gstatic.com/mapfiles/place_api/icons/v1/png_71/civic_building-71.png", "name": "Court Civico COY-05", "opening_hours": {"open_now": true}, "photos": [{"height": 2988, "html_attributions": ["<a href=\"https://maps.google.com/maps/contrib/105143792918166207379\">German Mora</a>"], "photo_reference": "CmRaAAAAoRDeOXM5NxJMlQnRkLa_a7P5vdD9AnXc3NDGRW0aig7UJGlxITX2V2fnJD4m7DulkLh8mKnIVJUnb9byv2hETuZVNLxsya3dOeWSaKBFeQ079EnUQgU18gWfRiAgwEYGEhDnJl_HzNzmkKnTbA6meLuKGhSApBwg5-mf9ikFR_K4OHKWogDjZw", "width": 5312}], "place_id": "ChIJURsw0B8CzoURhYMk-SMU9Ts", "plus_code": {"compound_code": "8V9X+RM Mexico City", "global_code": "76F28V9X+RM"}, "rating": 2.3, "reference": "ChIJURsw0B8CzoURhYMk-SMU9Ts", "types": ["courthouse", "point_of_interest", "establishment"], "user_ratings_total": 6}, {"business_status": "OPERATIONAL", "formatted_address": "Av. Ni\u00f1os Heroes 133, Doctores, Cuauht\u00e9moc, 06720 Ciudad de M\u00e9xico, CDMX", "geometry": {"location": {"lat": 19.4210425, "lng": -99.1504073}, "viewport": {"northeast": {"lat": 19.42229652989272, "lng": -99.14893727010728}, "southwest": {"lat": 19.41959687010728, "lng": -99.15163692989273}}}, "icon": "https://maps.gstatic.com/mapfiles/place_api/icons/v1/png_71/civic_building-71.png", "name": "Superior Court CDMX", "opening_hours": {"open_now": false}, "photos": [{"height": 2340, "html_attributions": ["<a href=\"https://maps.google.com/maps/contrib/114875802607141334771\">samuel aparicio</a>"], "photo_reference": "CmRaAAAAS7S9miXjR1tz-5YHFjstjcZsjlK8e3greszv6Gg4Ku7PM7q4ggUCRVc-iQydl8WJArgwhLwQi5U6ZXxo0X8dUH30snK8ZQ8QTPxQO2fFx37YtKGGxoYxxMCos0nqZv-wEhBzKlUJv3hfg3qrqhrAkZfNGhS5ogIDEf3HOmHhxjx_UDqIHeOtCw", "width": 4160}], "place_id": "ChIJ_bVBpyj_0YURJHPNcb3TASU", "plus_code": {"compound_code": "CRCX+CR Mexico City", "global_code": "76F2CRCX+CR"}, "rating": 4.3, "reference": "ChIJ_bVBpyj_0YURJHPNcb3TASU", "types": ["courthouse", "point_of_interest", "establishment"], "user_ratings_total": 110}, {"business_status": "OPERATIONAL", "formatted_address": "Campa\u00f1a del \u00c9bano S/N, U.H. Vicente Guerrero, Iztapalapa, 09200 Ciudad de M\u00e9xico, CDMX", "geometry": {"location": {"lat": 19.3533955, "lng": -99.0539538}, "viewport": {"northeast": {"lat": 19.35474307989272, "lng": -99.05254002010727}, "southwest": {"lat": 19.35204342010728, "lng": -99.05523967989272}}}, "icon": "https://maps.gstatic.com/mapfiles/place_api/icons/v1/png_71/civic_building-71.png", "name": "Court Civico IZP-05", "opening_hours": {"open_now": true}, "photos": [{"height": 2368, "html_attributions": ["<a href=\"https://maps.google.com/maps/contrib/107837819819810087761\">Pablo Torres</a>"], "photo_reference": "CmRaAAAAtqaAXna1tw-8tXsYcEQQJh9P9xWfPfmNngu4GieD8mIADWdReZe9wfTbYs4pDp2zBybae9k5HJrlFh-DMukdw-ySJRi2k7dccNJjI-T1JooezQDuvMFwAxYVd0Aj9r3IEhC4cFVffAQNMX1zeswR61FvGhQjv9n_UJE_F7mRdvfNwGThHtgaDg", "width": 4208}], "place_id": "ChIJ4_kAynn90YURlh6mc-vo2Uw", "plus_code": {"compound_code": "9W3W+9C U.H. Vicente Guerrero, Mexico City", "global_code": "76F29W3W+9C"}, "rating": 3.2, "reference": "ChIJ4_kAynn90YURlh6mc-vo2Uw", "types": ["courthouse", "point_of_interest", "establishment"], "user_ratings_total": 6}, {"business_status": "OPERATIONAL", "formatted_address": "Avenida Canoa 70 Tizapan San Angel Delegaci\u00f3n Alvaro Obreg\u00f3n", "geometry": {"location": {"lat": 19.334642, "lng": -99.2026453}, "viewport": {"northeast": {"lat": 19.33601132989272, "lng": -99.20126767010728}, "southwest": {"lat": 19.33331167010728, "lng": -99.20396732989273}}}, "icon": "https://maps.gstatic.com/mapfiles/place_api/icons/v1/png_71/civic_building-71.png", "name": "Supreme Court of Justice of the Nation", "place_id": "ChIJm3GUw_f_zYURxqhP5PxjJLU", "plus_code": {"compound_code": "8QMW+VW Mexico City", "global_code": "76F28QMW+VW"}, "rating": 0, "reference": "ChIJm3GUw_f_zYURxqhP5PxjJLU", "types": ["courthouse", "point_of_interest", "establishment"], "user_ratings_total": 0}, {"business_status": "OPERATIONAL", "formatted_address": "Zompantitla 24, Romero de Terreros, Coyoac\u00e1n, 04010 Ciudad de M\u00e9xico, CDMX", "geometry": {"location": {"lat": 19.3444717, "lng": -99.1671947}, "viewport": {"northeast": {"lat": 19.34585312989272, "lng": -99.16583792010728}, "southwest": {"lat": 19.34315347010728, "lng": -99.16853757989273}}}, "icon": "https://maps.gstatic.com/mapfiles/place_api/icons/v1/png_71/civic_building-71.png", "name": "Jusgado 24", "opening_hours": {"open_now": false}, "place_id": "ChIJna458t3_0YURbYP3PimY3ko", "plus_code": {"compound_code": "8RVM+Q4 Mexico City", "global_code": "76F28RVM+Q4"}, "rating": 1, "reference": "ChIJna458t3_0YURbYP3PimY3ko", "types": ["courthouse", "point_of_interest", "establishment"], "user_ratings_total": 1}, {"business_status": "OPERATIONAL", "formatted_address": "Sur 157, Bramadero Ramos Mill\u00e1n, Iztacalco, 08000 Ciudad de M\u00e9xico, CDMX", "geometry": {"location": {"lat": 19.396013, "lng": -99.0951405}, "viewport": {"northeast": {"lat": 19.39736752989272, "lng": -99.09384022010727}, "southwest": {"lat": 19.39466787010728, "lng": -99.09653987989272}}}, "icon": "https://maps.gstatic.com/mapfiles/place_api/icons/v1/png_71/civic_building-71.png", "name": "Juzgado Civico IZC-02", "place_id": "ChIJARtqzy780YURwFDchSwrzqE", "plus_code": {"compound_code": "9WW3+CW Mexico City", "global_code": "76F29WW3+CW"}, "rating": 3.5, "reference": "ChIJARtqzy780YURwFDchSwrzqE", "types": ["courthouse", "point_of_interest", "establishment"], "user_ratings_total": 2}, {"business_status": "OPERATIONAL", "formatted_address": "Av. Insurgentes Sur 1888, Florida, \u00c1lvaro Obreg\u00f3n, 01020 Ciudad de M\u00e9xico, CDMX", "geometry": {"location": {"lat": 19.3542035, "lng": -99.1850834}, "viewport": {"northeast": {"lat": 19.35557152989272, "lng": -99.18379622010727}, "southwest": {"lat": 19.35287187010728, "lng": -99.18649587989272}}}, "icon": "https://maps.gstatic.com/mapfiles/place_api/icons/v1/png_71/civic_building-71.png", "name": "Poder Judicial de la Federaci\u00f3n", "opening_hours": {"open_now": false}, "photos": [{"height": 3120, "html_attributions": ["<a href=\"https://maps.google.com/maps/contrib/110624869729140533095\">Raul LUNA HERNANDEZ</a>"], "photo_reference": "CmRaAAAAVwL6ALYbUPGMGnL66k69kgTRylD_O3wk9rp-gbLq5JNsWjt0dTs56wsi6PhibmLgg9bO2BEALLTQjAZMohAR_UweiXVwn5EuzdKj__kkBSCoD89kqIfnH-aU7clU9sTLEhDV6xSoAoA1GfG00MGecS7KGhTIvUd8Wbk1KA7guzrZ1rnjLdB5mA", "width": 4160}], "place_id": "ChIJOW6HHfT_0YUR_jmGUMxYZhY", "plus_code": {"compound_code": "9R37+MX Mexico City", "global_code": "76F29R37+MX"}, "rating": 5, "reference": "ChIJOW6HHfT_0YUR_jmGUMxYZhY", "types": ["courthouse", "point_of_interest", "establishment"], "user_ratings_total": 3}, {"business_status": "OPERATIONAL", "formatted_address": "Calz. Viga 1174 Torre C, El Triunfo, Ciudad de M\u00e9xico, CDMX", "geometry": {"location": {"lat": 19.3798777, "lng": -99.1211448}, "viewport": {"northeast": {"lat": 19.38132897989272, "lng": -99.11978967010728}, "southwest": {"lat": 19.37862932010728, "lng": -99.12248932989273}}}, "icon": "https://maps.gstatic.com/mapfiles/place_api/icons/v1/png_71/civic_building-71.png", "name": "Tribunal Superior De Justicia De La Cuidad De M\u00e9xico \"Sede La Viga\"", "opening_hours": {"open_now": false}, "photos": [{"height": 3120, "html_attributions": ["<a href=\"https://maps.google.com/maps/contrib/113010116051950529574\">Hector Velez</a>"], "photo_reference": "CmRaAAAAxVQLBluQuXmDlr_Z79aYZkSSA40bwNQUnKk1QgPDXrikGXk4jBTYL_4BBoYGulBExUclLFR0Iefq0bnAotr6oDnSmHsyZA0XVJjKQ7iUA_fUB7kLYhLjYhWtDhMwCvsrEhDFTS-jAWtwTejccSMNviA5GhR5qI4c-S9PnSrAK3gmgVRAroY0Qw", "width": 4160}], "place_id": "ChIJYSv1I2f-0YURzW7vzEhoqbY", "plus_code": {"compound_code": "9VHH+XG Mexico City", "global_code": "76F29VHH+XG"}, "rating": 3.8, "reference": "ChIJYSv1I2f-0YURzW7vzEhoqbY", "types": ["courthouse", "local_government_office", "point_of_interest", "establishment"], "user_ratings_total": 17}, {"business_status": "OPERATIONAL", "formatted_address": "Av. Insurgentes Sur 881, N\u00e1poles, Benito Ju\u00e1rez, 03810 Ciudad de M\u00e9xico, CDMX", "geometry": {"location": {"lat": 19.3876063, "lng": -99.1747319}, "viewport": {"northeast": {"lat": 19.38895512989272, "lng": -99.17337902010728}, "southwest": {"lat": 19.38625547010727, "lng": -99.17607867989273}}}, "icon": "https://maps.gstatic.com/mapfiles/place_api/icons/v1/png_71/civic_building-71.png", "name": "Federal Court of Administrative Justice", "opening_hours": {"open_now": false}, "photos": [{"height": 3120, "html_attributions": ["<a href=\"https://maps.google.com/maps/contrib/109231497687143116297\">Ross L</a>"], "photo_reference": "CmRaAAAAmY75O42WklQAxhZRRj89y4P4C8XyCBi07QDbJJOlX0KOwLxzqT0zlt3MTr9kNGQzzO07dcqTi9D7VqM68p7ns4qmeWBneVD1-faIVydzdaIiB5JmfFHgyIoTu6aQWHepEhAKA1Wlj30zN5m8_9xKXB7jGhTbuJu3-QKxvnUHFjifwH8OcGQaGw", "width": 4160}], "place_id": "ChIJS5kLKVEA0oURDyoAtsI2mhY", "plus_code": {"compound_code": "9RQG+24 Mexico City", "global_code": "76F29RQG+24"}, "rating": 4.4, "reference": "ChIJS5kLKVEA0oURDyoAtsI2mhY", "types": ["courthouse", "point_of_interest", "establishment"], "user_ratings_total": 77}, {"business_status": "OPERATIONAL", "formatted_address": "Sidar y Rovirosa 71, El Parque, Venustiano Carranza, 15960 Ciudad de M\u00e9xico, CDMX", "geometry": {"location": {"lat": 19.4272073, "lng": -99.1170829}, "viewport": {"northeast": {"lat": 19.42868537989272, "lng": -99.11509172010727}, "southwest": {"lat": 19.42598572010727, "lng": -99.11779137989271}}}, "icon": "https://maps.gstatic.com/mapfiles/place_api/icons/v1/png_71/civic_building-71.png", "name": "Juzgados De Amparo", "photos": [{"height": 2340, "html_attributions": ["<a href=\"https://maps.google.com/maps/contrib/114875802607141334771\">samuel aparicio</a>"], "photo_reference": "CmRaAAAAdDdhp2hOmlx84m6k5HHp4S7Y1f3y-XqpJFDYmIOtfSJmvphtrJuz6JNId2BagYn7HmfjsOPdxG-Nz4y3DVmaVGyrrEE6h4SMsAdgtdxSQrkP2F24pEHJmGh7SRCoAargEhDqxyLBC-Dt2Or-cQKfaEXRGhQfapfgBu8cKgiP539fdXHuFU7PtA", "width": 4160}], "place_id": "ChIJO_zRcbH-0YURw_4kA1D1tWU", "plus_code": {"compound_code": "CVGM+V5 Mexico City", "global_code": "76F2CVGM+V5"}, "rating": 4, "reference": "ChIJO_zRcbH-0YURw_4kA1D1tWU", "types": ["courthouse", "point_of_interest", "establishment"], "user_ratings_total": 2}, {"business_status": "OPERATIONAL", "formatted_address": "Boulevard Adolfo L\u00f3pez Mateos (Perif\u00e9rico Sur) no. 2321, \u00c1lvaro Obreg\u00f3n, San \u00c1ngel, 01760 Ciudad de M\u00e9xico, CDMX", "geometry": {"location": {"lat": 19.3523708, "lng": -99.200942}, "viewport": {"northeast": {"lat": 19.35370717989272, "lng": -99.19952672010727}, "southwest": {"lat": 19.35100752010728, "lng": -99.2022263798927}}}, "icon": "https://maps.gstatic.com/mapfiles/place_api/icons/v1/png_71/civic_building-71.png", "name": "Module Information and Access to Justice \"Las Flores\"", "opening_hours": {"open_now": false}, "place_id": "ChIJIX20CxoA0oURFLTCFoQtEPE", "plus_code": {"compound_code": "9Q2X+WJ Mexico City", "global_code": "76F29Q2X+WJ"}, "rating": 4.7, "reference": "ChIJIX20CxoA0oURFLTCFoQtEPE", "types": ["courthouse", "point_of_interest", "establishment"], "user_ratings_total": 3}, {"business_status": "OPERATIONAL", "formatted_address": "Av. Divisi\u00f3n del Nte., Sta Cruz Atoyac, Benito Ju\u00e1rez, 03310 Ciudad de M\u00e9xico, CDMX", "geometry": {"location": {"lat": 19.3726158, "lng": -99.15774689999999}, "viewport": {"northeast": {"lat": 19.37400092989272, "lng": -99.1562545701073}, "southwest": {"lat": 19.37130127010728, "lng": -99.15895422989273}}}, "icon": "https://maps.gstatic.com/mapfiles/place_api/icons/v1/png_71/civic_building-71.png", "name": "Court Civico BJU-01", "photos": [{"height": 2988, "html_attributions": ["<a href=\"https://maps.google.com/maps/contrib/105143792918166207379\">German Mora</a>"], "photo_reference": "CmRaAAAAZRYoLCa5pGTvT7qmgMZ2B1qH6DVROX0sFouNgB_yq4qYmC1JATaB11VF1v1Fr_qo9S5HLE301FrCEUumf6QaNkfUNQKy2xzRwAW2URJc5U6fIZHjFqm3kXTMa35JcnfSEhAghkbgxucSET8lDietyspvGhQ9Mnhejg7DFnt8gjHCbBOJnbhFcw", "width": 5312}], "place_id": "ChIJew82t7r_0YURMjiJO05vQ-U", "plus_code": {"compound_code": "9RFR+2W Mexico City", "global_code": "76F29RFR+2W"}, "rating": 1.7, "reference": "ChIJew82t7r_0YURMjiJO05vQ-U", "types": ["courthouse", "point_of_interest", "establishment"], "user_ratings_total": 6}, {"business_status": "OPERATIONAL", "formatted_address": "Avenida, Ermita Iztapalapa No. 4037, Santa Martha Acatitla, Iztapalapa, 09510 Ciudad de M\u00e9xico, CDMX", "geometry": {"location": {"lat": 19.3550795, "lng": -99.0112523}, "viewport": {"northeast": {"lat": 19.35600102989272, "lng": -99.00970242010727}, "southwest": {"lat": 19.35330137010727, "lng": -99.01240207989271}}}, "icon": "https://maps.gstatic.com/mapfiles/place_api/icons/v1/png_71/civic_building-71.png", "name": "Juzgado 69 Penal", "opening_hours": {"open_now": false}, "place_id": "ChIJazP8mkH-0YURxQkl28y40L0", "plus_code": {"compound_code": "9X4Q+2F Mexico City", "global_code": "76F29X4Q+2F"}, "rating": 5, "reference": "ChIJazP8mkH-0YURxQkl28y40L0", "types": ["courthouse", "point_of_interest", "establishment"], "user_ratings_total": 1}, {"business_status": "OPERATIONAL", "formatted_address": "Calle Vagones s/n, Naucalpan Centro, 53000 Naucalpan de Ju\u00e1rez, M\u00e9x.", "geometry": {"location": {"lat": 19.4678376, "lng": -99.2350642}, "viewport": {"northeast": {"lat": 19.46927422989273, "lng": -99.23381507010727}, "southwest": {"lat": 19.46657457010728, "lng": -99.23651472989272}}}, "icon": "https://maps.gstatic.com/mapfiles/place_api/icons/v1/png_71/civic_building-71.png", "name": "Palacio de Justicia Naucalpan de Juarez", "opening_hours": {"open_now": false}, "photos": [{"height": 2340, "html_attributions": ["<a href=\"https://maps.google.com/maps/contrib/109404112599420577851\">J Antonio Blanquel G</a>"], "photo_reference": "CmRaAAAAmQou15w1iGX2CAdMQ7HRm4AgwG1839XMxDUSsmL6PUMRPSZWEXPd5YTV6K11LDyvORu4d9WeDwIGm3mHUH8KvtyzZzA0HuhiC7vLVPDxbJgfQrkb7Et8LUxhnxjUpMw0EhC7raWUSL2-p2mSRxntl7mfGhSNqrxsCBVeMPtAzD5OqY3M-fzUWw", "width": 4160}], "place_id": "ChIJ0Q-wx6wD0oURWFw-0TrMa5o", "plus_code": {"compound_code": "FQ97+4X Naucalpan de Ju\u00e1rez, State of Mexico", "global_code": "76F2FQ97+4X"}, "rating": 3.1, "reference": "ChIJ0Q-wx6wD0oURWFw-0TrMa5o", "types": ["courthouse", "point_of_interest", "establishment"], "user_ratings_total": 13}, {"business_status": "OPERATIONAL", "formatted_address": "Av. Pdte. Plutarco El\u00edas Calles 661, Nueva Sta Anita, Iztacalco, 08220 Ciudad de M\u00e9xico, CDMX", "geometry": {"location": {"lat": 19.3953144, "lng": -99.1313249}, "viewport": {"northeast": {"lat": 19.39666007989272, "lng": -99.12995462010728}, "southwest": {"lat": 19.39396042010728, "lng": -99.13265427989273}}}, "icon": "https://maps.gstatic.com/mapfiles/place_api/icons/v1/png_71/civic_building-71.png", "name": "Bufete A.C.osta y Rodriguez y Compa\u00f1oa S.C.", "place_id": "ChIJVYxlxPH-0YUR5OVxjz5i_hA", "plus_code": {"compound_code": "9VW9+4F Mexico City", "global_code": "76F29VW9+4F"}, "rating": 0, "reference": "ChIJVYxlxPH-0YUR5OVxjz5i_hA", "types": ["courthouse", "accounting", "finance", "point_of_interest", "establishment"], "user_ratings_total": 0}, {"business_status": "OPERATIONAL", "formatted_address": "3, Chinam Pac de Ju\u00e1rez, 09208 Iztapalapa, CDMX", "geometry": {"location": {"lat": 19.3819967, "lng": -99.0413086}, "viewport": {"northeast": {"lat": 19.38328732989272, "lng": -99.03984787010727}, "southwest": {"lat": 19.38058767010728, "lng": -99.04254752989272}}}, "icon": "https://maps.gstatic.com/mapfiles/place_api/icons/v1/png_71/civic_building-71.png", "name": "Court Civico IZP-06", "opening_hours": {"open_now": true}, "place_id": "ChIJka8GzRv90YURFGLw0jN5mfk", "plus_code": {"compound_code": "9XJ5+QF Chinam Pac de Ju\u00e1rez, Mexico City", "global_code": "76F29XJ5+QF"}, "rating": 3.3, "reference": "ChIJka8GzRv90YURFGLw0jN5mfk", "types": ["courthouse", "point_of_interest", "establishment"], "user_ratings_total": 9}]