[{"business_status": "OPERATIONAL", "formatted_address": "Chimacoatl 41, Estrella del Sur, Iztapalapa, 09820 Ciudad de M\u00e9xico, CDMX", "geometry": {"location": {"lat": 19.3514151, "lng": -99.09890000000001}, "viewport": {"northeast": {"lat": 19.35283172989272, "lng": -99.09752202010728}, "southwest": {"lat": 19.35013207010728, "lng": -99.10022167989273}}}, "icon": "https://maps.gstatic.com/mapfiles/place_api/icons/v1/png_71/worship_general-71.png", "name": "Iglesia", "photos": [{"height": 3096, "html_attributions": ["<a href=\"https://maps.google.com/maps/contrib/113802210423557959644\">Isco Serrano</a>"], "photo_reference": "CmRaAAAA9Y5caWFnHqHEYEy91GO3CnWGSUcPwqJTcXj306iT6m4IQNNcnWjD_9bremTgRGKGlBw7eH04IwcIptIGLjyrXPTgTDJpgFwHz__xxWQeSpr9MXSS4O3A1IKPHpSpEEgFEhDSfY0ZR1HYvBCB5ARjOBx7GhSUtEdNv5042eeVvn2--SBkVL3_wA", "width": 4128}], "place_id": "ChIJb5owVir90YURAWIITjDfUZU", "plus_code": {"compound_code": "9W22+HC Mexico City", "global_code": "76F29W22+HC"}, "rating": 4.8, "reference": "ChIJb5owVir90YURAWIITjDfUZU", "types": ["church", "place_of_worship", "point_of_interest", "establishment"], "user_ratings_total": 5}, {"business_status": "OPERATIONAL", "formatted_address": "Tlaxcanes 45, Ricardo Flores Mag\u00f3n, Iztapalapa, 09820 Ciudad de M\u00e9xico, CDMX", "geometry": {"location": {"lat": 19.3535871, "lng": -99.097415}, "viewport": {"northeast": {"lat": 19.35499877989272, "lng": -99.09603877010728}, "southwest": {"lat": 19.35229912010728, "lng": -99.09873842989273}}}, "icon": "https://maps.gstatic.com/mapfiles/place_api/icons/v1/png_71/worship_general-71.png", "name": "Parroquia de Nuestra Se\u00f1ora de Lourdes", "photos": [{"height": 2784, "html_attributions": ["<a href=\"https://maps.google.com/maps/contrib/103192964286047952723\">Herbert Maldonado</a>"], "photo_reference": "CmRaAAAAYbIPqr908zLLo3BfGr9CplhAveAzgKcLZVHBqnlUwM0zCxpCQQw1U1755sABiZK69b9wbESZImmRTRjwZXEBTttgSVx1ko5-8KdVHhABX_mQLqqI3lfn35lOdvm1zYbqEhC938j-OaXg0jOM8sM0tPP_GhQ2swNy_cyMZU3xAVd9a-Hq5qtA4w", "width": 4615}], "place_id": "ChIJA7DzOOP90YURlglcNH3fw-s", "plus_code": {"compound_code": "9W33+C2 Mexico City", "global_code": "76F29W33+C2"}, "rating": 4.5, "reference": "ChIJA7DzOOP90YURlglcNH3fw-s", "types": ["church", "place_of_worship", "point_of_interest", "establishment"], "user_ratings_total": 112}, {"business_status": "OPERATIONAL", "formatted_address": "2a Cerrada de San Juan 49, Ricardo Flores Mag\u00f3n, 09820 Iztapalapa, CDMX", "geometry": {"location": {"lat": 19.3545734, "lng": -99.09888649999999}, "viewport": {"northeast": {"lat": 19.35592802989272, "lng": -99.09754927010728}, "southwest": {"lat": 19.35322837010728, "lng": -99.10024892989273}}}, "icon": "https://maps.gstatic.com/mapfiles/place_api/icons/v1/png_71/worship_general-71.png", "name": "Muros de Salvacion y Puertas de Alabanza", "place_id": "ChIJmTZ7ueL90YURvprcfrlJT00", "plus_code": {"compound_code": "9W32+RC Mexico City", "global_code": "76F29W32+RC"}, "rating": 5, "reference": "ChIJmTZ7ueL90YURvprcfrlJT00", "types": ["church", "place_of_worship", "point_of_interest", "establishment"], "user_ratings_total": 3}, {"business_status": "OPERATIONAL", "formatted_address": "Sur 127 118, Los Cipreses, Iztapalapa, 09810 Ciudad de M\u00e9xico, CDMX", "geometry": {"location": {"lat": 19.3520665, "lng": -99.1077028}, "viewport": {"northeast": {"lat": 19.35343197989272, "lng": -99.10650277010727}, "southwest": {"lat": 19.35073232010728, "lng": -99.10920242989272}}}, "icon": "https://maps.gstatic.com/mapfiles/place_api/icons/v1/png_71/worship_general-71.png", "name": "Santa Isabel Prima rectory of Holy Mary", "photos": [{"height": 1836, "html_attributions": ["<a href=\"https://maps.google.com/maps/contrib/116572660528603162483\">Alejandra Garza</a>"], "photo_reference": "CmRaAAAAxg1Yoq81p0cCSKXMvRjAb9s8cCXUe0a-qHVImRNhmgeVGxRuNXRx_DTdih9fYIc074osXULiTGC4QEYYbIT7vXuagZNfb3fuUzcjekPIEMr-sl55yrofgOMT_4nkMziKEhBh2g9LSds32S6e9n5iDmAYGhQ9i4hSLlRrQGBnXJ3dVcucgdgtnQ", "width": 3264}], "place_id": "ChIJAdrT9QX-0YURIMz2hsyU3RY", "plus_code": {"compound_code": "9V2R+RW Mexico City", "global_code": "76F29V2R+RW"}, "rating": 4.4, "reference": "ChIJAdrT9QX-0YURIMz2hsyU3RY", "types": ["tourist_attraction", "church", "place_of_worship", "point_of_interest", "establishment"], "user_ratings_total": 260}, {"business_status": "OPERATIONAL", "formatted_address": "Calle Cuauht\u00e9moc 102, Estrella del Sur, Iztapalapa, 09820 Ciudad de M\u00e9xico, CDMX", "geometry": {"location": {"lat": 19.3466262, "lng": -99.0994592}, "viewport": {"northeast": {"lat": 19.34795057989272, "lng": -99.09811732010728}, "southwest": {"lat": 19.34525092010727, "lng": -99.10081697989271}}}, "icon": "https://maps.gstatic.com/mapfiles/place_api/icons/v1/png_71/worship_general-71.png", "name": "Iglesia Estrella Resplandeciente de la Ma\u00f1ana IMEC", "opening_hours": {"open_now": false}, "place_id": "ChIJIQtMdv790YURY9ZzXrf8Bbg", "plus_code": {"compound_code": "8WW2+M6 Mexico City", "global_code": "76F28WW2+M6"}, "rating": 4, "reference": "ChIJIQtMdv790YURY9ZzXrf8Bbg", "types": ["church", "place_of_worship", "point_of_interest", "establishment"], "user_ratings_total": 6}, {"business_status": "OPERATIONAL", "formatted_address": "Av. Toltecas 66, Sta B\u00e1rbara, Iztapalapa, 09000 Ciudad de M\u00e9xico, CDMX", "geometry": {"location": {"lat": 19.358239, "lng": -99.1049623}, "viewport": {"northeast": {"lat": 19.35957452989272, "lng": -99.10357117010727}, "southwest": {"lat": 19.35687487010728, "lng": -99.10627082989272}}}, "icon": "https://maps.gstatic.com/mapfiles/place_api/icons/v1/png_71/worship_general-71.png", "name": "Iglesia de Cristo", "opening_hours": {"open_now": false}, "place_id": "ChIJsUZ_2Av-0YUR_7r93Br2OcA", "plus_code": {"compound_code": "9V5W+72 Mexico City", "global_code": "76F29V5W+72"}, "rating": 4.2, "reference": "ChIJsUZ_2Av-0YUR_7r93Br2OcA", "types": ["church", "place_of_worship", "point_of_interest", "establishment"], "user_ratings_total": 9}, {"business_status": "OPERATIONAL", "formatted_address": "Fco. Pascual Garcia 11, San Lucas, Iztapalapa, 09000 Ciudad de M\u00e9xico, CDMX", "geometry": {"location": {"lat": 19.3565201, "lng": -99.09584579999999}, "viewport": {"northeast": {"lat": 19.35786697989272, "lng": -99.09446617010728}, "southwest": {"lat": 19.35516732010728, "lng": -99.09716582989272}}}, "icon": "https://maps.gstatic.com/mapfiles/place_api/icons/v1/png_71/worship_general-71.png", "name": "Iglesia Cristiana Trigo Dorado", "photos": [{"height": 3120, "html_attributions": ["<a href=\"https://maps.google.com/maps/contrib/105380774454321227011\">Josafat Carrillo</a>"], "photo_reference": "CmRaAAAAsvxNAVYC48uaWXuoVm6qE71Q6jO0p_9DsZN83mNRDZp22PcTMuhf_iH7E7E8rvciBfjOYxPSFi0PldDYBIL1WDScaikoZnf4Mggc1dmitwOVW449zfhb99ZkLW5YKXZ7EhD_AI9zxWsWkw0eg8woBY7pGhTVmhXPrrO7SQCG_h7PSvsu98vy7Q", "width": 4160}], "place_id": "ChIJmewEiOP90YURSbYWghfUu9s", "plus_code": {"compound_code": "9W43+JM Mexico City", "global_code": "76F29W43+JM"}, "rating": 4.1, "reference": "ChIJmewEiOP90YURSbYWghfUu9s", "types": ["church", "place_of_worship", "point_of_interest", "establishment"], "user_ratings_total": 11}, {"business_status": "OPERATIONAL", "formatted_address": "Benito Ju\u00e1rez 4, Los Reyes Culhuacan, Iztapalapa, 09840 Ciudad de M\u00e9xico, CDMX", "geometry": {"location": {"lat": 19.3460868, "lng": -99.1088944}, "viewport": {"northeast": {"lat": 19.34744822989272, "lng": -99.10760992010728}, "southwest": {"lat": 19.34474857010727, "lng": -99.11030957989273}}}, "icon": "https://maps.gstatic.com/mapfiles/place_api/icons/v1/png_71/worship_general-71.png", "name": "Parroquia de Los Santos Reyes", "opening_hours": {"open_now": true}, "photos": [{"height": 1749, "html_attributions": ["<a href=\"https://maps.google.com/maps/contrib/113840708515756198813\">A Google User</a>"], "photo_reference": "CmRaAAAABcbbObXGW0a6CKUHSSgLwr3MnlkJ-E5wwWdXyAYOqEKjOCxmGrZ2teBqo_EbdtzekIo6b-Sxe20Is-eg_fu8lKMZzGAJdnCv4LFeEOBT4FGx9LkYRQlN6MH1nWbG_4KGEhBzmxkfZ0OPxK1aimYNYOhYGhSxM3tEHlicWKwJlMalmegHzZjpaw", "width": 2858}], "place_id": "ChIJkUHahwP-0YUR71VF1SpT3_E", "plus_code": {"compound_code": "8VWR+CC Mexico City", "global_code": "76F28VWR+CC"}, "rating": 4.2, "reference": "ChIJkUHahwP-0YUR71VF1SpT3_E", "types": ["church", "place_of_worship", "point_of_interest", "establishment"], "user_ratings_total": 155}, {"business_status": "OPERATIONAL", "formatted_address": "Tezozomoc Mz 40, Zona Urbana Ejidal los Reyes Culhuacan, Iztapalapa, 09840 Ciudad de M\u00e9xico, CDMX", "geometry": {"location": {"lat": 19.3450873, "lng": -99.09913639999999}, "viewport": {"northeast": {"lat": 19.34642072989272, "lng": -99.09775802010728}, "southwest": {"lat": 19.34372107010728, "lng": -99.10045767989271}}}, "icon": "https://maps.gstatic.com/mapfiles/place_api/icons/v1/png_71/worship_general-71.png", "name": "ICIAR \"EMANUEL\" Iglesia Cristiana", "opening_hours": {"open_now": false}, "place_id": "ChIJoQ0HXf790YURnpLNDBCiuJ8", "plus_code": {"compound_code": "8WW2+28 Mexico City", "global_code": "76F28WW2+28"}, "rating": 5, "reference": "ChIJoQ0HXf790YURnpLNDBCiuJ8", "types": ["church", "place_of_worship", "point_of_interest", "establishment"], "user_ratings_total": 1}, {"business_status": "OPERATIONAL", "formatted_address": "Ermita Iztapalapa 281, Zacatepec, Iztapalapa, 09560 Ciudad de M\u00e9xico, CDMX", "geometry": {"location": {"lat": 19.3564633, "lng": -99.09158260000001}, "viewport": {"northeast": {"lat": 19.35771947989272, "lng": -99.09021947010727}, "southwest": {"lat": 19.35501982010727, "lng": -99.09291912989272}}}, "icon": "https://maps.gstatic.com/mapfiles/place_api/icons/v1/png_71/worship_general-71.png", "name": "Iglesia Del Santo Sepulcro Iztapalapa", "photos": [{"height": 4160, "html_attributions": ["<a href=\"https://maps.google.com/maps/contrib/105415036587579522754\">Enrique R</a>"], "photo_reference": "CmRaAAAAWJNCNOfVKAVTbmt5bmdd6O0Ej7TgcpJ8DQX2weqykgUtR4vRmm9sL7tUkOwsqYCnQqU-XX5gL3K9k5fYQjBpr1Ft_VyDD3_vqpQRrv9Zu_sGT5jTlsg6fkMozMwA23RyEhCin1f0ZOASFoV_mMZozhiuGhT1FThph6xU175UirJ-OacKrKHgdQ", "width": 3120}], "place_id": "ChIJpYGivuX90YUR1xC8klUO08E", "plus_code": {"compound_code": "9W45+H9 Mexico City", "global_code": "76F29W45+H9"}, "rating": 4.8, "reference": "ChIJpYGivuX90YUR1xC8klUO08E", "types": ["church", "place_of_worship", "point_of_interest", "establishment"], "user_ratings_total": 5}, {"business_status": "OPERATIONAL", "formatted_address": "Ignacio Comonfort 234, Sta B\u00e1rbara, Iztapalapa, 09000 Ciudad de M\u00e9xico, CDMX", "geometry": {"location": {"lat": 19.360556, "lng": -99.100409}, "viewport": {"northeast": {"lat": 19.36182312989272, "lng": -99.09908162010727}, "southwest": {"lat": 19.35912347010728, "lng": -99.10178127989272}}}, "icon": "https://maps.gstatic.com/mapfiles/place_api/icons/v1/png_71/worship_general-71.png", "name": "Parroquia de Santa B\u00e1rbara", "photos": [{"height": 3264, "html_attributions": ["<a href=\"https://maps.google.com/maps/contrib/114068715945940134246\">A Google User</a>"], "photo_reference": "CmRaAAAAVXOi5SOvtfVtzng1pMWnGBzlDpVySHBk7_RaKepjD90ZeFF4VXr7GMFpReS5WpHbip3RCEGAgMICTY3R4c3NlJBJmd-Gt9HldDFG9MwZTBEuA9BW1qqWTtIXWdJrzQFnEhDSV_ReeXtpgs7x4w6zPcKBGhSsFfznVqNFLJE7-K5OfvKYRPW4Lg", "width": 1840}], "place_id": "ChIJU3BCxOH90YURvOnDx8YeVYM", "plus_code": {"compound_code": "9V6X+6R Mexico City", "global_code": "76F29V6X+6R"}, "rating": 4.4, "reference": "ChIJU3BCxOH90YURvOnDx8YeVYM", "types": ["church", "place_of_worship", "point_of_interest", "establishment"], "user_ratings_total": 154}, {"business_status": "OPERATIONAL", "formatted_address": "Leguminosas 35, Valle del Sur, Iztapalapa, 09819 Ciudad de M\u00e9xico, CDMX", "geometry": {"location": {"lat": 19.3457887, "lng": -99.113715}, "viewport": {"northeast": {"lat": 19.34719347989272, "lng": -99.1123522701073}, "southwest": {"lat": 19.34449382010728, "lng": -99.11505192989273}}}, "icon": "https://maps.gstatic.com/mapfiles/place_api/icons/v1/png_71/worship_general-71.png", "name": "Doxa, Christian Church", "opening_hours": {"open_now": false}, "photos": [{"height": 3024, "html_attributions": ["<a href=\"https://maps.google.com/maps/contrib/117285121534421941344\">Jesus Rodriguez</a>"], "photo_reference": "CmRaAAAA6f87kKlU4f_Rna6yRVBGXHqod9JQaDD2nk-4XcZm7XFvh3DHVJsOFa1paDropo1urVzwUAennoTZKr76A-cug0ma94OFixysJKPUxuTSCYvm2FtXW58KYFn5V6QSjcJWEhD463FYqSYlBEZZdvCzHGxJGhQ4lOvV339jYKmJg22CtyyO2vRLOg", "width": 4032}], "place_id": "ChIJ6fYuBeX_0YURBB3tLZ8OueI", "plus_code": {"compound_code": "8VWP+8G Mexico City", "global_code": "76F28VWP+8G"}, "rating": 4.9, "reference": "ChIJ6fYuBeX_0YURBB3tLZ8OueI", "types": ["church", "place_of_worship", "point_of_interest", "establishment"], "user_ratings_total": 8}, {"business_status": "OPERATIONAL", "formatted_address": "Los Reyes 109, San Lucas, Iztapalapa, 09000 Ciudad de M\u00e9xico, CDMX", "geometry": {"location": {"lat": 19.3589064, "lng": -99.0995392}, "viewport": {"northeast": {"lat": 19.36025392989272, "lng": -99.09818152010727}, "southwest": {"lat": 19.35755427010728, "lng": -99.10088117989272}}}, "icon": "https://maps.gstatic.com/mapfiles/place_api/icons/v1/png_71/worship_general-71.png", "name": "IGLESIA DE JESUCRISTO DE LOS SANTOS DE LOS \u00daLTIMOS D\u00cdAS", "photos": [{"height": 3264, "html_attributions": ["<a href=\"https://maps.google.com/maps/contrib/116628319611784285195\">Yud Hdez</a>"], "photo_reference": "CmRaAAAAWrbG1KCh0iBK7H0KnqJQ3BL9_Q1cI2D5Bzc2b6gh3lCA8KncDlLHByJwySK_ttpv5y1C0DavT7MTxrwYaTAUcr3foXpmk_IPxjR-uzUFHl2usv2StlGOS5F-NQZARjAMEhAfbYgBqLjXsV3wgmzGfU4HGhTCA52fV_Suhb7nOErQKzMFcdQ4Yg", "width": 2448}], "place_id": "ChIJaTe2juH90YUR2eUz7hAVyCk", "plus_code": {"compound_code": "9W52+H5 Mexico City", "global_code": "76F29W52+H5"}, "rating": 4.3, "reference": "ChIJaTe2juH90YUR2eUz7hAVyCk", "types": ["church", "place_of_worship", "point_of_interest", "establishment"], "user_ratings_total": 15}, {"business_status": "OPERATIONAL", "formatted_address": "Rel\u00e1mpago 22, Valle de Luces 1ra Secc, Iztapalapa, 09800 Ciudad de M\u00e9xico, CDMX", "geometry": {"location": {"lat": 19.3398334, "lng": -99.0997424}, "viewport": {"northeast": {"lat": 19.34119572989272, "lng": -99.09843822010727}, "southwest": {"lat": 19.33849607010728, "lng": -99.10113787989272}}}, "icon": "https://maps.gstatic.com/mapfiles/place_api/icons/v1/png_71/worship_general-71.png", "name": "Iglesia Cristiana El Camino", "opening_hours": {"open_now": false}, "photos": [{"height": 755, "html_attributions": ["<a href=\"https://maps.google.com/maps/contrib/104236933846353738358\">ELI NOEL</a>"], "photo_reference": "CmRaAAAAJT44w5rCCiHLy0XD4Ai_HLajEZen7K0C_3-_ujgJQzMQQDNtpejvCzUv3IzeEbJK9GSclezcezl9w4VrHB4s0ysl-4vIwMKhNbKUjDwUZ1qgIRAgZBRwH8OsXJDtu1bzEhD_zoWB5BXKrmGpYBI7omY8GhTwCChzv7L0TzOeDZKbWcY2_ukfTQ", "width": 1080}], "place_id": "ChIJr53BcQACzoURFWNUl8O55Jo", "plus_code": {"compound_code": "8WQ2+W4 Mexico City", "global_code": "76F28WQ2+W4"}, "rating": 4.6, "reference": "ChIJr53BcQACzoURFWNUl8O55Jo", "types": ["church", "place_of_worship", "point_of_interest", "establishment"], "user_ratings_total": 34}, {"business_status": "OPERATIONAL", "formatted_address": "Porfirio D\u00edaz 601, Centro, Xochimilco, 64720 Ciudad de M\u00e9xico, CDMX", "geometry": {"location": {"lat": 19.3586002, "lng": -99.0953646}, "viewport": {"northeast": {"lat": 19.35990827989272, "lng": -99.09398587010728}, "southwest": {"lat": 19.35720862010728, "lng": -99.09668552989271}}}, "icon": "https://maps.gstatic.com/mapfiles/place_api/icons/v1/png_71/worship_general-71.png", "name": "Iglesia Metodica Templo San Juan", "place_id": "ChIJOSgn8F_80YURcJT8l2C06Wk", "plus_code": {"compound_code": "9W53+CV Mexico City", "global_code": "76F29W53+CV"}, "rating": 0, "reference": "ChIJOSgn8F_80YURcJT8l2C06Wk", "types": ["church", "place_of_worship", "point_of_interest", "establishment"], "user_ratings_total": 0}, {"business_status": "OPERATIONAL", "formatted_address": "tizoc mz.27, Tizoc MZ35 LT8B, Los Reyes Culhuacan, Iztapalapa, 09840 CDMX", "geometry": {"location": {"lat": 19.3432819, "lng": -99.1033137}, "viewport": {"northeast": {"lat": 19.34462477989272, "lng": -99.10193462010729}, "southwest": {"lat": 19.34192512010728, "lng": -99.10463427989272}}}, "icon": "https://maps.gstatic.com/mapfiles/place_api/icons/v1/png_71/worship_general-71.png", "name": "Iglesia Metodista Libre A.R.", "opening_hours": {"open_now": false}, "place_id": "ChIJrasIWQD-0YURgMoq8zu9lJY", "plus_code": {"compound_code": "8VVW+8M Los Reyes Culhuacan, Mexico City", "global_code": "76F28VVW+8M"}, "rating": 0, "reference": "ChIJrasIWQD-0YURgMoq8zu9lJY", "types": ["church", "place_of_worship", "point_of_interest", "establishment"], "user_ratings_total": 0}, {"business_status": "OPERATIONAL", "formatted_address": "Ermita Iztapalapa 688-A, Escuadr\u00f3n 201, Iztapalapa, 09060 Ciudad de M\u00e9xico, CDMX", "geometry": {"location": {"lat": 19.3568471, "lng": -99.1117701}, "viewport": {"northeast": {"lat": 19.35813212989272, "lng": -99.11042527010727}, "southwest": {"lat": 19.35543247010728, "lng": -99.11312492989272}}}, "icon": "https://maps.gstatic.com/mapfiles/place_api/icons/v1/png_71/worship_general-71.png", "name": "Iglesia Betel (Casa de revelaci\u00f3n y adoracion)", "opening_hours": {"open_now": false}, "photos": [{"height": 1750, "html_attributions": ["<a href=\"https://maps.google.com/maps/contrib/104780406153849182304\">isai david castro gomez</a>"], "photo_reference": "CmRaAAAASXp-qsWny8ozpT54SIWifl8_A8G5HuJcT2QXa_utjnFl2a1XRzTKWBhj4e8qsK4F5Ju48nGOyhuLETv_YEknfoZmFbq2QK0v-R2_T5bXO2iH-irC1YQNBdv7A6EAfq2UEhDl6PhMf8sz56Pann-n4UPzGhSIhCN2RGuRXrxXjt7zCl44pwil6w", "width": 2600}], "place_id": "ChIJz8sRGg7-0YUR8gMNymSrgFw", "plus_code": {"compound_code": "9V4Q+P7 Mexico City", "global_code": "76F29V4Q+P7"}, "rating": 5, "reference": "ChIJz8sRGg7-0YUR8gMNymSrgFw", "types": ["church", "place_of_worship", "point_of_interest", "establishment"], "user_ratings_total": 2}, {"business_status": "OPERATIONAL", "formatted_address": "15 de Septiembre 45, Culhuacan, Iztapalapa, 09800 Ciudad de M\u00e9xico, CDMX", "geometry": {"location": {"lat": 19.3389738, "lng": -99.10784129999999}, "viewport": {"northeast": {"lat": 19.34035707989272, "lng": -99.10653787010727}, "southwest": {"lat": 19.33765742010728, "lng": -99.10923752989271}}}, "icon": "https://maps.gstatic.com/mapfiles/place_api/icons/v1/png_71/worship_general-71.png", "name": "Parroquia del Se\u00f1or del Calvario", "opening_hours": {"open_now": false}, "photos": [{"height": 3456, "html_attributions": ["<a href=\"https://maps.google.com/maps/contrib/116079494240566316361\">Angel Monta\u00f1o Garcia</a>"], "photo_reference": "CmRaAAAAbheI5gOWCoy2INJF41_HmJ6_qJ-310h09UhpjlB0llUJiQhZi5Fl8EgvsqW_ePzDSlXa1OsesxiWYfYx5hgzkrERXEeMcQng_OgaoYgjGRF4mAMlnRvAaDOzeZsvFAXzEhDomcbWzdsqoW2Zzk1ePJHqGhTAQHMWtK0Ic4aUVQdf7p8NyJIMcw", "width": 4608}], "place_id": "ChIJBwfn6f0BzoURbeM379vU0R0", "plus_code": {"compound_code": "8VQR+HV Mexico City", "global_code": "76F28VQR+HV"}, "rating": 4.6, "reference": "ChIJBwfn6f0BzoURbeM379vU0R0", "types": ["church", "place_of_worship", "point_of_interest", "establishment"], "user_ratings_total": 119}, {"business_status": "OPERATIONAL", "formatted_address": "Av. A\u00f1o de Ju\u00e1rez 318, Granjas San Antonio, Iztapalapa, 09070 Ciudad de M\u00e9xico, CDMX", "geometry": {"location": {"lat": 19.3684243, "lng": -99.10584569999999}, "viewport": {"northeast": {"lat": 19.36974267989272, "lng": -99.10431562010726}, "southwest": {"lat": 19.36704302010727, "lng": -99.1070152798927}}}, "icon": "https://maps.gstatic.com/mapfiles/place_api/icons/v1/png_71/worship_general-71.png", "name": "Iglesia Del Nazareno", "photos": [{"height": 1440, "html_attributions": ["<a href=\"https://maps.google.com/maps/contrib/106461024569808958868\">Gilberto Diaz Perez</a>"], "photo_reference": "CmRaAAAAMXhJv8DlhIITDpkCdiZVRRatOQB5bIIak-VFnLxRObSiThVvBPafM-J733OvIVK4C_aj9FIu02TSAHzMSgIYDHI1d5WZM23ns41ktwQ6uT9btXPT-nNaAUArEaxz6rSjEhAXZ0FshT1sOU9gen2CLQVFGhRBwOyTQVPK4rTeTCcaBICAaiD1vQ", "width": 2560}], "place_id": "ChIJWUbTbnT-0YURMomVcteF4CM", "plus_code": {"compound_code": "9V9V+9M Mexico City", "global_code": "76F29V9V+9M"}, "rating": 4.2, "reference": "ChIJWUbTbnT-0YURMomVcteF4CM", "types": ["church", "place_of_worship", "point_of_interest", "establishment"], "user_ratings_total": 5}, {"business_status": "OPERATIONAL", "formatted_address": "Atardecer 15, Valle de Luces 2da Secc, Iztapalapa, 09800 Ciudad de M\u00e9xico, CDMX", "geometry": {"location": {"lat": 19.3416811, "lng": -99.1022653}, "viewport": {"northeast": {"lat": 19.34301947989272, "lng": -99.10087262010728}, "southwest": {"lat": 19.34031982010728, "lng": -99.10357227989273}}}, "icon": "https://maps.gstatic.com/mapfiles/place_api/icons/v1/png_71/worship_general-71.png", "name": "Iglesia La Luz del Mundo", "photos": [{"height": 2336, "html_attributions": ["<a href=\"https://maps.google.com/maps/contrib/103166706231927871413\">Eduardo Lopez Mata</a>"], "photo_reference": "CmRaAAAAW3T6laMCsnGSLShjZj4nyV35g7TgsnWsEwKPW48HOYzQXH0sqipLPVfpGrzbq91fPQS1AroZj2VzPf-4WHlCwGneIbQsFxe8pguVDaBX8N_xU0ZC5N0gg7QdwJChWNbrEhAWtuNEwbGG1-wG618mrjYCGhRPgZa8PV0cwGZrfbeQzovIb-tL5g", "width": 4160}], "place_id": "ChIJJdYdEQD-0YUR-aOeMkGhl_A", "plus_code": {"compound_code": "8VRX+M3 Mexico City", "global_code": "76F28VRX+M3"}, "rating": 4.6, "reference": "ChIJJdYdEQD-0YUR-aOeMkGhl_A", "types": ["church", "place_of_worship", "point_of_interest", "establishment"], "user_ratings_total": 24}]