[{"business_status": "OPERATIONAL", "formatted_address": "Av. Paseo de la Reforma 305, Cuauht\u00e9moc, 06500 Ciudad de M\u00e9xico, CDMX", "geometry": {"location": {"lat": 19.4281775, "lng": -99.1663135}, "viewport": {"northeast": {"lat": 19.42948742989272, "lng": -99.16494257010729}, "southwest": {"lat": 19.42678777010728, "lng": -99.16764222989273}}}, "icon": "https://maps.gstatic.com/mapfiles/place_api/icons/v1/png_71/civic_building-71.png", "name": "Embassy of the United States of America", "opening_hours": {"open_now": false}, "photos": [{"height": 3024, "html_attributions": ["<a href=\"https://maps.google.com/maps/contrib/116671323850773947745\">Luis Goicoechea</a>"], "photo_reference": "CmRaAAAAK70Dt4NUnIuyxBGYhmpZKkR7nsVrKht6satBeE5hl8A6K1YbYdp_nteF3nYexERiOaXv-d-a9G-LsC7_fmD0krfnQ83YHrKdmTC-r0BiUkZF372LIvfUmTdIZXK3HKzsEhDdx2SHHRS4fQBXd9pJcMQ2GhSNOiMTHYlMYDKCz0WUP9K-tt0eRw", "width": 4032}], "place_id": "ChIJf5NQmTX_0YURDQIIwsoJq2Y", "plus_code": {"compound_code": "CRHM+7F Mexico City", "global_code": "76F2CRHM+7F"}, "rating": 4.1, "reference": "ChIJf5NQmTX_0YURDQIIwsoJq2Y", "types": ["embassy", "point_of_interest", "establishment"], "user_ratings_total": 708}, {"business_status": "OPERATIONAL", "formatted_address": "Av. Paseo de la Reforma 412, Ju\u00e1rez, Cuauht\u00e9moc, 06600 Ciudad de M\u00e9xico, CDMX", "geometry": {"location": {"lat": 19.4248089, "lng": -99.1709144}, "viewport": {"northeast": {"lat": 19.42623112989272, "lng": -99.1696368701073}, "southwest": {"lat": 19.42353147010727, "lng": -99.17233652989275}}}, "icon": "https://maps.gstatic.com/mapfiles/place_api/icons/v1/png_71/civic_building-71.png", "name": "Embassy of Colombia", "opening_hours": {"open_now": false}, "photos": [{"height": 1620, "html_attributions": ["<a href=\"https://maps.google.com/maps/contrib/117465785877487076776\">Fernando Emiliano Dominguez Balderas</a>"], "photo_reference": "CmRaAAAAEH39gXj6iG8foYPSligKFx6Loy4xEZWEIjTBQWL_3x5c3YVZ28mXR7nkbumPfO7b1JhxKwl9p2nB_GZEZ5hIjIAdskebgaG3PJx3CggozIZ0lH2XE4TAT8Dkv93TUzWrEhAux3T9oAtntUlEwFX9Al6xGhS5pEswcb5vRM-Nrg7K3pvP-KACrw", "width": 1080}], "place_id": "ChIJVVVVVUr_0YURZuQcNtuUDzc", "plus_code": {"compound_code": "CRFH+WJ Mexico City", "global_code": "76F2CRFH+WJ"}, "rating": 3.8, "reference": "ChIJVVVVVUr_0YURZuQcNtuUDzc", "types": ["embassy", "point_of_interest", "establishment"], "user_ratings_total": 20}, {"business_status": "OPERATIONAL", "formatted_address": "Calle R\u00edo Lerma 71, Cuauht\u00e9moc, 06500 Ciudad de M\u00e9xico, CDMX", "geometry": {"location": {"lat": 19.4302647, "lng": -99.16575809999999}, "viewport": {"northeast": {"lat": 19.43150562989272, "lng": -99.16435222010728}, "southwest": {"lat": 19.42880597010728, "lng": -99.16705187989272}}}, "icon": "https://maps.gstatic.com/mapfiles/place_api/icons/v1/png_71/civic_building-71.png", "name": "British Embassy Mexico City", "opening_hours": {"open_now": true}, "photos": [{"height": 4640, "html_attributions": ["<a href=\"https://maps.google.com/maps/contrib/101902002275279905311\">Adri\u00e1n S.</a>"], "photo_reference": "CmRaAAAAYnebQeC8aqLsGan72m6MwVawhgOjh81vPs38USPs-n7z3efuEbEJqSc7Odv9R5kZ0BapG-3gMEr4eSevJfWMVB39ymVcd5hv-jKhPJmHKjC8uNgJL_q8AghwylvxI8MYEhCGASiwFYiK6BRbaNOwyRLEGhQKA3oDfhE3yKxzUZJCiYD8SpshbQ", "width": 3480}], "place_id": "ChIJzxtKGDX_0YURP6ahu_P3vUc", "plus_code": {"compound_code": "CRJM+4M Mexico City", "global_code": "76F2CRJM+4M"}, "rating": 4.2, "reference": "ChIJzxtKGDX_0YURP6ahu_P3vUc", "types": ["embassy", "point_of_interest", "establishment"], "user_ratings_total": 32}, {"business_status": "OPERATIONAL", "formatted_address": "Av. San Jer\u00f3nimo 217b, Tizap\u00e1n San \u00c1ngel, La Otra Banda, \u00c1lvaro Obreg\u00f3n, 01090 Ciudad de M\u00e9xico, CDMX", "geometry": {"location": {"lat": 19.3361265, "lng": -99.19747439999999}, "viewport": {"northeast": {"lat": 19.33726642989272, "lng": -99.19590117010729}, "southwest": {"lat": 19.33456677010728, "lng": -99.19860082989273}}}, "icon": "https://maps.gstatic.com/mapfiles/place_api/icons/v1/png_71/civic_building-71.png", "name": "Embajada de la Rep\u00fablica Popular de China", "opening_hours": {"open_now": false}, "photos": [{"height": 2340, "html_attributions": ["<a href=\"https://maps.google.com/maps/contrib/114875802607141334771\">samuel aparicio</a>"], "photo_reference": "CmRaAAAAwEciBtQNXfy49KuhReiBfL4Ti-rSJTZkOwOCo9S_D04Ok8gX4sCmJy-YlmQv_0X2RP5RrCQUjMgS6g5BrWHgflhKt_5kxCpFWfRvhtLGN-cSkOFCB0E2TZKMkMRzBuWnEhA3WLwU9Z7s9XO3f0rh3LlJGhSWwaQJ2g--QdcbPil-T3fZD0z5Pg", "width": 4160}], "place_id": "ChIJQxgVbAcA0oURgLnvehkHD7A", "plus_code": {"compound_code": "8RP3+F2 Mexico City", "global_code": "76F28RP3+F2"}, "rating": 3.4, "reference": "ChIJQxgVbAcA0oURgLnvehkHD7A", "types": ["embassy", "point_of_interest", "establishment"], "user_ratings_total": 80}, {"business_status": "OPERATIONAL", "formatted_address": "Calle Cracovia 40, San \u00c1ngel, \u00c1lvaro Obreg\u00f3n, 01000 Ciudad de M\u00e9xico, CDMX", "geometry": {"location": {"lat": 19.3487814, "lng": -99.188211}, "viewport": {"northeast": {"lat": 19.35017157989272, "lng": -99.18687867010729}, "southwest": {"lat": 19.34747192010728, "lng": -99.18957832989273}}}, "icon": "https://maps.gstatic.com/mapfiles/place_api/icons/v1/png_71/civic_building-71.png", "name": "Embassy of Poland", "opening_hours": {"open_now": false}, "photos": [{"height": 1200, "html_attributions": ["<a href=\"https://maps.google.com/maps/contrib/101053979734404497107\">A Google User</a>"], "photo_reference": "CmRaAAAAOlZqLimGrpNZM_xZ85NXr_RxV5gPOA4Nka3PNXmwOverUrUhUJsZq217xOe1pqgR3crGwGWXJO0ERPyc_L12Od5BxDspPsTDx_VYiGCCHw3PsqX3WPpRFT3tgoEXp_lIEhAJGLi40rUkQqlebccrHjJcGhRQ4C8HXlbWq4G1gyVUdgE95uol0w", "width": 1600}], "place_id": "ChIJW37qjff_0YURrUsikoP3BoU", "plus_code": {"compound_code": "8RX6+GP Mexico City", "global_code": "76F28RX6+GP"}, "rating": 5, "reference": "ChIJW37qjff_0YURrUsikoP3BoU", "types": ["embassy", "point_of_interest", "establishment"], "user_ratings_total": 10}, {"business_status": "OPERATIONAL", "formatted_address": "Bulgaria 14-A, Benito Ju\u00e1rez, 03300 Ciudad de M\u00e9xico, CDMX", "geometry": {"location": {"lat": 19.3595696, "lng": -99.14403639999999}, "viewport": {"northeast": {"lat": 19.36129297989272, "lng": -99.14282837010728}, "southwest": {"lat": 19.35859332010728, "lng": -99.14552802989273}}}, "icon": "https://maps.gstatic.com/mapfiles/place_api/icons/v1/png_71/civic_building-71.png", "name": "Embajada Gubernamental", "place_id": "ChIJ_4rTHjX-0YURYvbGtQ1_TYM", "plus_code": {"compound_code": "9V54+R9 Mexico City", "global_code": "76F29V54+R9"}, "rating": 0, "reference": "ChIJ_4rTHjX-0YURYvbGtQ1_TYM", "types": ["embassy", "point_of_interest", "establishment"], "user_ratings_total": 0}, {"business_status": "OPERATIONAL", "formatted_address": "Maestro Jos\u00e9 Vasconcelos 204, Hip\u00f3dromo Condesa, 06140 Cuauht\u00e9moc, CDMX", "geometry": {"location": {"lat": 19.4096976, "lng": -99.1828644}, "viewport": {"northeast": {"lat": 19.41110737989272, "lng": -99.1816308701073}, "southwest": {"lat": 19.40840772010728, "lng": -99.18433052989273}}}, "icon": "https://maps.gstatic.com/mapfiles/place_api/icons/v1/png_71/civic_building-71.png", "name": "Embassy of Russia", "opening_hours": {"open_now": false}, "photos": [{"height": 3024, "html_attributions": ["<a href=\"https://maps.google.com/maps/contrib/112332229080647106861\">A Google User</a>"], "photo_reference": "CmRaAAAAaYvQ3nWdMwoRF7Rh9DqeuBHYlQrV02zZ1ijVGpzk-MW8Qu9qMGkeAFZO0mi6NGBhboxFBHvV-E6VjcoY-u5sUG9gqn6H5zAojtF2Ttum2InL5GcDBjP3QvR90yL_LYH5EhAZyGB1Dtg2sZGKWSijYKO8GhTJ6OylToN4RGMWww5rX25x-HJWog", "width": 4032}], "place_id": "ChIJg_iwt13_0YURbm0hG9nw2QI", "plus_code": {"compound_code": "CR58+VV Mexico City", "global_code": "76F2CR58+VV"}, "rating": 4.4, "reference": "ChIJg_iwt13_0YURbm0hG9nw2QI", "types": ["embassy", "point_of_interest", "establishment"], "user_ratings_total": 64}, {"business_status": "OPERATIONAL", "formatted_address": "Av. Paseo de la Reforma 243, Col. Renacimiento, Cuauht\u00e9moc, 06500 Ciudad de M\u00e9xico, CDMX", "geometry": {"location": {"lat": 19.4298074, "lng": -99.16373490000001}, "viewport": {"northeast": {"lat": 19.43097632989272, "lng": -99.16238497010728}, "southwest": {"lat": 19.42827667010727, "lng": -99.16508462989273}}}, "icon": "https://maps.gstatic.com/mapfiles/place_api/icons/v1/png_71/civic_building-71.png", "name": "Embassy of Japan", "opening_hours": {"open_now": false}, "photos": [{"height": 3024, "html_attributions": ["<a href=\"https://maps.google.com/maps/contrib/111247960869643342497\">akatsukibrawl@hotmail.com</a>"], "photo_reference": "CmRaAAAAvRbQOfxasmSGhmM8RbSKHALdZlDY6GtsQrsWDDGYb-1fEhW1mB1F8nh1_SbGS4Lukx1qTk6QEveNu1iagSNbTk-I2g5M-Q9xE0EQJEWpKv8phuCKbHgmDMTQtcdh6lAGEhBSRdfMxSRt6E3Llg1qVcqLGhQ75U5_pQqz9OJrDVMNL2uuSegGnw", "width": 4032}], "place_id": "ChIJIxqh00v_0YURFnVdSnQiRxg", "plus_code": {"compound_code": "CRHP+WG Mexico City", "global_code": "76F2CRHP+WG"}, "rating": 4.2, "reference": "ChIJIxqh00v_0YURFnVdSnQiRxg", "types": ["embassy", "point_of_interest", "establishment"], "user_ratings_total": 39}, {"business_status": "OPERATIONAL", "formatted_address": "Schiller No. 326, Chapultepec Morales, Polanco V Secc, Miguel Hidalgo, 11560 Ciudad de M\u00e9xico, CDMX", "geometry": {"location": {"lat": 19.4323188, "lng": -99.1862639}, "viewport": {"northeast": {"lat": 19.43367117989272, "lng": -99.18498312010729}, "southwest": {"lat": 19.43097152010728, "lng": -99.18768277989273}}}, "icon": "https://maps.gstatic.com/mapfiles/place_api/icons/v1/png_71/civic_building-71.png", "name": "Embajada de Venezuela", "opening_hours": {"open_now": false}, "photos": [{"height": 4032, "html_attributions": ["<a href=\"https://maps.google.com/maps/contrib/111099518285513877015\">Yoelvis Oses Sosa</a>"], "photo_reference": "CmRaAAAAu8PMHAty5b2NE0AjRS5WkNlTmNB1_7F0Ye-tjdci-oOlelDToWcZQ9JyCq204gDxPkgBd9ng2stHnT9C9VXZbvGaLuYQ2l6QXf5LB0pY2lHnMWIIpIH0tEU6eh9BFxXIEhCgPsSKP6rtbZcMZg2p1ekrGhStkBiPUvANviWhzZxpkWCz6WRjWw", "width": 3024}], "place_id": "ChIJbRklFqv40YUR1RIul36oP3w", "plus_code": {"compound_code": "CRJ7+WF Mexico City", "global_code": "76F2CRJ7+WF"}, "rating": 3.6, "reference": "ChIJbRklFqv40YUR1RIul36oP3w", "types": ["embassy", "point_of_interest", "establishment"], "user_ratings_total": 159}, {"business_status": "OPERATIONAL", "formatted_address": "Andr\u00e9s Bello 10, Polanco, Polanco IV Secc, Miguel Hidalgo, 11560 Ciudad de M\u00e9xico, CDMX", "geometry": {"location": {"lat": 19.4268599, "lng": -99.1958248}, "viewport": {"northeast": {"lat": 19.42826292989272, "lng": -99.19436917010728}, "southwest": {"lat": 19.42556327010728, "lng": -99.19706882989273}}}, "icon": "https://maps.gstatic.com/mapfiles/place_api/icons/v1/png_71/civic_building-71.png", "name": "Embajada de Chile", "opening_hours": {"open_now": false}, "photos": [{"height": 3024, "html_attributions": ["<a href=\"https://maps.google.com/maps/contrib/113995401024282497538\">Arturchief</a>"], "photo_reference": "CmRaAAAAzFCzHsNwhwdcwFUU_wq6Wo9QaDOlUt0h3y5ACuGueEvxIoreQDgh0th1WaL9MBg9-19aM5QzH3iCK9b4tLiE61hjnfR-t9VZRpW8yC7UZYy6qmkrwbUUz5qUMBlfZNPIEhDe3F65t8wFIr-rTM9di5xlGhS-AD5bZlEHi48MaaZlvSHqdvSscg", "width": 4032}], "place_id": "ChIJYwTaK_kB0oURq3HuHx25eGQ", "plus_code": {"compound_code": "CRG3+PM Mexico City", "global_code": "76F2CRG3+PM"}, "rating": 4.5, "reference": "ChIJYwTaK_kB0oURq3HuHx25eGQ", "types": ["embassy", "point_of_interest", "establishment"], "user_ratings_total": 21}, {"business_status": "OPERATIONAL", "formatted_address": "Alfredo de Musset 41, Polanco, Polanco III Secc, Miguel Hidalgo, 11550 Ciudad de M\u00e9xico, CDMX", "geometry": {"location": {"lat": 19.4332319, "lng": -99.19637480000002}, "viewport": {"northeast": {"lat": 19.43458927989272, "lng": -99.19511547010728}, "southwest": {"lat": 19.43188962010728, "lng": -99.19781512989273}}}, "icon": "https://maps.gstatic.com/mapfiles/place_api/icons/v1/png_71/civic_building-71.png", "name": "Embassy of Belgium", "opening_hours": {"open_now": false}, "photos": [{"height": 2056, "html_attributions": ["<a href=\"https://maps.google.com/maps/contrib/112759080422637667248\">Uli Wooly</a>"], "photo_reference": "CmRaAAAAQhaezuSg5b6VF16nORQ-632wwvCqbwBmkCH19o1-mF7SI_IzrcQ_ErJQK7Sp5gCZ4-tOFrQvAgduu5aDbLJff-VKIldYpCFV_XIA33kjUpRL3HZAVuMnxANFOeuB71vDEhCAT7F7DLP1VSyUIF9wtkgOGhSyu0JxFy4TpTRljZAUaqb694B2_Q", "width": 3648}], "place_id": "ChIJc3AwNQIC0oURJfLYL0dqQWk", "plus_code": {"compound_code": "CRM3+7F Mexico City", "global_code": "76F2CRM3+7F"}, "rating": 5, "reference": "ChIJc3AwNQIC0oURJfLYL0dqQWk", "types": ["embassy", "point_of_interest", "establishment"], "user_ratings_total": 16}, {"business_status": "OPERATIONAL", "formatted_address": "Cuvier 22, Anzures, Miguel Hidalgo, 11590 Ciudad de M\u00e9xico, CDMX", "geometry": {"location": {"lat": 19.4327936, "lng": -99.1799743}, "viewport": {"northeast": {"lat": 19.43410997989272, "lng": -99.17861192010727}, "southwest": {"lat": 19.43141032010728, "lng": -99.18131157989272}}}, "icon": "https://maps.gstatic.com/mapfiles/place_api/icons/v1/png_71/civic_building-71.png", "name": "Embassy of the Czech Republic", "opening_hours": {"open_now": false}, "place_id": "ChIJrSasa6340YURYRs_A_3DV-U", "plus_code": {"compound_code": "CRMC+42 Mexico City", "global_code": "76F2CRMC+42"}, "rating": 2.7, "reference": "ChIJrSasa6340YURYRs_A_3DV-U", "types": ["embassy", "point_of_interest", "establishment"], "user_ratings_total": 21}, {"business_status": "OPERATIONAL", "formatted_address": "Calle 3 Picos 43, Polanco, Polanco V Secc, Miguel Hidalgo, 11550 Ciudad de M\u00e9xico, CDMX", "geometry": {"location": {"lat": 19.4288883, "lng": -99.18836329999999}, "viewport": {"northeast": {"lat": 19.43016042989272, "lng": -99.18701757010727}, "southwest": {"lat": 19.42746077010728, "lng": -99.18971722989272}}}, "icon": "https://maps.gstatic.com/mapfiles/place_api/icons/v1/png_71/civic_building-71.png", "name": "Embassy of Denmark", "opening_hours": {"open_now": false}, "photos": [{"height": 3672, "html_attributions": ["<a href=\"https://maps.google.com/maps/contrib/103485957359236759995\">Alberto Lopez</a>"], "photo_reference": "CmRaAAAAjRHTC6JN4uZ5oFaD9Caog2a1dWLdRjy4lNcYwkEQC36riQZhPAF8hDnm6dk0_wxqDAnBXYgkCZjhOLBy-9beUWDRf0WOeG8O_nv_DF2SdreukkqwOxljWz2sul8LxD1eEhBtGynlAvgrQRwxS2rfrUzBGhQzTvm0xeeyEv4ntXNlMI7UdZeZiw", "width": 4896}], "place_id": "ChIJdZydFFX_0YURpr7RLM90lWg", "plus_code": {"compound_code": "CRH6+HM Mexico City", "global_code": "76F2CRH6+HM"}, "rating": 4.2, "reference": "ChIJdZydFFX_0YURpr7RLM90lWg", "types": ["embassy", "point_of_interest", "establishment"], "user_ratings_total": 5}, {"business_status": "OPERATIONAL", "formatted_address": "Av. Paseo de la Reforma 505, Lomas - Virreyes, Lomas de Chapultepec, Miguel Hidalgo, 11000 Ciudad de M\u00e9xico, CDMX", "geometry": {"location": {"lat": 19.4250684, "lng": -99.2093448}, "viewport": {"northeast": {"lat": 19.42630747989272, "lng": -99.20796097010728}, "southwest": {"lat": 19.42360782010728, "lng": -99.21066062989273}}}, "icon": "https://maps.gstatic.com/mapfiles/place_api/icons/v1/png_71/civic_building-71.png", "name": "Embassy of the United Arab Emirates", "opening_hours": {"open_now": false}, "photos": [{"height": 3000, "html_attributions": ["<a href=\"https://maps.google.com/maps/contrib/118286610496170506827\">Mostafa karim</a>"], "photo_reference": "CmRaAAAA7yL0Pc4RoR8CABXGctZMoOOHdq9Z3UsHaOmBTX7on1Dw379MNLiedEUHTdAoWj7MCnyb4fzQM6iUjT6fYrAh08BvNYqOq9WvugM3doZb5ujMAZXBiXSRSOMj9l-9f9S9EhDH7KbZBqZ2Ji_7bNESDJ6aGhTlYxSeXLKDZaosNyXKr9RaBfEbnQ", "width": 4512}], "place_id": "ChIJr6aqYfQB0oURN_AhhOb3-R8", "plus_code": {"compound_code": "CQGR+27 Mexico City", "global_code": "76F2CQGR+27"}, "rating": 3.4, "reference": "ChIJr6aqYfQB0oURN_AhhOb3-R8", "types": ["embassy", "point_of_interest", "establishment"], "user_ratings_total": 25}, {"business_status": "OPERATIONAL", "formatted_address": "Secci\u00f3n Alameda, Av. Horacio 1506, Polanco, Polanco I Secc, Miguel Hidalgo, 11530 Ciudad de M\u00e9xico, CDMX", "geometry": {"location": {"lat": 19.4347024, "lng": -99.2051788}, "viewport": {"northeast": {"lat": 19.43615597989272, "lng": -99.20380887010728}, "southwest": {"lat": 19.43345632010728, "lng": -99.20650852989272}}}, "icon": "https://maps.gstatic.com/mapfiles/place_api/icons/v1/png_71/civic_building-71.png", "name": "Embassy of Germany", "photos": [{"height": 3024, "html_attributions": ["<a href=\"https://maps.google.com/maps/contrib/103874480096294211683\">Hugo Gerardo Far\u00edas Tovar</a>"], "photo_reference": "CmRaAAAAujz6uLkhdWqyH66YkWNjJJHW-xtAJ4odNmF5kI8oi7hTBXjwnI78tglGfBUTQ9QZ6ifYpGAmQF2Mki_4nlzLwVHWnt4b6exyyqNrtqOXosJq3Fikeylug_JqdvER1pj2EhBSbWFkexAPKYo3QECwBHkwGhQ3B995gDIuoAH-4UW0w7dCtYuvdg", "width": 4032}], "place_id": "ChIJk-wRExwC0oURdgMUw1zQmM8", "plus_code": {"compound_code": "CQMV+VW Mexico City", "global_code": "76F2CQMV+VW"}, "rating": 4.3, "reference": "ChIJk-wRExwC0oURdgMUw1zQmM8", "types": ["embassy", "point_of_interest", "establishment"], "user_ratings_total": 113}, {"business_status": "OPERATIONAL", "formatted_address": "R\u00edo Poo 113, Cuauht\u00e9moc, 06500 Ciudad de M\u00e9xico, CDMX", "geometry": {"location": {"lat": 19.4296262, "lng": -99.168317}, "viewport": {"northeast": {"lat": 19.43099877989272, "lng": -99.16691852010727}, "southwest": {"lat": 19.42829912010728, "lng": -99.16961817989271}}}, "icon": "https://maps.gstatic.com/mapfiles/place_api/icons/v1/png_71/civic_building-71.png", "name": "Embassy of Costa Rica", "opening_hours": {"open_now": false}, "photos": [{"height": 4128, "html_attributions": ["<a href=\"https://maps.google.com/maps/contrib/111098684757406627257\">Hayden chamorro</a>"], "photo_reference": "CmRaAAAA7u4oHrBqv0YiU9JlDyul-YWuNoH9zKT6m6KGShA1bmfVror6ibeO_-ptbCgQZ9ZZjuEafxzRh2D91ZmP1QtOCnAnEF4zHZzlcGKRS8DVsA517it7fWl-us5FpZu7tF6JEhCUus4_Hu35m-DmY8rSAnlXGhS6KyzQVRg5BYhl6D31zXBegJ7XYQ", "width": 2322}], "place_id": "ChIJZbkcm0r_0YURCQifm_hhVL0", "plus_code": {"compound_code": "CRHJ+VM Mexico City", "global_code": "76F2CRHJ+VM"}, "rating": 4.3, "reference": "ChIJZbkcm0r_0YURCQifm_hhVL0", "types": ["embassy", "point_of_interest", "establishment"], "user_ratings_total": 19}, {"business_status": "OPERATIONAL", "formatted_address": "Av. Paseo de las Palmas 1610, Lomas de Chapultepec, Miguel Hidalgo, 11000 Ciudad de M\u00e9xico, CDMX", "geometry": {"location": {"lat": 19.4171947, "lng": -99.2279892}, "viewport": {"northeast": {"lat": 19.41858577989272, "lng": -99.22671927010727}, "southwest": {"lat": 19.41588612010728, "lng": -99.22941892989272}}}, "icon": "https://maps.gstatic.com/mapfiles/place_api/icons/v1/png_71/civic_building-71.png", "name": "Embassy of Thailand", "opening_hours": {"open_now": false}, "photos": [{"height": 4128, "html_attributions": ["<a href=\"https://maps.google.com/maps/contrib/117447481594465658214\">Cristopher Picazo</a>"], "photo_reference": "CmRaAAAAgStr0ejbC03-_5w-6nMyf1nDc9C1JG2EsFMQCa-TjbFT2GTKQdhnRM6RER1vn60ivfVOwzlSZQR9OyvZigBKtByCGOwwYcLHzsyrcfUkl5DGiUZ5FgzNzP0lhgFPgTC1EhCR7706Gtr_q2d1Dpt5y0eeGhTc5Ev-O3QdGnp69i9u40s1XIvcaA", "width": 2322}], "place_id": "ChIJe60kroQB0oURB3c_Pwv5x0s", "plus_code": {"compound_code": "CQ8C+VR Mexico City", "global_code": "76F2CQ8C+VR"}, "rating": 3.4, "reference": "ChIJe60kroQB0oURB3c_Pwv5x0s", "types": ["embassy", "point_of_interest", "establishment"], "user_ratings_total": 37}, {"business_status": "OPERATIONAL", "formatted_address": "Av. Homero 415, Polanco, Polanco V Secc, Miguel Hidalgo, 11560 Ciudad de M\u00e9xico, CDMX", "geometry": {"location": {"lat": 19.43569, "lng": -99.18786349999999}, "viewport": {"northeast": {"lat": 19.43697237989272, "lng": -99.18651752010727}, "southwest": {"lat": 19.43427272010728, "lng": -99.18921717989272}}}, "icon": "https://maps.gstatic.com/mapfiles/place_api/icons/v1/png_71/civic_building-71.png", "name": "Embassy of Paraguay", "opening_hours": {"open_now": false}, "place_id": "ChIJdX-BMKr40YURi8z372n1gmw", "plus_code": {"compound_code": "CRP6+7V Mexico City", "global_code": "76F2CRP6+7V"}, "rating": 4.6, "reference": "ChIJdX-BMKr40YURi8z372n1gmw", "types": ["embassy", "point_of_interest", "establishment"], "user_ratings_total": 7}, {"business_status": "OPERATIONAL", "formatted_address": "Rub\u00e9n Dar\u00edo 55, Polanco, Polanco V Secc, Miguel Hidalgo, 11560 Ciudad de M\u00e9xico, CDMX", "geometry": {"location": {"lat": 19.4299428, "lng": -99.1833206}, "viewport": {"northeast": {"lat": 19.43111147989272, "lng": -99.18188332010729}, "southwest": {"lat": 19.42841182010728, "lng": -99.18458297989272}}}, "icon": "https://maps.gstatic.com/mapfiles/place_api/icons/v1/png_71/civic_building-71.png", "name": "Embassy of Australia", "opening_hours": {"open_now": false}, "photos": [{"height": 3840, "html_attributions": ["<a href=\"https://maps.google.com/maps/contrib/102873661990890994864\">BERNARDO FUENTES</a>"], "photo_reference": "CmRaAAAAeix0d40TUeC6pW8N9DdsuoqSpgF3TxQdXJ1yJLCr67NCswHxiSXYlugnEWfRftPW44vaWROaHoEqEtO3p9KK4q_5lAMZmvL22Uh9_NKT_Dw8Iylew-QAtAY3KLzavHxHEhB0LRsWnmiVbAHThNfGjJckGhSs1wkjyCoEe_ebY1JqkMMOMkxMkQ", "width": 2160}], "place_id": "ChIJd9-IQFP_0YURSMxpqgZQakk", "plus_code": {"compound_code": "CRH8+XM Mexico City", "global_code": "76F2CRH8+XM"}, "rating": 4, "reference": "ChIJd9-IQFP_0YURSMxpqgZQakk", "types": ["embassy", "point_of_interest", "establishment"], "user_ratings_total": 20}, {"business_status": "OPERATIONAL", "formatted_address": "Alfonso Reyes 220, Hip\u00f3dromo, Cuauht\u00e9moc, 06170 Ciudad de M\u00e9xico, CDMX", "geometry": {"location": {"lat": 19.4074384, "lng": -99.1736853}, "viewport": {"northeast": {"lat": 19.40871697989273, "lng": -99.17237527010728}, "southwest": {"lat": 19.40601732010728, "lng": -99.17507492989273}}}, "icon": "https://maps.gstatic.com/mapfiles/place_api/icons/v1/png_71/civic_building-71.png", "name": "Embassy of Honduras", "opening_hours": {"open_now": false}, "photos": [{"height": 2268, "html_attributions": ["<a href=\"https://maps.google.com/maps/contrib/116671323850773947745\">Luis Goico</a>"], "photo_reference": "CmRaAAAAeFMV69EX1b01AxQulKDb4seFcBKWOoSkvWxHjBOr7nJ3w_2QGMwAiORv4P8M011lVd_U0GXSsWDYZ36Gfwglc8YRVJq6s-ibQJWt429Ks0jsSi-1Zpd5nCfY_Po7OkXcEhACHJm_LKWMShHK9wgsJfpjGhRYNLALgAX_gY3Z0iiwvw0A_I0sRA", "width": 4032}], "place_id": "ChIJSSXo-2n_0YUR1vJwP4RRQ8U", "plus_code": {"compound_code": "CR4G+XG Mexico City", "global_code": "76F2CR4G+XG"}, "rating": 4, "reference": "ChIJSSXo-2n_0YUR1vJwP4RRQ8U", "types": ["embassy", "point_of_interest", "establishment"], "user_ratings_total": 63}]