[{"business_status": "OPERATIONAL", "formatted_address": "Avenida Tlahuac No. 331 Y 333, Los Reyes Culhuacan, 09800 CDMX", "geometry": {"location": {"lat": 19.3462167, "lng": -99.1075365}, "viewport": {"northeast": {"lat": 19.34756417989272, "lng": -99.10616837010728}, "southwest": {"lat": 19.34486452010728, "lng": -99.10886802989273}}}, "icon": "https://maps.gstatic.com/mapfiles/place_api/icons/v1/png_71/gas_station-71.png", "name": "Gasolinera Pemex", "opening_hours": {"open_now": true}, "photos": [{"height": 3024, "html_attributions": ["<a href=\"https://maps.google.com/maps/contrib/113091431763993262000\">Edgar Jesus Regalado Jimenez</a>"], "photo_reference": "CmRaAAAAn4nbhDjXourTNqAGwB2fK4MwDy9V2Lw5M4L6k_nliM510zin0u1z304FumAEAGahRmmxoGQPB0PB7sjAqx6iZynkf7fRcHdOWPwQyftRw1jL7qZ4btvdBlMCQkWFBCvmEhDiJH15pV7v6Nb1XsOL52hbGhSpu6RB0L7W9nxZIk11Ncp9cFNMfQ", "width": 4032}], "place_id": "ChIJER4j-AP-0YURnswjzNHH9y4", "plus_code": {"compound_code": "8VWR+FX Los Reyes Culhuacan, Mexico City", "global_code": "76F28VWR+FX"}, "rating": 3.3, "reference": "ChIJER4j-AP-0YURnswjzNHH9y4", "types": ["gas_station", "point_of_interest", "establishment"], "user_ratings_total": 136}, {"business_status": "OPERATIONAL", "formatted_address": "Ermita Iztapalapa 221, San Lucas, Iztapalapa, 09000 Ciudad de M\u00e9xico, CDMX", "geometry": {"location": {"lat": 19.3566924, "lng": -99.09783859999999}, "viewport": {"northeast": {"lat": 19.35799372989272, "lng": -99.09647632010727}, "southwest": {"lat": 19.35529407010728, "lng": -99.09917597989272}}}, "icon": "https://maps.gstatic.com/mapfiles/place_api/icons/v1/png_71/gas_station-71.png", "name": "Gasolinera", "opening_hours": {}, "photos": [{"height": 2988, "html_attributions": ["<a href=\"https://maps.google.com/maps/contrib/105143792918166207379\">German Mora</a>"], "photo_reference": "CmRaAAAAbrI8RXKPiTASP2pm2cMqUat_XddrHVrHNdRBsdTwKD4_M51gVOMfzVy2TGuhUxvlH1vFMVXHV74w8UusDTL1LmpjU-a0x7aeLzMppeJxjSbOsHbPsQJ4omJWRahGtq01EhCKoG1WL1kNGBufvyq6-r1mGhSv1jYIhCf5_uZdj8Xk5wsai7z8RA", "width": 5312}], "place_id": "ChIJEx6ksOP90YUR4i6bNQwtGtc", "plus_code": {"compound_code": "9W42+MV Mexico City", "global_code": "76F29W42+MV"}, "rating": 3.5, "reference": "ChIJEx6ksOP90YUR4i6bNQwtGtc", "types": ["gas_station", "point_of_interest", "establishment"], "user_ratings_total": 28}, {"business_status": "OPERATIONAL", "formatted_address": "esq. Porfirio Diaz, Ermita Iztapalapa s/n, San Lucas, Iztapalapa, 09000 Ciudad de M\u00e9xico, CDMX", "geometry": {"location": {"lat": 19.3567934, "lng": -99.09751829999999}, "viewport": {"northeast": {"lat": 19.35808732989272, "lng": -99.09615067010729}, "southwest": {"lat": 19.35538767010728, "lng": -99.09885032989273}}}, "icon": "https://maps.gstatic.com/mapfiles/place_api/icons/v1/png_71/gas_station-71.png", "name": "Pemex", "opening_hours": {"open_now": true}, "photos": [{"height": 2988, "html_attributions": ["<a href=\"https://maps.google.com/maps/contrib/105143792918166207379\">German Mora</a>"], "photo_reference": "CmRaAAAAm6KqRF0NYlzrCOCMkggZXhNLGri57cYqDQyvvRSLBQOHXkVGLR06IqBJwk4hA5V_oI63BpivqCjd51LLzND7vKK6CtlXhi7MsMWEkzNgQYxm_PCAWZobvixqdM8ayYDZEhCg28u5pL98hGo6QILKrJOFGhSwoVozzO59oFlrrPCxKuvesJ-k2A", "width": 5312}], "place_id": "ChIJPQgmuuP90YUR7Lnp4r8Zqpg", "plus_code": {"compound_code": "9W42+PX Mexico City", "global_code": "76F29W42+PX"}, "rating": 3.4, "reference": "ChIJPQgmuuP90YUR7Lnp4r8Zqpg", "types": ["gas_station", "point_of_interest", "establishment"], "user_ratings_total": 127}, {"business_status": "OPERATIONAL", "formatted_address": "Ermita Iztapalapa 205, El Santuario, Iztapalapa, 09836 Ciudad de M\u00e9xico, CDMX", "geometry": {"location": {"lat": 19.3558621, "lng": -99.0937275}, "viewport": {"northeast": {"lat": 19.35727932989272, "lng": -99.09238762010727}, "southwest": {"lat": 19.35457967010728, "lng": -99.09508727989272}}}, "icon": "https://maps.gstatic.com/mapfiles/place_api/icons/v1/png_71/gas_station-71.png", "name": "Gasolinera G500 Operadora Ermita", "opening_hours": {}, "photos": [{"height": 1920, "html_attributions": ["<a href=\"https://maps.google.com/maps/contrib/116304696686178133844\">Eduardo Rufino</a>"], "photo_reference": "CmRaAAAAuNw44OsLwBtYZ7eb5Di0bbFIcPb2DraMhGQAmoACS5RdTeH_cbLFts4nQr3n_hzSCYFIjCwP1VXIL-Azlp8cgxW8Axx9dKQdJG8iOSp6puVxjXLN-uQQGAepQCQswAjIEhBpYBsOU97_PECSL8tad_akGhRXGujCfU3RH1ZgnBSfcCyo5G3xqw", "width": 1080}], "place_id": "ChIJDRLmEu790YURpZRQAv28OWE", "plus_code": {"compound_code": "9W44+8G Mexico City", "global_code": "76F29W44+8G"}, "rating": 4, "reference": "ChIJDRLmEu790YURpZRQAv28OWE", "types": ["gas_station", "point_of_interest", "establishment"], "user_ratings_total": 99}, {"business_status": "OPERATIONAL", "formatted_address": "Calz Taxque\u00f1a 2391, Tula, Iztapalapa, 09800 Ciudad de M\u00e9xico, CDMX", "geometry": {"location": {"lat": 19.3372937, "lng": -99.11266359999999}, "viewport": {"northeast": {"lat": 19.33863712989272, "lng": -99.11141412010727}, "southwest": {"lat": 19.33593747010728, "lng": -99.11411377989272}}}, "icon": "https://maps.gstatic.com/mapfiles/place_api/icons/v1/png_71/gas_station-71.png", "name": "PEMEX", "opening_hours": {"open_now": true}, "photos": [{"height": 1902, "html_attributions": ["<a href=\"https://maps.google.com/maps/contrib/105143792918166207379\">German Mora</a>"], "photo_reference": "CmRaAAAAY4vN-V9d9J1CMjwdHS37RSeGx1ppGN7yhtg74sdgGxOmpNF-YgXzSsiTF0Fk2jnyIqk0QPDdUhK3QXBYDxkUFKpyAjyJo-z59P6uLGNn_kpYVgqL3ACDJBzk2L1TQiD0EhBtjYYC8WZe9dCc27JBw_2-GhS9yn7P9B_Ceacq7vcAYY1TIlTjyQ", "width": 2366}], "place_id": "ChIJx3Kt1uIBzoURsKpyjoUgT4c", "plus_code": {"compound_code": "8VPP+WW Mexico City", "global_code": "76F28VPP+WW"}, "rating": 3.6, "reference": "ChIJx3Kt1uIBzoURsKpyjoUgT4c", "types": ["gas_station", "point_of_interest", "establishment"], "user_ratings_total": 172}, {"business_status": "OPERATIONAL", "formatted_address": "Esq San Jose, Eje 6 Sur Trabajadoras Sociales, La Asunci\u00f3n, 09000 Ciudad de M\u00e9xico, CDMX", "geometry": {"location": {"lat": 19.3667386, "lng": -99.0902347}, "viewport": {"northeast": {"lat": 19.36814597989272, "lng": -99.08888277010728}, "southwest": {"lat": 19.36544632010728, "lng": -99.09158242989271}}}, "icon": "https://maps.gstatic.com/mapfiles/place_api/icons/v1/png_71/gas_station-71.png", "name": "Gasolinera PEMEX", "opening_hours": {}, "photos": [{"height": 1836, "html_attributions": ["<a href=\"https://maps.google.com/maps/contrib/107300181147229840454\">Diana Osorio</a>"], "photo_reference": "CmRaAAAAw7knqupw0KwkbcxM7aQV44rv4Dl9Qkfo3fBX0uSmn4jGIkINcAkulD6GBeOIlesdbNhGLfkP8LDwnQLDMr0VpLKu-SdXWBhy3XTRyLqXvXzymGsMwDnjeMTF6mFSbQ5REhBSMuRH3I894SVrjBvHsamXGhSp7QfER47jE2k1-5HFIwIucc6Vmw", "width": 3264}], "place_id": "ChIJYc65zML90YURGvAtHDF45Zs", "plus_code": {"compound_code": "9W85+MW Mexico City", "global_code": "76F29W85+MW"}, "rating": 3.5, "reference": "ChIJYc65zML90YURGvAtHDF45Zs", "types": ["gas_station", "point_of_interest", "establishment"], "user_ratings_total": 144}, {"business_status": "OPERATIONAL", "formatted_address": "Ermita Iztapalapa No.1565, El Manto, Iztapalapa, 09830 Ciudad de M\u00e9xico, CDMX", "geometry": {"location": {"lat": 19.354233, "lng": -99.0824514}, "viewport": {"northeast": {"lat": 19.35564117989273, "lng": -99.08107182010728}, "southwest": {"lat": 19.35294152010728, "lng": -99.08377147989272}}}, "icon": "https://maps.gstatic.com/mapfiles/place_api/icons/v1/png_71/gas_station-71.png", "name": "Gasolinera Pemex", "opening_hours": {}, "photos": [{"height": 1920, "html_attributions": ["<a href=\"https://maps.google.com/maps/contrib/116248061681006405702\">Naum Garcia</a>"], "photo_reference": "CmRaAAAAlF3Qm9LUs1Y_KtBsmZ9Rw5ehjePZRHTFpqzRI7j3vZ1T256xYFFGamRbS2fXjkWwKDPPRT2glFABBKLaAs-XTrNXJ57-pHPvqUUXMh11gGaStaK-8eFLPJT8CGl0GQuKEhDmqDMzt6dQf9UQZJ8KVLn8GhSt1KHMaFmNu3Bm0ojbhHw-9PzgKw", "width": 1080}], "place_id": "ChIJi8P_hO390YURcamzTEHBfrI", "plus_code": {"compound_code": "9W39+M2 Mexico City", "global_code": "76F29W39+M2"}, "rating": 3.9, "reference": "ChIJi8P_hO390YURcamzTEHBfrI", "types": ["gas_station", "point_of_interest", "establishment"], "user_ratings_total": 43}, {"business_status": "OPERATIONAL", "formatted_address": "Av. 5 106, Granjas San Antonio, Iztapalapa, 09070 Ciudad de M\u00e9xico, CDMX", "geometry": {"location": {"lat": 19.3602888, "lng": -99.1106787}, "viewport": {"northeast": {"lat": 19.36162972989272, "lng": -99.10928277010727}, "southwest": {"lat": 19.35893007010727, "lng": -99.11198242989272}}}, "icon": "https://maps.gstatic.com/mapfiles/place_api/icons/v1/png_71/gas_station-71.png", "name": "Mex Fuel Aditivo, Escuadron 201", "opening_hours": {"open_now": false}, "photos": [{"height": 3264, "html_attributions": ["<a href=\"https://maps.google.com/maps/contrib/117365084833677920885\">A Google User</a>"], "photo_reference": "CmRaAAAA6cVRj90MCn1iZR9CniPpcnP-mOO-hhN46WrThQA-128ffheUQq9E1CdSh07gjD8F4BKdVb-LiHJnDKVmMK58UmFWFcXhnzHGCWgW9ajIePTYXgpSvBC9EtZ4SeP4N5djEhBUJOvO9CHcQVcZYAwq62CwGhRPFyFc0BCzUppPxnY80G0nxi9ScQ", "width": 1836}], "place_id": "ChIJQ6CdBPv_0YURcpGN_oqHSfA", "plus_code": {"compound_code": "9V6Q+4P Mexico City", "global_code": "76F29V6Q+4P"}, "rating": 4, "reference": "ChIJQ6CdBPv_0YURcpGN_oqHSfA", "types": ["gas_station", "point_of_interest", "establishment"], "user_ratings_total": 18}, {"business_status": "OPERATIONAL", "formatted_address": "Eje 5 Ote 311, San Miguel, Iztapalapa, 09360 Ciudad de M\u00e9xico, CDMX", "geometry": {"location": {"lat": 19.365712, "lng": -99.08229709999999}, "viewport": {"northeast": {"lat": 19.36708187989272, "lng": -99.08100722010727}, "southwest": {"lat": 19.36438222010728, "lng": -99.08370687989272}}}, "icon": "https://maps.gstatic.com/mapfiles/place_api/icons/v1/png_71/gas_station-71.png", "name": "Gasolinera", "opening_hours": {"open_now": true}, "photos": [{"height": 1600, "html_attributions": ["<a href=\"https://maps.google.com/maps/contrib/112428251335404115048\">Oscar M\u00e9ndez</a>"], "photo_reference": "CmRaAAAAT0xaosyIoToyxRK9S7-kNslcEQ4E_rCJQ0sFRtdXkC3IOuOfSTTSoTFXlxwr4s7C4AFuzPBed7KXPnjazpKnftxtLXIH7eDsVPs2cXVsa4EDCxrjfyVnLCNFy7uUYvR-EhAeJo4roPaXuPYwynnZHikNGhTHgTg4tYRen8vAb7G_KyzmAOvacQ", "width": 1200}], "place_id": "ChIJz83n08H90YURPzJVLzhlAyQ", "plus_code": {"compound_code": "9W89+73 Mexico City", "global_code": "76F29W89+73"}, "rating": 3.7, "reference": "ChIJz83n08H90YURPzJVLzhlAyQ", "types": ["gas_station", "point_of_interest", "establishment"], "user_ratings_total": 9}, {"business_status": "OPERATIONAL", "formatted_address": "\u00c1rea Federal Central de Abastos, Iztapalapa, Mexico City", "geometry": {"location": {"lat": 19.3757837, "lng": -99.0974069}, "viewport": {"northeast": {"lat": 19.37712077989272, "lng": -99.09605877010728}, "southwest": {"lat": 19.37442112010728, "lng": -99.09875842989273}}}, "icon": "https://maps.gstatic.com/mapfiles/place_api/icons/v1/png_71/gas_station-71.png", "name": "Gasolinera PEMEX", "photos": [{"height": 1080, "html_attributions": ["<a href=\"https://maps.google.com/maps/contrib/109270014146315771284\">Juan Mora</a>"], "photo_reference": "CmRaAAAAZvtjC3bzxOKlZqE9lLr16cKfNNthyOfwjzsIO6B_ek5F1rO32Q2CE3q1iG8A9AJ9HE8NERwZtDbtWCzS5Gla3bd_OuYa1xcObO2rNBNf63aCzSSLwKJ5QCld1YFRfVoEEhCyKrNNZqABcWLOZl9fvv1XGhRuxjmHDsfNrO62dmbdZwxnHQFJfQ", "width": 1920}], "place_id": "ChIJbStQ3Nn90YURyfsalxsDPb8", "plus_code": {"compound_code": "9WG3+82 Mexico City", "global_code": "76F29WG3+82"}, "rating": 3, "reference": "ChIJbStQ3Nn90YURyfsalxsDPb8", "types": ["gas_station", "point_of_interest", "establishment"], "user_ratings_total": 25}, {"business_status": "OPERATIONAL", "formatted_address": "Ermita Iztapalapa, 8va Amp San Miguel, Iztapalapa, 09837 Ciudad de M\u00e9xico, CDMX", "geometry": {"location": {"lat": 19.3543159, "lng": -99.0826628}, "viewport": {"northeast": {"lat": 19.35572937989272, "lng": -99.08128052010727}, "southwest": {"lat": 19.35302972010728, "lng": -99.08398017989272}}}, "icon": "https://maps.gstatic.com/mapfiles/place_api/icons/v1/png_71/gas_station-71.png", "name": "Gasolinera", "photos": [{"height": 4608, "html_attributions": ["<a href=\"https://maps.google.com/maps/contrib/104391880036234623040\">JARAMILLO CLUB</a>"], "photo_reference": "CmRaAAAAtPz3WLc9ZSHRZwmc3W3wZPW9Jh4jtdOlwm6BOcp6rLpXPRqCY1jlgdujXfbW8QdOR-2hUvHt0GZFT6zE3_pLzsgRskJa1bPrgKdVH0LZL6vsx1d66wSwu-P_PPOzGBEZEhAOCAa-_g7LuRAZMhSK43ncGhSu8yljuIn2xQTW-xAAZLWdD-TH1g", "width": 3456}], "place_id": "ChIJ-YsJkO390YURMCzx7mWLZLA", "plus_code": {"compound_code": "9W38+PW Mexico City", "global_code": "76F29W38+PW"}, "rating": 3.5, "reference": "ChIJ-YsJkO390YURMCzx7mWLZLA", "types": ["gas_station", "point_of_interest", "establishment"], "user_ratings_total": 4}, {"business_status": "OPERATIONAL", "formatted_address": "Ermita Iztapalapa, Calzada, Iztapalapa, 09080 Ciudad de M\u00e9xico, CDMX", "geometry": {"location": {"lat": 19.3582344, "lng": -99.12566299999999}, "viewport": {"northeast": {"lat": 19.35948957989272, "lng": -99.12432407010728}, "southwest": {"lat": 19.35678992010728, "lng": -99.12702372989273}}}, "icon": "https://maps.gstatic.com/mapfiles/place_api/icons/v1/png_71/gas_station-71.png", "name": "bp", "opening_hours": {"open_now": true}, "photos": [{"height": 2988, "html_attributions": ["<a href=\"https://maps.google.com/maps/contrib/108061552693457390277\">JORGE JOS\u00c9 TERR\u00c9 OLIVA</a>"], "photo_reference": "CmRaAAAAn7fVGIVmeUfPZmPX5P5txtS0WShO4TzOHgUYTWmabBB3sQjIpNMLUTcdSKroefAKTkZIALpJFCBiP3yBpM4prEOf-OYYrH3kTcRvD33JdGuaZvQHezDlpHaqY8TsAk2eEhBTdk3AatyjWZCx05j4o1V6GhTopaNDkwpv5XUGaKOOl9zitcfWag", "width": 4755}], "place_id": "ChIJx3qjZT7-0YURhzdIQtKDxEc", "plus_code": {"compound_code": "9V5F+7P Mexico City", "global_code": "76F29V5F+7P"}, "rating": 3.5, "reference": "ChIJx3qjZT7-0YURhzdIQtKDxEc", "types": ["gas_station", "convenience_store", "food", "point_of_interest", "store", "establishment"], "user_ratings_total": 163}, {"business_status": "OPERATIONAL", "formatted_address": "09410, Francisco del Paso y Troncoso 34, Jardines de Churubusco, Iztapalapa, Ciudad de M\u00e9xico, CDMX", "geometry": {"location": {"lat": 19.3744294, "lng": -99.10814239999999}, "viewport": {"northeast": {"lat": 19.37580602989272, "lng": -99.10671822010728}, "southwest": {"lat": 19.37310637010728, "lng": -99.10941787989272}}}, "icon": "https://maps.gstatic.com/mapfiles/place_api/icons/v1/png_71/gas_station-71.png", "name": "Gasolinera Pemex", "opening_hours": {}, "photos": [{"height": 4160, "html_attributions": ["<a href=\"https://maps.google.com/maps/contrib/100942778659706309404\">Antonio Esqueda Slim</a>"], "photo_reference": "CmRaAAAAPTnyrzhFomPKJ37ySO22XrEbTcfiIzkhvQQINp_iClW6P1HHPaxmwwyjIwwM3JdjffcadIh755vBW0Ge8vHHHKBdd96mpR3if-hSpnjhIQqUDjriL3n-xiOAXV4QIP4rEhAXaYnt0rDyeRnKEhfsXh_6GhR-cZc7DBDYhPnuwAYEzvxpcZskIA", "width": 3120}], "place_id": "ChIJ1Uywv3D-0YURUYVASr_SM5A", "plus_code": {"compound_code": "9VFR+QP Mexico City", "global_code": "76F29VFR+QP"}, "rating": 3.7, "reference": "ChIJ1Uywv3D-0YURUYVASr_SM5A", "types": ["gas_station", "point_of_interest", "establishment"], "user_ratings_total": 78}, {"business_status": "OPERATIONAL", "formatted_address": "Eje 3 Ote 24, Los Reyes Culhuacan, Iztapalapa, 09840 Ciudad de M\u00e9xico, CDMX", "geometry": {"location": {"lat": 19.3414782, "lng": -99.112526}, "viewport": {"northeast": {"lat": 19.34283627989272, "lng": -99.11124617010728}, "southwest": {"lat": 19.34013662010728, "lng": -99.11394582989273}}}, "icon": "https://maps.gstatic.com/mapfiles/place_api/icons/v1/png_71/generic_business-71.png", "name": "Super Flex", "photos": [{"height": 1920, "html_attributions": ["<a href=\"https://maps.google.com/maps/contrib/106601951629316928851\">Raul Cortes</a>"], "photo_reference": "CmRaAAAAt9rbNvHDUvvzKugTGi285LvSFjFnWl5go8C-t1od1lC0OQlSYMXo_qc7ZCtWQ-Ub3nl72Y9lhLWlojcr83JH7X5WdoOKX2P7CPO2d7Ym1ERoXzyZuBjWyBWKcyLyYFljEhDwzRNaWsVDcunnqK2qNl-HGhQqp68Ne-6bXNxzmlfotRNVEtDe4g", "width": 1080}], "place_id": "ChIJOT5ontP_0YURf5TpM0cM7WQ", "plus_code": {"compound_code": "8VRP+HX Mexico City", "global_code": "76F28VRP+HX"}, "rating": 4.7, "reference": "ChIJOT5ontP_0YURf5TpM0cM7WQ", "types": ["gas_station", "point_of_interest", "establishment"], "user_ratings_total": 6}, {"business_status": "OPERATIONAL", "formatted_address": "Eje 3 Oriente, Prolongaci\u00f3n Arneses 549 Col, San Francisco Culhuacan, Iztapalapa, 09800 Ciudad de M\u00e9xico, CDMX", "geometry": {"location": {"lat": 19.3372347, "lng": -99.1131508}, "viewport": {"northeast": {"lat": 19.33858842989272, "lng": -99.11173017010728}, "southwest": {"lat": 19.33588877010727, "lng": -99.11442982989271}}}, "icon": "https://maps.gstatic.com/mapfiles/place_api/icons/v1/png_71/gas_station-71.png", "name": "Rio Tuerto, S.A. de C.V.", "opening_hours": {"open_now": true}, "photos": [{"height": 1560, "html_attributions": ["<a href=\"https://maps.google.com/maps/contrib/102792506529501835684\">Rio Tuerto, S.A. de C.V.</a>"], "photo_reference": "CmRaAAAAIt5nINIq5nB_CKKgePbYqoYdMIpDZD8G9wLAPaUnzMwoFtVKtHRxJkzky8Ru9nnfXSbAdmtn-O0wmnC0LbSxFZJnz6Tg0Z-WVvPQ2gY4VeHeWUxmdaMulP9ssKdCrCEaEhC2jUL8XcpDFugYctGAGdhOGhRS-psW7crXtOjG-V8Xp9AIkUmqjg", "width": 2493}], "place_id": "ChIJHUMfYOcc0oURhzI1yp14lBI", "plus_code": {"compound_code": "8VPP+VP Mexico City", "global_code": "76F28VPP+VP"}, "rating": 3.8, "reference": "ChIJHUMfYOcc0oURhzI1yp14lBI", "types": ["gas_station", "point_of_interest", "establishment"], "user_ratings_total": 216}, {"business_status": "OPERATIONAL", "formatted_address": "Av. Javier Rojo G\u00f3mez 482, Guadalupe del Moral, Iztapalapa, 09300 Ciudad de M\u00e9xico, CDMX", "geometry": {"location": {"lat": 19.3712477, "lng": -99.0800836}, "viewport": {"northeast": {"lat": 19.37263522989272, "lng": -99.07885312010727}, "southwest": {"lat": 19.36993557010728, "lng": -99.08155277989272}}}, "icon": "https://maps.gstatic.com/mapfiles/place_api/icons/v1/png_71/gas_station-71.png", "name": "PEMEX", "opening_hours": {"open_now": true}, "photos": [{"height": 4608, "html_attributions": ["<a href=\"https://maps.google.com/maps/contrib/108335018323530019599\">Patricia Puga</a>"], "photo_reference": "CmRaAAAA4cJ27He_SpjAhXYJiCn0ODspxvKgU-2CHGbiLassthC_6thO-0neeH5TXmEF9RyEKIPYRWYnjoWs1-OSiTszsS0ENnB_tqqUUVZpzStlhFedjwDeaSWIeGTPrMYfpCSeEhC_Qmokg5YFbRRLjiOE2MpRGhT9ME3qfpRDDtiy1TBJJ2-d4NRWJg", "width": 3456}], "place_id": "ChIJHUMfYOcc0oURbiFLIFRmEWs", "plus_code": {"compound_code": "9WC9+FX Mexico City", "global_code": "76F29WC9+FX"}, "rating": 3.7, "reference": "ChIJHUMfYOcc0oURbiFLIFRmEWs", "types": ["gas_station", "point_of_interest", "establishment"], "user_ratings_total": 548}, {"business_status": "OPERATIONAL", "formatted_address": "Col., Av. Arneses 550, San Antonio Culhuacan, Iztapalapa, 09800 Ciudad de M\u00e9xico, CDMX", "geometry": {"location": {"lat": 19.3369765, "lng": -99.1127345}, "viewport": {"northeast": {"lat": 19.33832162989272, "lng": -99.11143697010729}, "southwest": {"lat": 19.33562197010728, "lng": -99.11413662989274}}}, "icon": "https://maps.gstatic.com/mapfiles/place_api/icons/v1/png_71/gas_station-71.png", "name": "Service Shield, S.A. De C.V.", "opening_hours": {"open_now": true}, "photos": [{"height": 3456, "html_attributions": ["<a href=\"https://maps.google.com/maps/contrib/101621358354093937024\">Edgar Daniel Vargas</a>"], "photo_reference": "CmRaAAAAdtR4VQNJc-nR4nrJarPR52eIejWfpMncDYih1Toxrsg_EzIZVys_0wWe9lYsDasgB6YhXljuexsFV1JzBTzEo4gRZi5tzuR09x329YE4R-wjT8cn2VJoJgi_cdlpzwZrEhCRoCqwBdHyQQEmPSKQwETZGhRx-znjG5G24_pGtWPvBhbsHyCKuA", "width": 4608}], "place_id": "ChIJE8_GHyj-0YUR0ZIuwEywjXo", "plus_code": {"compound_code": "8VPP+QW Mexico City", "global_code": "76F28VPP+QW"}, "rating": 3.6, "reference": "ChIJE8_GHyj-0YUR0ZIuwEywjXo", "types": ["gas_station", "point_of_interest", "establishment"], "user_ratings_total": 30}, {"business_status": "OPERATIONAL", "formatted_address": "Av San Lorenzo 429, San Juan Xalpa, Iztapalapa, 09850 Ciudad de M\u00e9xico, CDMX", "geometry": {"location": {"lat": 19.3335478, "lng": -99.0751803}, "viewport": {"northeast": {"lat": 19.33492827989272, "lng": -99.07378627010728}, "southwest": {"lat": 19.33222862010728, "lng": -99.07648592989271}}}, "icon": "https://maps.gstatic.com/mapfiles/place_api/icons/v1/png_71/gas_station-71.png", "name": "Gasolinera Pemex", "opening_hours": {}, "photos": [{"height": 2336, "html_attributions": ["<a href=\"https://maps.google.com/maps/contrib/115366429384999177094\">juliodelaobreraa torreshummel</a>"], "photo_reference": "CmRaAAAAsWQBdxRV1LpqMIpcl--s4g8jUlfgcSPopOnB_1_Yx022HFtjI2Z5lQFUvh1Kzaqp-aebAnRneuQG3QmHDkE2tag1SfykxO7JO-UljkPf159byqks2VJoSiA5UzTRzo0ZEhCc0STfCKXZVfjKwvyhDR_NGhTp2WyE6FfDGcUiVqLi9MusE7Mdnw", "width": 4160}], "place_id": "ChIJT5O9lIQDzoURH7S6aH5C2wQ", "plus_code": {"compound_code": "8WMF+CW Mexico City", "global_code": "76F28WMF+CW"}, "rating": 3.7, "reference": "ChIJT5O9lIQDzoURH7S6aH5C2wQ", "types": ["gas_station", "point_of_interest", "establishment"], "user_ratings_total": 437}, {"business_status": "OPERATIONAL", "formatted_address": "Frutas y Legumbres 189, \u00c1rea Federal Central de Abastos, Iztapalapa, 09819 Ciudad de M\u00e9xico, CDMX", "geometry": {"location": {"lat": 19.374505, "lng": -99.0953634}, "viewport": {"northeast": {"lat": 19.37594182989272, "lng": -99.09401167010728}, "southwest": {"lat": 19.37324217010728, "lng": -99.09671132989271}}}, "icon": "https://maps.gstatic.com/mapfiles/place_api/icons/v1/png_71/gas_station-71.png", "name": "Gasolinera", "photos": [{"height": 3264, "html_attributions": ["<a href=\"https://maps.google.com/maps/contrib/111745022311792005194\">A Google User</a>"], "photo_reference": "CmRaAAAAS59h6NpKXhKHLV8XwqI2yCEo6Ho3etIerErthAeNvQJw_HUCRsRX87V-UsLfe6s7g4VtAJp_r5Zgo1hsv_VnrDh_xHCaGg_pgYnxfVOuhAqU52560c-E5vs624linXG1EhAXcK8IkJBHK2RTdmeuTqLmGhTFuPvPbsWhfuZ3uFRHiycKjtFwHw", "width": 2448}], "place_id": "ChIJXQFuJNr90YURT1iDlAQyAns", "plus_code": {"compound_code": "9WF3+RV Mexico City", "global_code": "76F29WF3+RV"}, "rating": 3.8, "reference": "ChIJXQFuJNr90YURT1iDlAQyAns", "types": ["gas_station", "point_of_interest", "establishment"], "user_ratings_total": 14}, {"business_status": "OPERATIONAL", "formatted_address": "Calz Taxque\u00f1a, Paseos de Taxque\u00f1a, Coyoac\u00e1n, 04250 Ciudad de M\u00e9xico, CDMX", "geometry": {"location": {"lat": 19.339024, "lng": -99.1274207}, "viewport": {"northeast": {"lat": 19.34029782989272, "lng": -99.12609677010728}, "southwest": {"lat": 19.33759817010727, "lng": -99.12879642989273}}}, "icon": "https://maps.gstatic.com/mapfiles/place_api/icons/v1/png_71/gas_station-71.png", "name": "bp", "opening_hours": {"open_now": true}, "photos": [{"height": 1080, "html_attributions": ["<a href=\"https://maps.google.com/maps/contrib/105143792918166207379\">German Mora</a>"], "photo_reference": "CmRaAAAA_gfbvs_OXU0KFXa-Vclyw8Yc7xdrraSsiMRFO33tST3qQSnpbSRPe-JCJYa-R4jb5UDDNQaclosbUGQU4sRS82FP8HmhivzT84j4D5TNucXlbKS117hj9PrhPMhjjgyaEhBkU3q6y4R4K_Hr1Saa9j7NGhRQrPIvUXCWU_cUikhA91t2ji--cQ", "width": 1920}], "place_id": "ChIJK_xYZt8BzoURbT3Awxdx49E", "plus_code": {"compound_code": "8VQF+J2 Mexico City", "global_code": "76F28VQF+J2"}, "rating": 4.2, "reference": "ChIJK_xYZt8BzoURbT3Awxdx49E", "types": ["gas_station", "convenience_store", "food", "point_of_interest", "store", "establishment"], "user_ratings_total": 2012}]