[{"business_status": "OPERATIONAL", "formatted_address": "s/n, 09820 de, Camino Cerro de la Estrella, El Santuario, 09836 Ciudad de M\u00e9xico, CDMX", "geometry": {"location": {"lat": 19.3516619, "lng": -99.09204749999999}, "viewport": {"northeast": {"lat": 19.35293712989272, "lng": -99.09065522010728}, "southwest": {"lat": 19.35023747010728, "lng": -99.09335487989273}}}, "icon": "https://maps.gstatic.com/mapfiles/place_api/icons/v1/png_71/school-71.png", "name": "Biblioteca Villa Estrella", "opening_hours": {"open_now": true}, "photos": [{"height": 2322, "html_attributions": ["<a href=\"https://maps.google.com/maps/contrib/103234954754457919194\">Uriel Escudero</a>"], "photo_reference": "CmRaAAAA_RM9yFyeERSEmWetjJwSeEycp14sDoLAiG2N13I0kL8HYMfq_T7tfuLRCQNqLnriGiZpI6glqtcXUcBlhHKxz1ToIhqpeQIbvEkWX7_irF6zLvwQ6e26kyITbQ4xgHIrEhDCzk5fEuFgbAF7WGqDNb4ZGhQAxqm-LLshS_3ZKoT437or6fm11Q", "width": 4128}], "place_id": "ChIJYQgvwvr90YURzrEYcDpSAEk", "plus_code": {"compound_code": "9W25+M5 Mexico City", "global_code": "76F29W25+M5"}, "rating": 3, "reference": "ChIJYQgvwvr90YURzrEYcDpSAEk", "types": ["library", "point_of_interest", "establishment"], "user_ratings_total": 1}, {"business_status": "OPERATIONAL", "formatted_address": "Valle de Luces 1RA. Secci\u00f3n, 09800 Iztapalapa, CDMX", "geometry": {"location": {"lat": 19.3403659, "lng": -99.0999447}, "viewport": {"northeast": {"lat": 19.34170062989272, "lng": -99.09860012010728}, "southwest": {"lat": 19.33900097010728, "lng": -99.10129977989273}}}, "icon": "https://maps.gstatic.com/mapfiles/place_api/icons/v1/png_71/school-71.png", "name": "DIGITAL LIBRARY TELMEX", "photos": [{"height": 3120, "html_attributions": ["<a href=\"https://maps.google.com/maps/contrib/116426655027405266871\">A Google User</a>"], "photo_reference": "CmRaAAAAxzleM9RSzqMvx1Om9hWhpEW19M3mhOhchMdAwc-dwVwFlXuGPLuke2SheyIv0PRzH8E7RRdP16AqQNJXvzixnEyP_hyNGrGuXb9kvVVb3BsJ9c7cZ5pn-3c9tcOQJ2k2EhDa8FBnamF421uKGKHMQXeYGhTfitg2Vt918T_Eu7SdkLnFhWtfbA", "width": 4160}], "place_id": "ChIJ6QxKcwACzoURfIXZM5pfTPs", "plus_code": {"compound_code": "8WR2+42 Mexico City", "global_code": "76F28WR2+42"}, "rating": 2, "reference": "ChIJ6QxKcwACzoURfIXZM5pfTPs", "types": ["library", "point_of_interest", "establishment"], "user_ratings_total": 3}, {"business_status": "OPERATIONAL", "formatted_address": "Casi esquina con 2da. Callej\u00f3n Cuahut\u00e9moc, Cuauht\u00e9moc 118, San Pedro, Iztapalapa, 09000 Ciudad de M\u00e9xico, CDMX", "geometry": {"location": {"lat": 19.3620301, "lng": -99.0899061}, "viewport": {"northeast": {"lat": 19.36337317989272, "lng": -99.08853662010728}, "southwest": {"lat": 19.36067352010727, "lng": -99.09123627989273}}}, "icon": "https://maps.gstatic.com/mapfiles/place_api/icons/v1/png_71/school-71.png", "name": "BILIOTECA PUBLICA Y C.I.O. CLUB ROTATORIO C.D. DE MEXICO", "opening_hours": {"open_now": true}, "photos": [{"height": 1920, "html_attributions": ["<a href=\"https://maps.google.com/maps/contrib/112604461720225249152\">Ax 0</a>"], "photo_reference": "CmRaAAAAr6ebeNdsCTyAKVdfsMU9Vxg8MTAcdgdrB6BdfQ1jReh4cKxTOskVie0yOqniK0e2DlQnTG8LcSa2oUwqiLa02D5DM2a-WqkKsYi5rsBmkUqMuYtQdB3Y0haZyIk5GcyoEhCZXT5VEU7dODXT9vBlhDtIGhR3wcOaB0vEi_dC9kNcwY84jNI4Rw", "width": 1080}], "place_id": "ChIJCVXdfej90YURQewTTY0WGVs", "plus_code": {"compound_code": "9W66+R2 Mexico City", "global_code": "76F29W66+R2"}, "rating": 4.9, "reference": "ChIJCVXdfej90YURQewTTY0WGVs", "types": ["library", "point_of_interest", "establishment"], "user_ratings_total": 7}, {"business_status": "CLOSED_TEMPORARILY", "formatted_address": "San Lucas, Iztapalapa, 09000 Mexico City", "geometry": {"location": {"lat": 19.3603677, "lng": -99.09358739999999}, "viewport": {"northeast": {"lat": 19.36163912989272, "lng": -99.09226722010727}, "southwest": {"lat": 19.35893947010727, "lng": -99.09496687989272}}}, "icon": "https://maps.gstatic.com/mapfiles/place_api/icons/v1/png_71/library-71.png", "name": "Biblioteca Digital", "permanently_closed": true, "place_id": "ChIJDSLe8ub90YURHOVKkg1Eo3Q", "plus_code": {"compound_code": "9W64+4H Mexico City", "global_code": "76F29W64+4H"}, "rating": 0, "reference": "ChIJDSLe8ub90YURHOVKkg1Eo3Q", "types": ["library", "point_of_interest", "establishment"], "user_ratings_total": 0}, {"business_status": "OPERATIONAL", "formatted_address": "San Rafael Atlixco 186, Vicentina, 09340 Iztapalapa, CDMX", "geometry": {"location": {"lat": 19.3611015, "lng": -99.0731163}, "viewport": {"northeast": {"lat": 19.36241622989272, "lng": -99.07212059999999}, "southwest": {"lat": 19.35971657010727, "lng": -99.0749878}}}, "icon": "https://maps.gstatic.com/mapfiles/place_api/icons/v1/png_71/library-71.png", "name": "Library", "opening_hours": {"open_now": false}, "photos": [{"height": 1080, "html_attributions": ["<a href=\"https://maps.google.com/maps/contrib/118047818355382324769\">Israel zarza</a>"], "photo_reference": "CmRaAAAAGNgn2w6bDnjxuYgpvfdfn-avT6RZSnIFJaIv65q6yH-cZ4pEtDSN3yzuiLyAxO3agdk2S85zxduXWWx2H3YfUngsj1MmBxRFBNMFurqDLsLu_w1b9rN4JFvIWj4Cv5OeEhAd6UsODB6ia14y1OGjy_kVGhShqY021c0S0Nx7tEbU64l5zMBEEQ", "width": 1920}], "place_id": "ChIJo348o5b90YURDdJ4dc-XlI0", "plus_code": {"compound_code": "9W6G+CQ Mexico City", "global_code": "76F29W6G+CQ"}, "rating": 4.6, "reference": "ChIJo348o5b90YURDdJ4dc-XlI0", "types": ["library", "book_store", "point_of_interest", "store", "establishment"], "user_ratings_total": 166}, {"business_status": "CLOSED_TEMPORARILY", "formatted_address": "Av Batallones Rojos 48, Albarrada, Iztapalapa, 09249 Ciudad de M\u00e9xico, CDMX", "geometry": {"location": {"lat": 19.3563795, "lng": -99.061493}, "viewport": {"northeast": {"lat": 19.35771417989272, "lng": -99.06007332010729}, "southwest": {"lat": 19.35501452010728, "lng": -99.06277297989273}}}, "icon": "https://maps.gstatic.com/mapfiles/place_api/icons/v1/png_71/library-71.png", "name": "Biblioteca P\u00fablica Albarrada", "permanently_closed": true, "photos": [{"height": 768, "html_attributions": ["<a href=\"https://maps.google.com/maps/contrib/103234954754457919194\">Uriel Escudero</a>"], "photo_reference": "CmRaAAAA3eZF4tDMNeoQsLGete9dQBlbGWCG-_RTDqfDS3cdxt1PV9SXG2NLgOhK0Dmo24-rX3j3DZS7FPNONL1J1todTxtluL3-nhPzUPPVDtKIx1Xwarr32FSJlHlqe3dmhQW5EhCqoXsHVkbbxqYGWbSXt7XKGhT3119kPTc-8SaT8XisVZWEMWQhDA", "width": 1280}], "place_id": "ChIJjcT4k5z90YURO-qa5QhJ9lQ", "plus_code": {"compound_code": "9W4Q+HC Mexico City", "global_code": "76F29W4Q+HC"}, "rating": 1.8, "reference": "ChIJjcT4k5z90YURO-qa5QhJ9lQ", "types": ["library", "point_of_interest", "establishment"], "user_ratings_total": 10}, {"business_status": "OPERATIONAL", "formatted_address": "Manuel Acu\u00f1a 8-4, La Era I y II, Iztapalapa, 09860 Ciudad de M\u00e9xico, CDMX", "geometry": {"location": {"lat": 19.3404049, "lng": -99.0545228}, "viewport": {"northeast": {"lat": 19.34178617989272, "lng": -99.05317502010728}, "southwest": {"lat": 19.33908652010728, "lng": -99.05587467989272}}}, "icon": "https://maps.gstatic.com/mapfiles/place_api/icons/v1/png_71/school-71.png", "name": "Biblioteca Publica La Era", "opening_hours": {"open_now": false}, "photos": [{"height": 3096, "html_attributions": ["<a href=\"https://maps.google.com/maps/contrib/103234954754457919194\">Uriel Esc.</a>"], "photo_reference": "CmRaAAAAIOUkBFgutOVu4sTxFWsTHBY_Do0ZI70b-y7hE_6kmgP9QlNRYGOeEmZIhppwwrQXfN0qjHKWUYXBflTcsIjY-tcKvNoiwVgaJJdAhrTmZ1Ohxw-pCjqmiltyFdqUeFJuEhCSHJli7SJSEbQsImrJxn12GhRCulO_K-A9OdZ04iPr_ZY7w69XmQ", "width": 4128}], "place_id": "ChIJn-BfVIACzoURuS6ZRCqj-xo", "plus_code": {"compound_code": "8WRW+55 Mexico City", "global_code": "76F28WRW+55"}, "rating": 0, "reference": "ChIJn-BfVIACzoURuS6ZRCqj-xo", "types": ["library", "point_of_interest", "establishment"], "user_ratings_total": 0}, {"business_status": "CLOSED_TEMPORARILY", "formatted_address": "Ram\u00f3n L. Velarde 17, San Juan Joya, Iztapalapa, 09839 Ciudad de M\u00e9xico, CDMX", "geometry": {"location": {"lat": 19.3385467, "lng": -99.0682748}, "viewport": {"northeast": {"lat": 19.33991032989272, "lng": -99.0668727701073}, "southwest": {"lat": 19.33721067010728, "lng": -99.06957242989273}}}, "icon": "https://maps.gstatic.com/mapfiles/place_api/icons/v1/png_71/library-71.png", "name": "BIBLIOTECA PUBLICA AGUA DE LAS LAJAS", "permanently_closed": true, "photos": [{"height": 2322, "html_attributions": ["<a href=\"https://maps.google.com/maps/contrib/103234954754457919194\">Uriel Escudero</a>"], "photo_reference": "CmRaAAAACfBo_503sDLx6FN76rHh-2zTRsBpSdCMLApBQJCZGmxWKOqH2NQHTI13nF85kkGBuSRK5rqVa1H-Ph82L_JOH_RKPsCJtW8TMyah9q1mw_z32htUkPqAiT2MSBKYTjKPEhARLjpHlVNrPAGBScCKsRMyGhTkhdR61vc4Zb5xiJsAXlsMv6p0UQ", "width": 4128}], "place_id": "ChIJTXh5YncCzoURezOrgvuO_1E", "plus_code": {"compound_code": "8WQJ+CM Mexico City", "global_code": "76F28WQJ+CM"}, "rating": 2.3, "reference": "ChIJTXh5YncCzoURezOrgvuO_1E", "types": ["library", "point_of_interest", "establishment"], "user_ratings_total": 3}, {"business_status": "OPERATIONAL", "formatted_address": "Cafetales, San Francisco Culhuacan, Culhuacan CTM V, Coyoac\u00e1n, 04260 Ciudad de M\u00e9xico, CDMX", "geometry": {"location": {"lat": 19.330039, "lng": -99.11165779999999}, "viewport": {"northeast": {"lat": 19.33140762989272, "lng": -99.11067982010728}, "southwest": {"lat": 19.32870797010728, "lng": -99.11337947989271}}}, "icon": "https://maps.gstatic.com/mapfiles/place_api/icons/v1/png_71/library-71.png", "name": "Biblioteca", "place_id": "ChIJVQ-0ckIBzoURDzE5AvczUxA", "plus_code": {"compound_code": "8VJQ+28 Mexico City", "global_code": "76F28VJQ+28"}, "rating": 0, "reference": "ChIJVQ-0ckIBzoURDzE5AvczUxA", "types": ["library", "point_of_interest", "establishment"], "user_ratings_total": 0}, {"business_status": "OPERATIONAL", "formatted_address": "Av. R\u00edo Churubusco 79, Country Club Churubusco, Coyoac\u00e1n, 04220 Coyoacan, CDMX", "geometry": {"location": {"lat": 19.3564264, "lng": -99.1414089}, "viewport": {"northeast": {"lat": 19.35792702989272, "lng": -99.14005137010729}, "southwest": {"lat": 19.35522737010728, "lng": -99.14275102989272}}}, "icon": "https://maps.gstatic.com/mapfiles/place_api/icons/v1/png_71/school-71.png", "name": "Biblioteca de las Artes", "opening_hours": {"open_now": false}, "photos": [{"height": 4032, "html_attributions": ["<a href=\"https://maps.google.com/maps/contrib/113053262387898095981\">SERGIO ARNAUD</a>"], "photo_reference": "CmRaAAAADhFzmYwuWTJ7AR-7ZBV5D7s8FEzFNca7Ve40WqEe1u5V0dqgqLXCySiI80g9eKHlf4qOKJKJeA1AY8V_1L02TGNgtYl4EI-DfnQvUOPl4CT2Gdu13NthIWhPg2P9uPoZEhAqiiD_Lalwvb3tpq7r1IZ-GhQgUaZ5c4Jp2RxjqTy3PjT4ynHqkg", "width": 1960}], "place_id": "ChIJ1YOmCjT-0YURdCScnktoMjE", "plus_code": {"compound_code": "9V45+HC Country Club Churubusco, Mexico City", "global_code": "76F29V45+HC"}, "rating": 4.3, "reference": "ChIJ1YOmCjT-0YURdCScnktoMjE", "types": ["library", "point_of_interest", "establishment"], "user_ratings_total": 11}, {"business_status": "OPERATIONAL", "formatted_address": "s/n, Porfirio del Castillo, Constituci\u00f3n de 1917, Ciudad de M\u00e9xico, CDMX", "geometry": {"location": {"lat": 19.3487064, "lng": -99.0612903}, "viewport": {"northeast": {"lat": 19.34999427989272, "lng": -99.05995487010728}, "southwest": {"lat": 19.34729462010728, "lng": -99.06265452989273}}}, "icon": "https://maps.gstatic.com/mapfiles/place_api/icons/v1/png_71/school-71.png", "name": "Biblioteca P\u00fablica Delegacional 7977 \"Antonio G\u00f3mez Rodr\u00edguez\"", "opening_hours": {"open_now": true}, "photos": [{"height": 720, "html_attributions": ["<a href=\"https://maps.google.com/maps/contrib/116376388082147181191\">Gogo Jeronimo</a>"], "photo_reference": "CmRaAAAAnDhq3eTnvx1GD4qwSAOuY1Lq7YLHhlhdUpxJHu0wVh_1l5DSE9ac0Cu52wRhjvds-s27V_iHUNj002zwJKGhIhn02QYD4ltHubPFhZAYhboUxjKMhs0vw8k_-LpRlyuMEhDhfkqtQzij2sh__O_thyOtGhTh3pLsqB_dQ3S2Fd11GvTtWPnCaQ", "width": 1280}], "place_id": "ChIJbcgN4IP90YURiF6gRUKQRNM", "plus_code": {"compound_code": "8WXQ+FF Mexico City", "global_code": "76F28WXQ+FF"}, "rating": 3.9, "reference": "ChIJbcgN4IP90YURiF6gRUKQRNM", "types": ["library", "point_of_interest", "establishment"], "user_ratings_total": 13}, {"business_status": "OPERATIONAL", "formatted_address": "Que 28 S/N, Agr\u00edcola Oriental, 08500 Ciudad de M\u00e9xico, CDMX", "geometry": {"location": {"lat": 19.3846585, "lng": -99.0650849}, "viewport": {"northeast": {"lat": 19.38601942989272, "lng": -99.06373292010728}, "southwest": {"lat": 19.38331977010728, "lng": -99.06643257989273}}}, "icon": "https://maps.gstatic.com/mapfiles/place_api/icons/v1/png_71/school-71.png", "name": "Biblioteca P\u00fablica Juan Rulfo", "opening_hours": {"open_now": false}, "photos": [{"height": 266, "html_attributions": ["<a href=\"https://maps.google.com/maps/contrib/108845100516611611921\">Rodrigo Javier Mu\u00f1oz G</a>"], "photo_reference": "CmRaAAAAiFnM4jtlp6RS_U1CBrmaXOKLNQuvScKfB_fArVeYuypKjnAhA7Ta41PgasgVRwJbZYgKRJO7AjbWbKxDNp-LmLnurIG4YJXneIm4vE5_RbW_by1PZ3wXBu4FSnjQ0R5mEhCRTAiQA4Daf2Xv1FwTREjUGhQC6vinB1B565pxbccU-Vd2sEJ4Sg", "width": 400}], "place_id": "ChIJK2okMqz90YURLb3xLklE6os", "plus_code": {"compound_code": "9WMM+VX Mexico City", "global_code": "76F29WMM+VX"}, "rating": 2, "reference": "ChIJK2okMqz90YURLb3xLklE6os", "types": ["library", "point_of_interest", "establishment"], "user_ratings_total": 2}, {"business_status": "CLOSED_TEMPORARILY", "formatted_address": "Sur 159 S/N, Amp Ramos Mill\u00e1n, Iztacalco, 08030 Iztacalco, CDMX", "geometry": {"location": {"lat": 19.3860261, "lng": -99.0953289}, "viewport": {"northeast": {"lat": 19.38739767989272, "lng": -99.09411472010727}, "southwest": {"lat": 19.38469802010728, "lng": -99.09681437989272}}}, "icon": "https://maps.gstatic.com/mapfiles/place_api/icons/v1/png_71/library-71.png", "name": "Biblioteca Central Digna Ochoa", "permanently_closed": true, "place_id": "ChIJCf0vDcX90YUReSQr8BnMK8k", "plus_code": {"compound_code": "9WP3+CV Amp Ramos Mill\u00e1n, Mexico City", "global_code": "76F29WP3+CV"}, "rating": 4.3, "reference": "ChIJCf0vDcX90YUReSQr8BnMK8k", "types": ["library", "point_of_interest", "establishment"], "user_ratings_total": 3}, {"business_status": "CLOSED_TEMPORARILY", "formatted_address": "Valdivia, Zacahuitzco, Benito Ju\u00e1rez, 03550 Ciudad de M\u00e9xico, CDMX", "geometry": {"location": {"lat": 19.3735963, "lng": -99.1369759}, "viewport": {"northeast": {"lat": 19.37493167989272, "lng": -99.13555252010727}, "southwest": {"lat": 19.37223202010728, "lng": -99.1382521798927}}}, "icon": "https://maps.gstatic.com/mapfiles/place_api/icons/v1/png_71/library-71.png", "name": "Biblioteca P\u00fablica Zacahuitzco", "permanently_closed": true, "place_id": "ChIJB0gC0k_-0YUR4c8dyWxJdIk", "plus_code": {"compound_code": "9VF7+C6 Mexico City", "global_code": "76F29VF7+C6"}, "rating": 5, "reference": "ChIJB0gC0k_-0YUR4c8dyWxJdIk", "types": ["library", "point_of_interest", "establishment"], "user_ratings_total": 1}, {"business_status": "CLOSED_TEMPORARILY", "formatted_address": "Mariano Salas Mz. 58 Lt. 8, Presidentes de M\u00e9xico, 09740 CDMX", "geometry": {"location": {"lat": 19.3295214, "lng": -99.06067230000001}, "viewport": {"northeast": {"lat": 19.33086902989272, "lng": -99.05931927010727}, "southwest": {"lat": 19.32816937010728, "lng": -99.06201892989272}}}, "icon": "https://maps.gstatic.com/mapfiles/place_api/icons/v1/png_71/library-71.png", "name": "TELMEX Payphone", "permanently_closed": true, "place_id": "ChIJoYBhPWMCzoURHYM4UoFVmec", "plus_code": {"compound_code": "8WHQ+RP Mexico City", "global_code": "76F28WHQ+RP"}, "rating": 4.7, "reference": "ChIJoYBhPWMCzoURHYM4UoFVmec", "types": ["library", "point_of_interest", "establishment"], "user_ratings_total": 3}, {"business_status": "CLOSED_TEMPORARILY", "formatted_address": "Av. T\u00e9, Granjas M\u00e9xico, Iztacalco, 08400 Ciudad de M\u00e9xico, CDMX", "geometry": {"location": {"lat": 19.395935, "lng": -99.09111279999999}, "viewport": {"northeast": {"lat": 19.39758572989272, "lng": -99.08971842010727}, "southwest": {"lat": 19.39488607010728, "lng": -99.09241807989272}}}, "icon": "https://maps.gstatic.com/mapfiles/place_api/icons/v1/png_71/library-71.png", "name": "Biblioteca Principal", "permanently_closed": true, "photos": [{"height": 1536, "html_attributions": ["<a href=\"https://maps.google.com/maps/contrib/102833306451713661510\">Jesus Corona</a>"], "photo_reference": "CmRaAAAAAXpPwRD2zR70CBbd1tNxyMte--Z4C3l-RBFT_mEyaanzlvS8QEokUOW7HFJKCGTEAHVI6ke9PpzFGN4G8YMldzoZF09FOCR-PXsXiXdmYe9RLfJEXkEUarJF6qgtH5hlEhCWv51DWQtfNJiFK_F9RbXTGhT8objjke71s4PfvUh6OwEpxKMQXA", "width": 2048}], "place_id": "ChIJPcMCPS780YURsXsIkrlLow8", "plus_code": {"compound_code": "9WW5+9H Mexico City", "global_code": "76F29WW5+9H"}, "rating": 4.4, "reference": "ChIJPcMCPS780YURsXsIkrlLow8", "types": ["library", "point_of_interest", "establishment"], "user_ratings_total": 7}, {"business_status": "OPERATIONAL", "formatted_address": "2a calle de Jose Barragan sin numero super mza 5 U.H. Vicente Guerrero C.P. 09200, U.H. Vicente Guerrero, 09200 Ciudad de M\u00e9xico, CDMX", "geometry": {"location": {"lat": 19.3539105, "lng": -99.05114879999999}, "viewport": {"northeast": {"lat": 19.35526032989272, "lng": -99.04979897010728}, "southwest": {"lat": 19.35256067010727, "lng": -99.05249862989272}}}, "icon": "https://maps.gstatic.com/mapfiles/place_api/icons/v1/png_71/school-71.png", "name": "Biblioteca Publica Alonso De Axayacatl", "opening_hours": {"open_now": true}, "photos": [{"height": 2322, "html_attributions": ["<a href=\"https://maps.google.com/maps/contrib/103234954754457919194\">Uriel Escudero</a>"], "photo_reference": "CmRaAAAAP-QnwU41H45Dgosx0cfrMwnnbt93Ci0XJsrnSIW6z_2Y70GU3fNfVD9fo51_ey0zxvv6lDBP3Kz4fDJIUUC3yfJgP3f3ujZANHrsNwRq_1fkrcSyxX6eg9v3qcg4XC76EhDeDVMfwRG0c_QxmLC-8WOwGhSxQZi_UnVRQrEVqX1C-mVNcXfPFg", "width": 4128}], "place_id": "ChIJSeVeGXr90YURdI2V7SOfMXs", "plus_code": {"compound_code": "9W3X+HG Mexico City", "global_code": "76F29W3X+HG"}, "rating": 2, "reference": "ChIJSeVeGXr90YURdI2V7SOfMXs", "types": ["library", "point_of_interest", "establishment"], "user_ratings_total": 6}, {"business_status": "OPERATIONAL", "formatted_address": "Calle 4 Domingo R\u00edos 65, U.H. Vicente Guerrero, Iztapalapa, 09200 Ciudad de M\u00e9xico, CDMX", "geometry": {"location": {"lat": 19.3618815, "lng": -99.0627101}, "viewport": {"northeast": {"lat": 19.36324842989272, "lng": -99.06121397010727}, "southwest": {"lat": 19.36054877010728, "lng": -99.06391362989272}}}, "icon": "https://maps.gstatic.com/mapfiles/place_api/icons/v1/png_71/school-71.png", "name": "Biblioteca Publica Fernanda Tapia", "place_id": "ChIJtW1aBA390YURHRdrHRussTE", "plus_code": {"compound_code": "9W6P+QW Mexico City", "global_code": "76F29W6P+QW"}, "rating": 0, "reference": "ChIJtW1aBA390YURHRdrHRussTE", "types": ["library", "point_of_interest", "establishment"], "user_ratings_total": 0}, {"business_status": "OPERATIONAL", "formatted_address": "Balsas 919, sineo, Miravalle, Benito Ju\u00e1rez, 03580 Ciudad de M\u00e9xico, CDMX", "geometry": {"location": {"lat": 19.3607288, "lng": -99.14030179999999}, "viewport": {"northeast": {"lat": 19.36205087989272, "lng": -99.13895687010728}, "southwest": {"lat": 19.35935122010727, "lng": -99.14165652989273}}}, "icon": "https://maps.gstatic.com/mapfiles/place_api/icons/v1/png_71/school-71.png", "name": "Enrique Gonz\u00e1lez Mart\u00ednez Public Library", "opening_hours": {"open_now": false}, "place_id": "ChIJsX1g3jX-0YURD2v8qBOjiaA", "plus_code": {"compound_code": "9V65+7V Mexico City", "global_code": "76F29V65+7V"}, "rating": 4.5, "reference": "ChIJsX1g3jX-0YURD2v8qBOjiaA", "types": ["library", "point_of_interest", "establishment"], "user_ratings_total": 2}, {"business_status": "OPERATIONAL", "formatted_address": "Eje 3 Ote, Nueva Rosita, Iztapalapa, 09420 Ciudad de M\u00e9xico, CDMX", "geometry": {"location": {"lat": 19.3772598, "lng": -99.10862569999999}, "viewport": {"northeast": {"lat": 19.37861997989272, "lng": -99.10724432010727}, "southwest": {"lat": 19.37592032010728, "lng": -99.1099439798927}}}, "icon": "https://maps.gstatic.com/mapfiles/place_api/icons/v1/png_71/school-71.png", "name": "Bibliotecs Toluca", "place_id": "ChIJzYA08-f_0YURLBxM4dwyJo8", "plus_code": {"compound_code": "9VGR+WG Mexico City", "global_code": "76F29VGR+WG"}, "rating": 0, "reference": "ChIJzYA08-f_0YURLBxM4dwyJo8", "types": ["library", "point_of_interest", "establishment"], "user_ratings_total": 0}]