[{"business_status": "OPERATIONAL", "formatted_address": "pastores mz2 lote 1, ricardo flores magon, 09820 iztapalapa, CDMX", "geometry": {"location": {"lat": 19.35315, "lng": -99.09972100000002}, "viewport": {"northeast": {"lat": 19.35446497989272, "lng": -99.09838227010728}, "southwest": {"lat": 19.35176532010728, "lng": -99.10108192989273}}}, "icon": "https://maps.gstatic.com/mapfiles/place_api/icons/v1/png_71/generic_business-71.png", "name": "Huaracches Arellano", "place_id": "ChIJpUgeyeL90YURAZpx_yunhxU", "plus_code": {"compound_code": "9W32+74 Mexico City", "global_code": "76F29W32+74"}, "rating": 1, "reference": "ChIJpUgeyeL90YURAZpx_yunhxU", "types": ["meal_delivery", "food", "point_of_interest", "establishment"], "user_ratings_total": 2}, {"business_status": "OPERATIONAL", "formatted_address": "Ermita Iztapalapa 844, Sta B\u00e1rbara, Iztapalapa, 09000 Ciudad de M\u00e9xico, CDMX", "geometry": {"location": {"lat": 19.3559948, "lng": -99.10370479999999}, "viewport": {"northeast": {"lat": 19.35735827989272, "lng": -99.10235362010727}, "southwest": {"lat": 19.35465862010728, "lng": -99.10505327989272}}}, "icon": "https://maps.gstatic.com/mapfiles/place_api/icons/v1/png_71/generic_business-71.png", "name": "Los Bocadillos", "opening_hours": {"open_now": false}, "place_id": "ChIJw1Q_rwn-0YURrdxHHqg4PIw", "plus_code": {"compound_code": "9V4W+9G Mexico City", "global_code": "76F29V4W+9G"}, "rating": 0, "reference": "ChIJw1Q_rwn-0YURrdxHHqg4PIw", "types": ["meal_delivery", "food", "point_of_interest", "establishment"], "user_ratings_total": 0}, {"business_status": "OPERATIONAL", "formatted_address": "Ermita Iztapalapa 941, Santa Isabel Industrial, Iztapalapa, 09820 Ciudad de M\u00e9xico, CDMX", "geometry": {"location": {"lat": 19.3554401, "lng": -99.1018524}, "viewport": {"northeast": {"lat": 19.35693787989272, "lng": -99.10049057010727}, "southwest": {"lat": 19.35423822010728, "lng": -99.10319022989272}}}, "icon": "https://maps.gstatic.com/mapfiles/place_api/icons/v1/png_71/restaurant-71.png", "name": "Domino's", "opening_hours": {"open_now": true}, "photos": [{"height": 3456, "html_attributions": ["<a href=\"https://maps.google.com/maps/contrib/111592833044508065279\">Javier Madrid</a>"], "photo_reference": "CmRaAAAAb4Ji1Wn4zFjwYllw2n4IyRhh_d-7DJ3orId_RTeeLATFCqnkaj4MpIP2AE_hApCxWm4Q5qMHlfbloQrtrdcCjy3rlZ80d_oXW56ET1ksWg23n-oM8cQJVUxACJFWzBF1EhBRBlLRa8J66gihIfXLdIBnGhTLbJv85tnW4-PxJUDQJttxAH5G2w", "width": 4608}], "place_id": "ChIJ_X9Y0gn-0YUR7V2jvzRA00I", "plus_code": {"compound_code": "9V4X+57 Mexico City", "global_code": "76F29V4X+57"}, "price_level": 2, "rating": 3.8, "reference": "ChIJ_X9Y0gn-0YUR7V2jvzRA00I", "types": ["meal_delivery", "meal_takeaway", "restaurant", "food", "point_of_interest", "establishment"], "user_ratings_total": 605}, {"business_status": "OPERATIONAL", "formatted_address": "Calle San Nicol\u00e1s 24, Sta B\u00e1rbara, Iztapalapa, 09000 Ciudad de M\u00e9xico, CDMX", "geometry": {"location": {"lat": 19.3564363, "lng": -99.10362429999999}, "viewport": {"northeast": {"lat": 19.35791872989272, "lng": -99.10257092010727}, "southwest": {"lat": 19.35521907010728, "lng": -99.10527057989272}}}, "icon": "https://maps.gstatic.com/mapfiles/place_api/icons/v1/png_71/generic_business-71.png", "name": "El saz\u00f3n de Lilana", "opening_hours": {"open_now": false}, "photos": [{"height": 960, "html_attributions": ["<a href=\"https://maps.google.com/maps/contrib/110341370855794022268\">A Google User</a>"], "photo_reference": "CmRaAAAAGidroWagwgxjwO3XA0ms3c81rsAMe4FxM7T0nklqXG1zBB6LnN7NOD0pt8d-FofdH1myJCcCRlit8XJ-wBhCFf5E5WUdfci7bh8AGMpXNaP38rVVtLteOYwD3h58RwhlEhC4nhydu3iBIHvdD3ruaLotGhQz6gGl7XZ9aYa2vU8j8aaqDfEhVA", "width": 1280}], "place_id": "ChIJIQZvWYj_0YURAjzgUfzNCjw", "plus_code": {"compound_code": "9V4W+HH Mexico City", "global_code": "76F29V4W+HH"}, "rating": 5, "reference": "ChIJIQZvWYj_0YURAjzgUfzNCjw", "types": ["meal_delivery", "food", "point_of_interest", "establishment"], "user_ratings_total": 1}, {"business_status": "OPERATIONAL", "formatted_address": "Calle 3er Anillo de Circunvalaci\u00f3n 252, Sta B\u00e1rbara, Iztapalapa, 09000 Ciudad de M\u00e9xico, CDMX", "geometry": {"location": {"lat": 19.3604135, "lng": -99.1053922}, "viewport": {"northeast": {"lat": 19.36176307989272, "lng": -99.10404147010729}, "southwest": {"lat": 19.35906342010728, "lng": -99.10674112989273}}}, "icon": "https://maps.gstatic.com/mapfiles/place_api/icons/v1/png_71/generic_business-71.png", "name": "El Atask\u00f3n", "opening_hours": {"open_now": true}, "photos": [{"height": 1040, "html_attributions": ["<a href=\"https://maps.google.com/maps/contrib/103233570854104477073\">A Google User</a>"], "photo_reference": "CmRaAAAAU_SuAmII9SAAGVR8Xx9-BzgrD1n46-_tlFkTrgDnlaNsuy3QKYHzWR2i6e30fU5Cw3DBNUVPZP9rqpSmENuWcDflbMSMrfGyr5wOt8SyXY-4imWP_J2u4uMwCJX2iujFEhCJ5rllTUBrogNUttlCuttEGhRbrOnyqKC3vt5c20PEdUVzkSrMrg", "width": 780}], "place_id": "ChIJj_gjfV__0YUR3sWvIDctRuA", "plus_code": {"compound_code": "9V6V+5R Mexico City", "global_code": "76F29V6V+5R"}, "rating": 0, "reference": "ChIJj_gjfV__0YUR3sWvIDctRuA", "types": ["meal_delivery", "food", "point_of_interest", "establishment"], "user_ratings_total": 0}, {"business_status": "OPERATIONAL", "formatted_address": "Catedral de Quer\u00e9taro 50, El Santuario, Iztapalapa, 09820 Ciudad de M\u00e9xico, CDMX", "geometry": {"location": {"lat": 19.3546883, "lng": -99.09281279999999}, "viewport": {"northeast": {"lat": 19.35542585, "lng": -99.08868585000002}, "southwest": {"lat": 19.35247565, "lng": -99.09418844999998}}}, "icon": "https://maps.gstatic.com/mapfiles/place_api/icons/v1/png_71/generic_business-71.png", "name": "Comida para eventos y fiestas", "opening_hours": {"open_now": true}, "photos": [{"height": 2448, "html_attributions": ["<a href=\"https://maps.google.com/maps/contrib/114682679976555546062\">A Google User</a>"], "photo_reference": "CmRaAAAAXCM-g-RIAfeOxZHrNNGTX3XboD118skHB_EpEQZGGHb90jdUxSsfhLZz9cR9XBWzT49-q-H-PK1QWkTFasqT6YwEq2hlwLGwlnWFR1ngbzjtGOEgcgCklU8anVI9Cxf7EhAWSkSGhnNN8Usy2rM5TVT6GhT-9OeYYr6vX88mqDRgf7Nrolu94Q", "width": 3264}], "place_id": "ChIJ0To1Xcz90YUR89mdfCry_Qs", "plus_code": {"compound_code": "9W34+VV Mexico City", "global_code": "76F29W34+VV"}, "rating": 5, "reference": "ChIJ0To1Xcz90YUR89mdfCry_Qs", "types": ["meal_delivery", "restaurant", "food", "point_of_interest", "establishment"], "user_ratings_total": 1}, {"business_status": "OPERATIONAL", "formatted_address": "San Lucas, Iztapalapa, 09640 Mexico City", "geometry": {"location": {"lat": 19.3595258, "lng": -99.09192279999999}, "viewport": {"northeast": {"lat": 19.36087562989272, "lng": -99.09057297010727}, "southwest": {"lat": 19.35817597010728, "lng": -99.09327262989271}}}, "icon": "https://maps.gstatic.com/mapfiles/place_api/icons/v1/png_71/generic_business-71.png", "name": "Banquetes Julianni's", "opening_hours": {"open_now": true}, "photos": [{"height": 1280, "html_attributions": ["<a href=\"https://maps.google.com/maps/contrib/115096853565339728141\">A Google User</a>"], "photo_reference": "CmRaAAAA1wMBXD3dx6XKz8kx5EAUo-4B0ghcmDQ7eMJf3qV1kV7D8af8_X69C0UYbNoOoPqSDZwjrQQ5zrbWCUn98njR4C1vqov4agsxzgtDLMwXA-Fz59qEr7FTnxS7jt2Au7HnEhCnXDRNhFS1jFZ5SMXGFtrXGhQmnb8BYKa41kKc3JV_nY2KhAANLw", "width": 720}], "place_id": "ChIJcT3tM8odzoURwEnrP63YmLg", "plus_code": {"compound_code": "9W55+R6 Mexico City", "global_code": "76F29W55+R6"}, "rating": 5, "reference": "ChIJcT3tM8odzoURwEnrP63YmLg", "types": ["meal_delivery", "food", "point_of_interest", "establishment"], "user_ratings_total": 3}, {"business_status": "OPERATIONAL", "formatted_address": "252, Sta B\u00e1rbara, 09000 Ciudad de M\u00e9xico", "geometry": {"location": {"lat": 19.3604098, "lng": -99.1053908}, "viewport": {"northeast": {"lat": 19.36175962989272, "lng": -99.10404097010728}, "southwest": {"lat": 19.35905997010728, "lng": -99.10674062989273}}}, "icon": "https://maps.gstatic.com/mapfiles/place_api/icons/v1/png_71/generic_business-71.png", "name": "Delisnaks", "place_id": "ChIJ1zMBdYD_0YURPPh947Y5tkQ", "plus_code": {"compound_code": "9V6V+5R Mexico City", "global_code": "76F29V6V+5R"}, "rating": 0, "reference": "ChIJ1zMBdYD_0YURPPh947Y5tkQ", "types": ["meal_delivery", "food", "point_of_interest", "establishment"], "user_ratings_total": 0}, {"business_status": "OPERATIONAL", "formatted_address": "Tlacatecutli mz 52, Zona Urbana Ejidal los Reyes Culhuacan, Iztapalapa, 09840 Ciudad de M\u00e9xico, CDMX", "geometry": {"location": {"lat": 19.3451166, "lng": -99.10077729999999}, "viewport": {"northeast": {"lat": 19.34648362989272, "lng": -99.09949577010728}, "southwest": {"lat": 19.34378397010728, "lng": -99.10219542989272}}}, "icon": "https://maps.gstatic.com/mapfiles/place_api/icons/v1/png_71/generic_business-71.png", "name": "Naci\u00f3n Gourmet Mx", "opening_hours": {"open_now": false}, "photos": [{"height": 741, "html_attributions": ["<a href=\"https://maps.google.com/maps/contrib/105274950182618868909\">A Google User</a>"], "photo_reference": "CmRZAAAA5iRWzaf_AhbjIIQgUJw8WA2TAtKhz5fNNroj2cYk8WPvr5ZvWCbe6FXoA9L8p35HLySPO4rggaBlIkB7bvr_vFvW-GdYsrtqyg9OmcLGvhGuEv1jy8K7L4LfjX_buGVEEhCQYLcrG_Gly_tfGGNfgm5cGhS0LLSVBWoAFQT35bQb2LGXhUtvkw", "width": 564}], "place_id": "ChIJScMsRCf90YURTTCGWmZChfA", "plus_code": {"compound_code": "8VWX+2M Mexico City", "global_code": "76F28VWX+2M"}, "rating": 5, "reference": "ChIJScMsRCf90YURTTCGWmZChfA", "types": ["meal_delivery", "grocery_or_supermarket", "food", "point_of_interest", "store", "establishment"], "user_ratings_total": 1}, {"business_status": "OPERATIONAL", "formatted_address": "Canal Nacional 22, Iztapalapa, 09819 Iztapalapa, CDMX", "geometry": {"location": {"lat": 19.3405816, "lng": -99.11412109999999}, "viewport": {"northeast": {"lat": 19.34191882989272, "lng": -99.11283162010729}, "southwest": {"lat": 19.33921917010728, "lng": -99.11553127989272}}}, "icon": "https://maps.gstatic.com/mapfiles/place_api/icons/v1/png_71/restaurant-71.png", "name": "cocina \"El Cactus\"", "opening_hours": {"open_now": false}, "photos": [{"height": 1840, "html_attributions": ["<a href=\"https://maps.google.com/maps/contrib/115354170692359913486\">A Google User</a>"], "photo_reference": "CmRaAAAA9Z1eagk9YfOzU2DJ9yXGP_tPowMsc2YPtiwKnZcYguKNdEH1YFiD2Ip1oIOSyIZoj6g5YlSiFIWULBdjMoMUB5BkvQYP7sONBkJOlBRUzaHCLsb7dgjEDdKqxSIMxEu1EhCWbs-l8gt48xBiXl214NQaGhROSBkT-Ops1kxhGUgbH6YstrcayQ", "width": 3264}], "place_id": "ChIJWSgWZB3-0YURvOhSO7p2Ra4", "plus_code": {"compound_code": "8VRP+69 Iztapalapa de Cuitl\u00e1huac, Mexico City", "global_code": "76F28VRP+69"}, "rating": 4, "reference": "ChIJWSgWZB3-0YURvOhSO7p2Ra4", "types": ["meal_delivery", "restaurant", "food", "point_of_interest", "establishment"], "user_ratings_total": 36}, {"business_status": "OPERATIONAL", "formatted_address": "De La Loma mz10 lt183, Parque Nacional Cerro de la Estrella, Xochimilco, 09800 Ciudad de M\u00e9xico, CDMX", "geometry": {"location": {"lat": 19.3383347, "lng": -99.09287340000002}, "viewport": {"northeast": {"lat": 19.33966587989272, "lng": -99.09153182010729}, "southwest": {"lat": 19.33696622010727, "lng": -99.09423147989273}}}, "icon": "https://maps.gstatic.com/mapfiles/place_api/icons/v1/png_71/generic_business-71.png", "name": "ia-hamburguesas", "opening_hours": {"open_now": true}, "photos": [{"height": 1040, "html_attributions": ["<a href=\"https://maps.google.com/maps/contrib/102553641158426686351\">A Google User</a>"], "photo_reference": "CmRaAAAAxFlzw123M0r9FIUFFL0zjyZcesadgE9-UIM9I9KCvL8w-sZMV_08zjxA_841p5dA2g0BuuflS-o7xDq4Sn8iA5f1gDiKgiBgfW0UJDMLKHkrvzFzP-P_3HwsnQZWcWqzEhAOLNewNbLbyR6gIPpSihgdGhTwLvz_AU8XS3Mn7v-UjJEWWNLJLA", "width": 780}], "place_id": "ChIJQzBeQhYDzoURvt55pLcQwlw", "plus_code": {"compound_code": "8WQ4+8V Mexico City", "global_code": "76F28WQ4+8V"}, "rating": 4.5, "reference": "ChIJQzBeQhYDzoURvt55pLcQwlw", "types": ["meal_delivery", "food", "point_of_interest", "establishment"], "user_ratings_total": 2}, {"business_status": "OPERATIONAL", "formatted_address": "Canal Nacional, Tula, Iztapalapa, 09800 Ciudad de M\u00e9xico, CDMX", "geometry": {"location": {"lat": 19.3365031, "lng": -99.1132645}, "viewport": {"northeast": {"lat": 19.33785542989272, "lng": -99.11190952010729}, "southwest": {"lat": 19.33515577010728, "lng": -99.11460917989272}}}, "icon": "https://maps.gstatic.com/mapfiles/place_api/icons/v1/png_71/generic_business-71.png", "name": "Tacos el Extremo", "opening_hours": {"open_now": false}, "photos": [{"height": 2160, "html_attributions": ["<a href=\"https://maps.google.com/maps/contrib/117242620761591322825\">jose luis torres duran</a>"], "photo_reference": "CmRaAAAAyKM2RnCct0fnX6uV8IjA5RU1YzXhuNkPBXJV8LeTvl0txtnUf1-98paxhcooFWV8nShRVkK0xHfsVQkGp-P_YSDOyiNRyv2uF721ibhu2Be99c6WdRm6ECsZeIcJT-n2EhDWm07WSfiiCCJv6FrBWgsiGhRiZ1Qrlh77IO3lpIUhbjSO94nuwg", "width": 3840}], "place_id": "ChIJZXxA7WABzoURLmbZW-sJVRI", "plus_code": {"compound_code": "8VPP+JM Mexico City", "global_code": "76F28VPP+JM"}, "rating": 0, "reference": "ChIJZXxA7WABzoURLmbZW-sJVRI", "types": ["meal_delivery", "food", "point_of_interest", "establishment"], "user_ratings_total": 0}, {"business_status": "OPERATIONAL", "formatted_address": "Ermita Iztapalapa 595, Granjas Esmeralda, Iztapalapa, 09810 Ciudad de M\u00e9xico, CDMX", "geometry": {"location": {"lat": 19.3566703, "lng": -99.1159581}, "viewport": {"northeast": {"lat": 19.35816867989272, "lng": -99.11464077010729}, "southwest": {"lat": 19.35546902010728, "lng": -99.11734042989272}}}, "icon": "https://maps.gstatic.com/mapfiles/place_api/icons/v1/png_71/generic_business-71.png", "name": "Domino's Mexicaltzingo", "opening_hours": {"open_now": true}, "photos": [{"height": 640, "html_attributions": ["<a href=\"https://maps.google.com/maps/contrib/111724852700918508610\">Diego Ayala</a>"], "photo_reference": "CmRaAAAAMP9nHLiNEDvxBBEofu_lTHuj57aeWIDxgyVzJgS7BsNGB9GgSMt1MIFa64B0LKZxhKJn4xEa9SwAqrIF7KouFJFCW0a8XbU3VeFdDAmjalIjPhcFFJCHGmI357KN8-daEhAQ1cKi032bce6k-rI92x2IGhQziNp5flkp2i7aBOP7FybtBWV-9g", "width": 640}], "place_id": "ChIJm8Fiu9P_0YUR9kFyBvAGrZU", "plus_code": {"compound_code": "9V4M+MJ Mexico City", "global_code": "76F29V4M+MJ"}, "rating": 4.2, "reference": "ChIJm8Fiu9P_0YUR9kFyBvAGrZU", "types": ["meal_delivery", "restaurant", "food", "point_of_interest", "establishment"], "user_ratings_total": 33}, {"business_status": "OPERATIONAL", "formatted_address": "Sur 113-A #236, Mexicaltzingo, Iztapalapa, 09099 Ciudad de M\u00e9xico, CDMX", "geometry": {"location": {"lat": 19.357604, "lng": -99.1160731}, "viewport": {"northeast": {"lat": 19.35894857989272, "lng": -99.11469722010727}, "southwest": {"lat": 19.35624892010728, "lng": -99.11739687989272}}}, "icon": "https://maps.gstatic.com/mapfiles/place_api/icons/v1/png_71/restaurant-71.png", "name": "Sr. Guisado", "opening_hours": {"open_now": true}, "photos": [{"height": 845, "html_attributions": ["<a href=\"https://maps.google.com/maps/contrib/102417374732020744059\">A Google User</a>"], "photo_reference": "CmRaAAAAbj-LOkyTejI2ZCbJzoIYgPfPGCE4NbQCAeZvAegrNNyQG8lKa1ACBBvzxlbfpn8NgowMk_wg6oQV2OQ3v-gH3yYaUDk-g16R8qxZ3tGkzbv_3qGG3tHEn9JebDtpFOZVEhCfbUS9UFgQ3NS5Dr5k1RrDGhRnD_SdeO2PPDUw-SPmCqVWuVZW0A", "width": 877}], "place_id": "ChIJ7XK6MFf_0YUR2E8JWGelUkw", "plus_code": {"compound_code": "9V5M+2H Mexico City", "global_code": "76F29V5M+2H"}, "rating": 5, "reference": "ChIJ7XK6MFf_0YUR2E8JWGelUkw", "types": ["restaurant", "meal_delivery", "food", "point_of_interest", "establishment"], "user_ratings_total": 5}, {"business_status": "OPERATIONAL", "formatted_address": "San Antonio, San Ignacio, Iztapalapa, 09000 Ciudad de M\u00e9xico, CDMX", "geometry": {"location": {"lat": 19.3631397, "lng": -99.0974267}, "viewport": {"northeast": {"lat": 19.36448922989272, "lng": -99.09609047010728}, "southwest": {"lat": 19.36178957010728, "lng": -99.09879012989272}}}, "icon": "https://maps.gstatic.com/mapfiles/place_api/icons/v1/png_71/generic_business-71.png", "name": "Yun comida japonesa", "opening_hours": {"open_now": true}, "photos": [{"height": 810, "html_attributions": ["<a href=\"https://maps.google.com/maps/contrib/103410421039469619512\">A Google User</a>"], "photo_reference": "CmRaAAAABLOSZiyeW1bxJy8hBOsw8nK0HnlH0KcNqnVKCeKYC9-4aIKSgtWtYSd1JbKYHSI2l28bBF0NFSv8NJlQeEF8ox7CbCsbeEX6egksJw4KkmFTKTOSLPmO6cH-R8wK3a0zEhBGHdKuDEFGN0VPTX4nTfznGhTf1a0cKSJRb0odDnjt0_9Jn9FqpA", "width": 1440}], "place_id": "ChIJ661m13390YURWKpdxuRF0GY", "plus_code": {"compound_code": "9W73+72 Mexico City", "global_code": "76F29W73+72"}, "rating": 5, "reference": "ChIJ661m13390YURWKpdxuRF0GY", "types": ["meal_delivery", "food", "point_of_interest", "establishment"], "user_ratings_total": 1}, {"business_status": "OPERATIONAL", "formatted_address": "Osa Menor 132, Prado Churubusco, Coyoac\u00e1n, 04230 Ciudad de M\u00e9xico, CDMX", "geometry": {"location": {"lat": 19.3535123, "lng": -99.1255604}, "viewport": {"northeast": {"lat": 19.35482537989272, "lng": -99.12421137010729}, "southwest": {"lat": 19.35212572010728, "lng": -99.12691102989272}}}, "icon": "https://maps.gstatic.com/mapfiles/place_api/icons/v1/png_71/generic_business-71.png", "name": "Comida Para Llevar 'Do\u00f1a Fina'", "place_id": "ChIJ3xaqGj3-0YURIF_YhDnun1w", "plus_code": {"compound_code": "9V3F+CQ Mexico City", "global_code": "76F29V3F+CQ"}, "rating": 3.5, "reference": "ChIJ3xaqGj3-0YURIF_YhDnun1w", "types": ["meal_delivery", "food", "point_of_interest", "establishment"], "user_ratings_total": 6}]