[{"business_status": "OPERATIONAL", "formatted_address": "Ermita Iztapalapa 163, Amp Ricardo Flores Mag\u00f3n, Iztapalapa, 09828 Ciudad de M\u00e9xico, CDMX", "geometry": {"location": {"lat": 19.3553472, "lng": -99.09883819999999}, "viewport": {"northeast": {"lat": 19.35676867989272, "lng": -99.09748562010728}, "southwest": {"lat": 19.35406902010728, "lng": -99.10018527989271}}}, "icon": "https://maps.gstatic.com/mapfiles/place_api/icons/v1/png_71/shopping-71.png", "name": "Zapater\u00eda Sandra", "opening_hours": {"open_now": true}, "photos": [{"height": 1920, "html_attributions": ["<a href=\"https://maps.google.com/maps/contrib/113802210423557959644\">Isco Serrano</a>"], "photo_reference": "CmRaAAAAAfWtxXqs3kgFvXrXFI9eNX9mHdZTtipWsvfd__m0w6N_TnDZ0eWaL65P_DKyGumexzjzRKc-D5umsisd5aOXOQgvp1tN1Ajpn8tvyQuq_TR4czth_DU1ZKYAoaAfDZ2cEhCGKmjbnNKp1N5fcWlJR_FaGhT-uJT1KhB-vLzfBOtGeLo68P_3Kw", "width": 1080}], "place_id": "ChIJIR2L_uL90YURYbWStJnSDvk", "plus_code": {"compound_code": "9W42+4F Mexico City", "global_code": "76F29W42+4F"}, "rating": 3.8, "reference": "ChIJIR2L_uL90YURYbWStJnSDvk", "types": ["shoe_store", "point_of_interest", "store", "establishment"], "user_ratings_total": 61}, {"business_status": "OPERATIONAL", "formatted_address": "Av. Tlahuac 20, Santa Isabel Industrial, Iztapalapa, 09820 Ciudad de M\u00e9xico, CDMX", "geometry": {"location": {"lat": 19.3548668, "lng": -99.1055635}, "viewport": {"northeast": {"lat": 19.35623532989272, "lng": -99.10432532010728}, "southwest": {"lat": 19.35353567010728, "lng": -99.10702497989273}}}, "icon": "https://maps.gstatic.com/mapfiles/place_api/icons/v1/png_71/shopping-71.png", "name": "ONENA", "opening_hours": {"open_now": false}, "place_id": "ChIJQxKc3gj-0YUR9GDZjMBF7j0", "plus_code": {"compound_code": "9V3V+WQ Mexico City", "global_code": "76F29V3V+WQ"}, "rating": 4.5, "reference": "ChIJQxKc3gj-0YUR9GDZjMBF7j0", "types": ["shoe_store", "point_of_interest", "store", "establishment"], "user_ratings_total": 39}, {"business_status": "OPERATIONAL", "formatted_address": "Avenida Tlahuac Ext. 74 entre calle ganaderos y, Pastores, Santa Isabel Industrial, Iztapalapa, 09820 CDMX", "geometry": {"location": {"lat": 19.3533801, "lng": -99.1059007}, "viewport": {"northeast": {"lat": 19.35477942989272, "lng": -99.10454107010727}, "southwest": {"lat": 19.35207977010728, "lng": -99.10724072989272}}}, "icon": "https://maps.gstatic.com/mapfiles/place_api/icons/v1/png_71/shopping-71.png", "name": "Andrea", "opening_hours": {"open_now": true}, "photos": [{"height": 4160, "html_attributions": ["<a href=\"https://maps.google.com/maps/contrib/103060186368476050674\">Susy Bello</a>"], "photo_reference": "CmRaAAAA4HR90O11XcWKK0-Jf6Vh2RUEM9LOmyzdRLHk8m_Akk6JCdfLQgZIyKc4mPfRP8D15uw1Q4OmgrYsIThoFOFa9E4MJZfXGEaGCpl-Qt1ekSXhqMVsphxrTlEjLRhOqKVBEhATCwRAK8SUrFjr15DoVDCCGhTvli_UtosFht2Xa4qKNGFZ4ueU0Q", "width": 3120}], "place_id": "ChIJOcCPuAj-0YURKDW7sOdxOS8", "plus_code": {"compound_code": "9V3V+9J Santa Isabel Industrial, Mexico City", "global_code": "76F29V3V+9J"}, "rating": 3.8, "reference": "ChIJOcCPuAj-0YURKDW7sOdxOS8", "types": ["shoe_store", "point_of_interest", "store", "establishment"], "user_ratings_total": 1578}, {"business_status": "OPERATIONAL", "formatted_address": "Ermita Iztapalapa 1, Los Cipreses, Iztapalapa, 09810 Ciudad de M\u00e9xico, CDMX", "geometry": {"location": {"lat": 19.3559521, "lng": -99.10595339999999}, "viewport": {"northeast": {"lat": 19.35735727989272, "lng": -99.10459762010728}, "southwest": {"lat": 19.35465762010728, "lng": -99.10729727989272}}}, "icon": "https://maps.gstatic.com/mapfiles/place_api/icons/v1/png_71/shopping-71.png", "name": "Coppel Canada Zapater\u00eda Tulyehualco 558", "photos": [{"height": 4160, "html_attributions": ["<a href=\"https://maps.google.com/maps/contrib/110768099974913430019\">Eduardo LC</a>"], "photo_reference": "CmRaAAAA2UUiQ-bRixiCmn3nsm721119YHNwnqdXv5RWXeuF_nO4H45_oKMWdPB-d880iM4EJ1cBSiIZARK6SkZecPnn_hCD2MXeisnCn27IYluii1TUsU80IIVqiKdeqRE4OFz-EhBaIKeasU5YQbBZ4x_K7EVtGhTaY3wEf_eTKNqyLYGxzRK-MBWyTw", "width": 3120}], "place_id": "ChIJG49VIwn-0YURjdqFmnlcMWs", "plus_code": {"compound_code": "9V4V+9J Los Cipreses, Mexico City", "global_code": "76F29V4V+9J"}, "rating": 4.3, "reference": "ChIJG49VIwn-0YURjdqFmnlcMWs", "types": ["shoe_store", "point_of_interest", "store", "establishment"], "user_ratings_total": 31}, {"business_status": "OPERATIONAL", "formatted_address": "Av. Tlahuac 46A, Santa Isabel Industrial, Iztapalapa, 09820 Ciudad de M\u00e9xico, CDMX", "geometry": {"location": {"lat": 19.3548865, "lng": -99.1057033}, "viewport": {"northeast": {"lat": 19.35624337989272, "lng": -99.10439557010729}, "southwest": {"lat": 19.35354372010728, "lng": -99.10709522989272}}}, "icon": "https://maps.gstatic.com/mapfiles/place_api/icons/v1/png_71/shopping-71.png", "name": "Zapater\u00eda Onena", "opening_hours": {"open_now": true}, "place_id": "ChIJhQusa2f_0YURSZx0O1uOuDQ", "plus_code": {"compound_code": "9V3V+XP Mexico City", "global_code": "76F29V3V+XP"}, "rating": 0, "reference": "ChIJhQusa2f_0YURSZx0O1uOuDQ", "types": ["shoe_store", "point_of_interest", "store", "establishment"], "user_ratings_total": 0}, {"business_status": "OPERATIONAL", "formatted_address": "Avenida Tl\u00e1huac 4409 Local SA05, Lomas Estrella 2da Secc, 09890 Ciudad de M\u00e9xico", "geometry": {"location": {"lat": 19.3213523, "lng": -99.094258}, "viewport": {"northeast": {"lat": 19.32290672989272, "lng": -99.09285917010729}, "southwest": {"lat": 19.32020707010728, "lng": -99.09555882989272}}}, "icon": "https://maps.gstatic.com/mapfiles/place_api/icons/v1/png_71/shopping-71.png", "name": "Zapater\u00edas Tropic", "opening_hours": {"open_now": true}, "photos": [{"height": 2448, "html_attributions": ["<a href=\"https://maps.google.com/maps/contrib/112680707476463649916\">Omar Rodr\u00edguez</a>"], "photo_reference": "CmRaAAAAL0YhmDI-0JBPXFPMHJrmrk35jazY3uBHfW7tDFZMyqxwFq2ro5jFzZq8VpYdn9wemMWVVGUyMdHSaOPW2iOm9Dp1FiJsHCQfz1xJkWs7Po_OLfLrOLmAtMYXdED6AlF5EhB68P3fFXRX1MP4CuYSbrWTGhT370lYjN_GWH2-94-e7qzmSC5icw", "width": 3264}], "place_id": "ChIJO8MPFRkCzoURRryjznL3RIY", "plus_code": {"compound_code": "8WC4+G7 Mexico City", "global_code": "76F28WC4+G7"}, "rating": 4.2, "reference": "ChIJO8MPFRkCzoURRryjznL3RIY", "types": ["shoe_store", "point_of_interest", "store", "establishment"], "user_ratings_total": 89}, {"business_status": "OPERATIONAL", "formatted_address": "Ermita Iztapalapa 1186, Agr\u00edcola Oriental, Iztapalapa, 09000 Iztacalco, CDMX", "geometry": {"location": {"lat": 19.3553961, "lng": -99.0968339}, "viewport": {"northeast": {"lat": 19.35684807989272, "lng": -99.09549867010728}, "southwest": {"lat": 19.35414842010728, "lng": -99.09819832989272}}}, "icon": "https://maps.gstatic.com/mapfiles/place_api/icons/v1/png_71/shopping-71.png", "name": "Zapateria Rosi", "place_id": "ChIJf4YbzeX90YUR0UfFdB33JtU", "plus_code": {"compound_code": "9W43+57 Agr\u00edcola Oriental, Mexico City", "global_code": "76F29W43+57"}, "rating": 0, "reference": "ChIJf4YbzeX90YUR0UfFdB33JtU", "types": ["shoe_store", "point_of_interest", "store", "establishment"], "user_ratings_total": 0}, {"business_status": "OPERATIONAL", "formatted_address": "Av. Tlahuac 105, Santa Isabel Industrial, Iztapalapa, 09820 Ciudad de M\u00e9xico, CDMX", "geometry": {"location": {"lat": 19.3525875, "lng": -99.10649269999999}, "viewport": {"northeast": {"lat": 19.35392492989272, "lng": -99.10506807010727}, "southwest": {"lat": 19.35122527010728, "lng": -99.10776772989271}}}, "icon": "https://maps.gstatic.com/mapfiles/place_api/icons/v1/png_71/shopping-71.png", "name": "Bubble gummers", "opening_hours": {"open_now": false}, "photos": [{"height": 4160, "html_attributions": ["<a href=\"https://maps.google.com/maps/contrib/110824865107951563946\">Dra. Ilse Viridiana H.M</a>"], "photo_reference": "CmRaAAAACccdC7uOfUo-JxPAisjCCFRr6sJRet5EXyp5FC5T8_VkttaebAGjAhh27OY9uXF6wqGvh5khJkZLkkD7SME7k1tX1mywzUSfZeLuvyvHfom4p5B4GYvijA31hMkdB5wMEhCoZNyDq16dl5PXx1Yd-czmGhRT7cnKqv_SCNvfPS6GTRxetuGGoA", "width": 3120}], "place_id": "ChIJJae1Agb-0YUR-9J8iBsHGfI", "plus_code": {"compound_code": "9V3V+2C Mexico City", "global_code": "76F29V3V+2C"}, "rating": 4, "reference": "ChIJJae1Agb-0YUR-9J8iBsHGfI", "types": ["shoe_store", "point_of_interest", "store", "establishment"], "user_ratings_total": 624}, {"business_status": "OPERATIONAL", "formatted_address": "Av. Tlahuac 105, Santa Isabel Industrial, Iztapalapa, 09820 Ciudad de M\u00e9xico, CDMX", "geometry": {"location": {"lat": 19.3525875, "lng": -99.10649269999999}, "viewport": {"northeast": {"lat": 19.35392492989272, "lng": -99.10506807010727}, "southwest": {"lat": 19.35122527010728, "lng": -99.10776772989271}}}, "icon": "https://maps.gstatic.com/mapfiles/place_api/icons/v1/png_71/shopping-71.png", "name": "Calzado Sandak", "opening_hours": {"open_now": true}, "photos": [{"height": 4160, "html_attributions": ["<a href=\"https://maps.google.com/maps/contrib/104093458290456877521\">Mario Ramos Lopez</a>"], "photo_reference": "CmRaAAAA--1DL9CZaV6Zdmj-sxlVPCkx6xZKIX4TMRxtrKUBpiLZM5meiW-rRrLci5ydy8ARJbKcDOTVKdmm1TVriyxgLaWqBA1Bwie1FTnzWHAFP_tsNnzpVc9gz5PxgqiJyeiKEhBxTGhKWXCdGImupcjo0UAkGhTe3ilijGh-YnYczbK-jfywVcOK-Q", "width": 2080}], "place_id": "ChIJVfrpaHT-0YURtSYdO_JnmbY", "plus_code": {"compound_code": "9V3V+2C Mexico City", "global_code": "76F29V3V+2C"}, "rating": 4.2, "reference": "ChIJVfrpaHT-0YURtSYdO_JnmbY", "types": ["shoe_store", "point_of_interest", "store", "establishment"], "user_ratings_total": 141}, {"business_status": "OPERATIONAL", "formatted_address": "Ermita Iztapalapa N.756-3, Granjas San Antonio, Iztapalapa, 09070 Ciudad de M\u00e9xico, CDMX", "geometry": {"location": {"lat": 19.3564875, "lng": -99.10834779999999}, "viewport": {"northeast": {"lat": 19.35779202989272, "lng": -99.10700282010728}, "southwest": {"lat": 19.35509237010728, "lng": -99.10970247989272}}}, "icon": "https://maps.gstatic.com/mapfiles/place_api/icons/v1/png_71/shopping-71.png", "name": "Onena", "opening_hours": {"open_now": true}, "photos": [{"height": 3120, "html_attributions": ["<a href=\"https://maps.google.com/maps/contrib/112792509426525858780\">ARUMA Alcazar</a>"], "photo_reference": "CmRaAAAAJ6dVG_gDDYXPav6Y7-QeFrbXJh5Qcssv0XY0buetF0w7MHCr3egU0NJ1sOVQ8KnUzDeloERg_SoX-b1pB2-VT9D5sldAOVDYxi1RCuW1nnqrazWU6Lshb9MMp-fYK4SnEhDOtPVGlsCOZJP-k4EeoQQ1GhTD4PLDJ7x2iDxdHFBU3rryj75PnQ", "width": 4160}], "place_id": "ChIJAzoywA7-0YURQXB3SFi0FuM", "plus_code": {"compound_code": "9V4R+HM Granjas San Antonio, Mexico City", "global_code": "76F29V4R+HM"}, "rating": 4.2, "reference": "ChIJAzoywA7-0YURQXB3SFi0FuM", "types": ["shoe_store", "point_of_interest", "store", "establishment"], "user_ratings_total": 92}, {"business_status": "OPERATIONAL", "formatted_address": "Ermita Iztapalapa 1186, San Lucas, Iztapalapa, 09000 Ciudad de M\u00e9xico, CDMX", "geometry": {"location": {"lat": 19.3578703, "lng": -99.0941498}, "viewport": {"northeast": {"lat": 19.35910887989272, "lng": -99.09276457010728}, "southwest": {"lat": 19.35640922010728, "lng": -99.09546422989273}}}, "icon": "https://maps.gstatic.com/mapfiles/place_api/icons/v1/png_71/shopping-71.png", "name": "Zapater\u00edas Prado", "opening_hours": {"open_now": true}, "photos": [{"height": 2448, "html_attributions": ["<a href=\"https://maps.google.com/maps/contrib/108505631873547248084\">Zapater\u00edas Prado</a>"], "photo_reference": "CmRaAAAAyQkYD6A8Og0bdDMB066sRc6jgZFNSkhyrU2EEvDO_kixQv5nm38aAxl_6Y4l4YyQz9jtKWjhJdpgSaSSW-MczUhIeJtdSflNV1WHk_on_TFUEenYmfzSshfwL8tlPMNVEhB0pDEReid1KmT1bZdaREDKGhSkVsZ2KM158L8az2p-7ulS0COvjg", "width": 3264}], "place_id": "ChIJDbUcPOT90YUR8uRyOFLB4Bo", "plus_code": {"compound_code": "9W54+48 Mexico City", "global_code": "76F29W54+48"}, "rating": 4.4, "reference": "ChIJDbUcPOT90YUR8uRyOFLB4Bo", "types": ["shoe_store", "point_of_interest", "store", "establishment"], "user_ratings_total": 9}, {"business_status": "OPERATIONAL", "formatted_address": "Calz Taxque\u00f1a # 1938, San Francisco Culhuacan, San Francisco Culhuacan de San Juan, Coyoac\u00e1n, 04260 Ciudad de M\u00e9xico, CDMX", "geometry": {"location": {"lat": 19.337679, "lng": -99.12247599999999}, "viewport": {"northeast": {"lat": 19.33899267989272, "lng": -99.12113507010727}, "southwest": {"lat": 19.33629302010728, "lng": -99.12383472989272}}}, "icon": "https://maps.gstatic.com/mapfiles/place_api/icons/v1/png_71/shopping-71.png", "name": "Zapater\u00eda \"ALEX\" Venta de zapatos de baile", "opening_hours": {"open_now": true}, "place_id": "ChIJ2dDQbuABzoURvsiJsz-ey2k", "plus_code": {"compound_code": "8VQH+32 Mexico City", "global_code": "76F28VQH+32"}, "rating": 3.3, "reference": "ChIJ2dDQbuABzoURvsiJsz-ey2k", "types": ["shoe_store", "point_of_interest", "store", "establishment"], "user_ratings_total": 12}, {"business_status": "OPERATIONAL", "formatted_address": "Av. R\u00edo Soto La Marina, \u00c1rea Federal Central de Abastos, Iztapalapa, Ciudad de M\u00e9xico, CDMX", "geometry": {"location": {"lat": 19.3845114, "lng": -99.07871589999999}, "viewport": {"northeast": {"lat": 19.38571247989272, "lng": -99.07739022010729}, "southwest": {"lat": 19.38301282010727, "lng": -99.08008987989274}}}, "icon": "https://maps.gstatic.com/mapfiles/place_api/icons/v1/png_71/shopping-71.png", "name": "D&G Dorothy Gaynor", "photos": [{"height": 3072, "html_attributions": ["<a href=\"https://maps.google.com/maps/contrib/101757723201046146497\">hector trejo</a>"], "photo_reference": "CmRZAAAAZySVysyNyMg9JrDHyudtdezESbufXk_nsP9BZHGPlJf8HJ4ko6-nSyKNyHJpAEnTaU15wX5Y7VglGFwl396kfYjnTYFeYu3qvEP6udAw17aQMdYCt8wwwHtmmLRLWxAMEhBe45kPi1EKclxVABxA5L30GhQpHupRI8FUjf70I2zXdyMpOw4qZQ", "width": 4096}], "place_id": "ChIJB1og87X90YUR1taTQgA6QuA", "plus_code": {"compound_code": "9WMC+RG Mexico City", "global_code": "76F29WMC+RG"}, "rating": 4.2, "reference": "ChIJB1og87X90YUR1taTQgA6QuA", "types": ["shoe_store", "point_of_interest", "store", "establishment"], "user_ratings_total": 67}, {"business_status": "OPERATIONAL", "formatted_address": "Avenida Tlahuac 411-B, Ixtapalapa, San Francisco Culuac\u00e1n, 09800 Ciudad de M\u00e9xico, CDMX", "geometry": {"location": {"lat": 19.3376914, "lng": -99.1091325}, "viewport": {"northeast": {"lat": 19.33903812989272, "lng": -99.10770657010728}, "southwest": {"lat": 19.33633847010728, "lng": -99.11040622989273}}}, "icon": "https://maps.gstatic.com/mapfiles/place_api/icons/v1/png_71/shopping-71.png", "name": "Flexi", "opening_hours": {"open_now": true}, "photos": [{"height": 1920, "html_attributions": ["<a href=\"https://maps.google.com/maps/contrib/115309980913998819036\">Jaime Martinez</a>"], "photo_reference": "CmRaAAAAr-kMmpuNugAjrvrJ1euOZt-PdAAivmEZl9FIxQsIiKNYw6k3MCiAD7BAO6xoQrePE8ogStpQSSKqP9odlIlHlV-DlX48rxkTbvZyezDn2yed1KdCfgwXPgW5c6QkgojFEhBCFswd_N4hMEZ7LE9fOGMOGhTJKFHFiavFOUwSDdWG19b-Nb8-JQ", "width": 1080}], "place_id": "ChIJoa8FChUCzoUR878EukduvXE", "plus_code": {"compound_code": "8VQR+38 Mexico City", "global_code": "76F28VQR+38"}, "rating": 4.1, "reference": "ChIJoa8FChUCzoUR878EukduvXE", "types": ["shoe_store", "point_of_interest", "store", "establishment"], "user_ratings_total": 51}, {"business_status": "OPERATIONAL", "formatted_address": "Silos 166, Minerva, Iztapalapa, 09810 Ciudad de M\u00e9xico, CDMX", "geometry": {"location": {"lat": 19.350454, "lng": -99.10949}, "viewport": {"northeast": {"lat": 19.35180762989272, "lng": -99.10818682010728}, "southwest": {"lat": 19.34910797010728, "lng": -99.11088647989273}}}, "icon": "https://maps.gstatic.com/mapfiles/place_api/icons/v1/png_71/shopping-71.png", "name": "Zapateria", "opening_hours": {"open_now": false}, "photos": [{"height": 1200, "html_attributions": ["<a href=\"https://maps.google.com/maps/contrib/106790854069998588752\">A Google User</a>"], "photo_reference": "CmRaAAAASXjCQTzaEtyGmGXtIkf8UH52RSFa24mgB2Q6kcWP9_O2loANFtGVw1667r9_9MFO59hzzVl6yY0aiEghWq8Oj5JD-KgBu-fqQ4y-2HRxzYz0mPFTESszaX9hZ-SzhoClEhAAJ-Pn_wAjs26gREUcVUWNGhSvDnOg2aLQc07EXkMJ8q9OT8M-ig", "width": 1600}], "place_id": "ChIJIe4A6-n_0YURBTovSj1GufM", "plus_code": {"compound_code": "9V2R+56 Mexico City", "global_code": "76F29V2R+56"}, "rating": 0, "reference": "ChIJIe4A6-n_0YURBTovSj1GufM", "types": ["shoe_store", "point_of_interest", "store", "establishment"], "user_ratings_total": 0}, {"business_status": "OPERATIONAL", "formatted_address": "Mercado De Calzado Cuitl\u00e1huac, Ermita Iztapalapa 1186, San Lucas, Iztapalapa, 09000 Ciudad de M\u00e9xico, CDMX", "geometry": {"location": {"lat": 19.358199, "lng": -99.094072}, "viewport": {"northeast": {"lat": 19.35955667989272, "lng": -99.09275467010727}, "southwest": {"lat": 19.35685702010727, "lng": -99.09545432989272}}}, "icon": "https://maps.gstatic.com/mapfiles/place_api/icons/v1/png_71/shopping-71.png", "name": "Cokiz Zapateria", "opening_hours": {"open_now": true}, "place_id": "ChIJueyDJOT90YURK8Mb-nuR1lo", "plus_code": {"compound_code": "9W54+79 San Lucas, Mexico City", "global_code": "76F29W54+79"}, "rating": 0, "reference": "ChIJueyDJOT90YURK8Mb-nuR1lo", "types": ["shoe_store", "point_of_interest", "store", "establishment"], "user_ratings_total": 0}, {"business_status": "OPERATIONAL", "formatted_address": "Calle Ote 241 A No. 254, Agr\u00edcola Oriental, Iztacalco, 08500 Ciudad de M\u00e9xico, CDMX", "geometry": {"location": {"lat": 19.3946318, "lng": -99.07259889999999}, "viewport": {"northeast": {"lat": 19.39599172989272, "lng": -99.07129702010728}, "southwest": {"lat": 19.39329207010728, "lng": -99.07399667989273}}}, "icon": "https://maps.gstatic.com/mapfiles/place_api/icons/v1/png_71/shopping-71.png", "name": "Zapater\u00edas Pakar", "photos": [{"height": 1600, "html_attributions": ["<a href=\"https://maps.google.com/maps/contrib/106795345226485011579\">A Google User</a>"], "photo_reference": "CmRaAAAAdkbVxolWDNt8b2xi8PaXfrBa-vhRHJgw6vAj1Ya5h1yq5otGAE5hQMi5yyNDVS3LsHX-C-pYhabT5rkECLqQ1JTi-LDR4b-jEU2cIeWoLNLs5Lx4Vci4uZIzjIY_DMgkEhC5Px114hxg0BxNf8CYAgv6GhSYGjaNRGsFcKN5EwNcL3EbJ0GJ5A", "width": 1200}], "place_id": "ChIJwZrrGUz80YURSoOYiCVXN2s", "plus_code": {"compound_code": "9WVG+VX Mexico City", "global_code": "76F29WVG+VX"}, "rating": 4.2, "reference": "ChIJwZrrGUz80YURSoOYiCVXN2s", "types": ["shoe_store", "point_of_interest", "store", "establishment"], "user_ratings_total": 80}, {"business_status": "OPERATIONAL", "formatted_address": "Calz. Ermita Iztapalapa, Santa Cruz Meyehualco, 09700 Ciudad de M\u00e9xico", "geometry": {"location": {"lat": 19.342484, "lng": -99.046155}, "viewport": {"northeast": {"lat": 19.34383927989272, "lng": -99.0447297701073}, "southwest": {"lat": 19.34113962010727, "lng": -99.04742942989273}}}, "icon": "https://maps.gstatic.com/mapfiles/place_api/icons/v1/png_71/shopping-71.png", "name": "Zapater\u00eda La Moda", "opening_hours": {"open_now": true}, "photos": [{"height": 2069, "html_attributions": ["<a href=\"https://maps.google.com/maps/contrib/106686266156652047553\">A Google User</a>"], "photo_reference": "CmRaAAAAmxBU44kFjgs-890iqIS-sq7vNB4Qn3Am3f3Iq1wJfBeGEg34glZ5dmFkoO8EEPFcG1zqgyQDRZZmynbyaNMX4HQ__63pfeOfj00Xv_KjzvXxXpcTJJx13AssomWjxXnDEhA0mPwn_pBPKkobly3_cwUsGhRjpBpdUf8JERm1Go04Ynqq-GjlPA", "width": 2754}], "place_id": "ChIJ5xABs4ICzoUR1ULcPGlXIHg", "plus_code": {"compound_code": "8XR3+XG Mexico City", "global_code": "76F28XR3+XG"}, "rating": 3.8, "reference": "ChIJ5xABs4ICzoUR1ULcPGlXIHg", "types": ["shoe_store", "point_of_interest", "store", "establishment"], "user_ratings_total": 78}, {"business_status": "OPERATIONAL", "formatted_address": "Ermita Iztapalapa 1126 Local 26 Dentro De Mercado De Calzado Cuitlahuac, San Lucas, Iztapalapa, 09000 CDMX", "geometry": {"location": {"lat": 19.3577959, "lng": -99.0941412}, "viewport": {"northeast": {"lat": 19.35917342989272, "lng": -99.09283857010728}, "southwest": {"lat": 19.35647377010728, "lng": -99.09553822989271}}}, "icon": "https://maps.gstatic.com/mapfiles/place_api/icons/v1/png_71/shopping-71.png", "name": "Zapatos De Danza", "opening_hours": {"open_now": true}, "place_id": "ChIJyUVePOT90YURygjNcKKKG4A", "plus_code": {"compound_code": "9W54+48 San Lucas, Mexico City", "global_code": "76F29W54+48"}, "rating": 0, "reference": "ChIJyUVePOT90YURygjNcKKKG4A", "types": ["shoe_store", "health", "point_of_interest", "store", "establishment"], "user_ratings_total": 0}, {"business_status": "OPERATIONAL", "formatted_address": "Calz. de la Viga 1818, Mexicaltzingo, Iztapalapa, 09099 Ciudad de M\u00e9xico, CDMX", "geometry": {"location": {"lat": 19.359327, "lng": -99.121811}, "viewport": {"northeast": {"lat": 19.36067217989272, "lng": -99.12051017010728}, "southwest": {"lat": 19.35797252010728, "lng": -99.12320982989273}}}, "icon": "https://maps.gstatic.com/mapfiles/place_api/icons/v1/png_71/shopping-71.png", "name": "Flexi", "opening_hours": {"open_now": true}, "place_id": "ChIJU7lsvBX-0YURMu2xIaGysdw", "plus_code": {"compound_code": "9V5H+P7 Mexico City", "global_code": "76F29V5H+P7"}, "rating": 3.8, "reference": "ChIJU7lsvBX-0YURMu2xIaGysdw", "types": ["shoe_store", "point_of_interest", "store", "establishment"], "user_ratings_total": 12}]