[{"business_status": "OPERATIONAL", "formatted_address": "entre Eje 5 Sur (av. Leyes de Reforma) y Frutas y Legumbres, Eje 4 Ote. (Av. R\u00edo Churubusco) 1635 PB, \u00c1rea Federal Central de Abastos, 09410 Ciudad de M\u00e9xico, CDMX", "geometry": {"location": {"lat": 19.3770388, "lng": -99.09572639999999}, "viewport": {"northeast": {"lat": 19.37838787989272, "lng": -99.09435712010728}, "southwest": {"lat": 19.37568822010727, "lng": -99.09705677989272}}}, "icon": "https://maps.gstatic.com/mapfiles/place_api/icons/v1/png_71/train-71.png", "name": "LA ESTACION DEL TREN", "opening_hours": {"open_now": true}, "place_id": "ChIJg7HNW9f90YURSJhhTGrilL8", "rating": 0, "reference": "ChIJg7HNW9f90YURSJhhTGrilL8", "types": ["train_station", "transit_station", "point_of_interest", "establishment"], "user_ratings_total": 0}, {"business_status": "OPERATIONAL", "formatted_address": "Calz. de Tlalpan, Atl\u00e1ntida, 04370 Ciudad de M\u00e9xico, CDMX", "geometry": {"location": {"lat": 19.3408241, "lng": -99.14346450000001}, "viewport": {"northeast": {"lat": 19.34215792989272, "lng": -99.14217267010729}, "southwest": {"lat": 19.33945827010728, "lng": -99.14487232989272}}}, "icon": "https://maps.gstatic.com/mapfiles/place_api/icons/v1/png_71/train-71.png", "name": "Las Torres", "photos": [{"height": 4128, "html_attributions": ["<a href=\"https://maps.google.com/maps/contrib/113591433475532422910\">Veka Castillo</a>"], "photo_reference": "CmRaAAAALEHmliDuGD9t8c7cOXzsq96npNbKk_2--fkHLG_KOesiw-zmiB0Sjb5huvruBTmHq9mBi3UFDq6znky-_K_VooFWUcP18bUfCA0sdtpfFBlsl7HMTANzCdVuFTcu2XbzEhBanLoMVMkIjaEMzM2Tz8LyGhRhFIFli2IQEQk_pATE54ehz4PUHQ", "width": 3096}], "place_id": "ChIJyeDE8Sr-0YURBxbmzEPtuio", "plus_code": {"compound_code": "8VR4+8J Mexico City", "global_code": "76F28VR4+8J"}, "rating": 3.7, "reference": "ChIJyeDE8Sr-0YURBxbmzEPtuio", "types": ["train_station", "transit_station", "point_of_interest", "establishment"], "user_ratings_total": 20}, {"business_status": "OPERATIONAL", "formatted_address": "Jardines de Churubusco, 09410 Mexico City", "geometry": {"location": {"lat": 19.3737605, "lng": -99.1077243}, "viewport": {"northeast": {"lat": 19.37488022989272, "lng": -99.10638097010728}, "southwest": {"lat": 19.37218057010728, "lng": -99.10908062989273}}}, "icon": "https://maps.gstatic.com/mapfiles/place_api/icons/v1/png_71/train-71.png", "name": "Aculco", "photos": [{"height": 900, "html_attributions": ["<a href=\"https://maps.google.com/maps/contrib/116355003931647574934\">Tomy Martinez</a>"], "photo_reference": "CmRaAAAAg_6vZuDHyxIJFvtB_QKuWU9DJIK-b8vIWTneYnpOztYskPl3XbIGRnXn7_k4QSsvxo0WWJkoO2xz8t9rC2g-N02IGjypekarKVxb5sfuYVqmdmdlAe_COOWs2jsGvjx0EhDFocSVjnALrqfavhu1hTZtGhRyEZ3lAFWQVXi7jX5b3yawsomBXA", "width": 1200}], "place_id": "ChIJn2ddxHD-0YUR9jkzQX21grw", "plus_code": {"compound_code": "9VFR+GW Mexico City", "global_code": "76F29VFR+GW"}, "rating": 3.9, "reference": "ChIJn2ddxHD-0YUR9jkzQX21grw", "types": ["train_station", "transit_station", "point_of_interest", "establishment"], "user_ratings_total": 23}, {"business_status": "OPERATIONAL", "formatted_address": "Calz. de Tlalpan, Cd Jard\u00edn, 04370 Ciudad de M\u00e9xico, CDMX", "geometry": {"location": {"lat": 19.3317039, "lng": -99.14062}, "viewport": {"northeast": {"lat": 19.33325492989272, "lng": -99.13935127010728}, "southwest": {"lat": 19.33055527010728, "lng": -99.14205092989272}}}, "icon": "https://maps.gstatic.com/mapfiles/place_api/icons/v1/png_71/train-71.png", "name": "La Virgen", "opening_hours": {"open_now": true}, "photos": [{"height": 4096, "html_attributions": ["<a href=\"https://maps.google.com/maps/contrib/116076350670965960871\">Leonila Reyes Marin</a>"], "photo_reference": "CmRaAAAAXlvUWdZaz8sN1ijZmqhCufRnAaz3Wy0odWqmwMl_jUn4T2XbqYtgJxToz49k_zuQ9HGoWWS_6nW4HgeTk_LzUdvj7YM1SBokqHaJLvu6E7n-r2Zv6kOovbwa1jQCME88EhAULVsQMr2Ysdxkb1PWfTd4GhSZ_yUXpX_mJHWQ3AXODMg54MPq6g", "width": 2304}], "place_id": "ChIJQf2B6NMBzoUR52rw_laxMtE", "plus_code": {"compound_code": "8VJ5+MQ Mexico City", "global_code": "76F28VJ5+MQ"}, "rating": 3.6, "reference": "ChIJQf2B6NMBzoUR52rw_laxMtE", "types": ["train_station", "transit_station", "point_of_interest", "establishment"], "user_ratings_total": 18}, {"business_status": "OPERATIONAL", "formatted_address": "Calz. de Tlalpan, Cd Jard\u00edn, 04370 Ciudad de M\u00e9xico, CDMX", "geometry": {"location": {"lat": 19.3356659, "lng": -99.1418451}, "viewport": {"northeast": {"lat": 19.33686282989272, "lng": -99.14041077010728}, "southwest": {"lat": 19.33416317010728, "lng": -99.14311042989273}}}, "icon": "https://maps.gstatic.com/mapfiles/place_api/icons/v1/png_71/train-71.png", "name": "Cd. Jard\u00edn", "photos": [{"height": 3120, "html_attributions": ["<a href=\"https://maps.google.com/maps/contrib/115824731198718604450\">Ing. Huika Ramos</a>"], "photo_reference": "CmRaAAAAKEPdYAl0J_Q7hMvYvrqA2v5YzZ7Gj4s7AYB8uQVW3yRO08ywOsXD0W5kNInAjFySNOIMPkxuPlHPGBAJ7OWILBfYSvxSx5dO-tDKx07rnGLq8vWZZVrVKtnm-D7iMGICEhDUMuDCs7aJ7XwxEHWntagJGhSjP0cUo8BJEgP9ou7AhCHmUFiTbg", "width": 4160}], "place_id": "ChIJ2YhiTNQBzoURBV2JDT_dHnE", "plus_code": {"compound_code": "8VP5+77 Mexico City", "global_code": "76F28VP5+77"}, "rating": 4, "reference": "ChIJ2YhiTNQBzoURBV2JDT_dHnE", "types": ["train_station", "transit_station", "point_of_interest", "establishment"], "user_ratings_total": 24}, {"business_status": "OPERATIONAL", "formatted_address": "San Pedro, Xochimilco, 16090 Mexico City", "geometry": {"location": {"lat": 19.25939, "lng": -99.10788}, "viewport": {"northeast": {"lat": 19.26078282989272, "lng": -99.10658097010727}, "southwest": {"lat": 19.25808317010728, "lng": -99.10928062989272}}}, "icon": "https://maps.gstatic.com/mapfiles/place_api/icons/v1/png_71/train-71.png", "name": "Xochimilco", "opening_hours": {"open_now": true}, "photos": [{"height": 2448, "html_attributions": ["<a href=\"https://maps.google.com/maps/contrib/117388765526354113171\">Francisco Castillo Mu\u00f1oz</a>"], "photo_reference": "CmRaAAAAbrzLJmz61J4-RbPkJp6SPJeH9aE1vz1FmrEtQILPWiWpR5DNm0B_lpR-DFNseVy7ePKIHIjmeNS0jtxpry6wIri_mfY2QUGs5t_ONwJxTXIaqXeXYWXr5Ab9Egz-0HY4EhBi40OAjmTRVWFcTKJm4J07GhROvSiyJaELzloJPmUHGT4QoDQYhg", "width": 3264}], "place_id": "ChIJvcoCFloBzoUREzFFTop3SSE", "plus_code": {"compound_code": "7V5R+QR Mexico City", "global_code": "76F27V5R+QR"}, "rating": 3.5, "reference": "ChIJvcoCFloBzoUREzFFTop3SSE", "types": ["train_station", "transit_station", "point_of_interest", "establishment"], "user_ratings_total": 91}, {"business_status": "OPERATIONAL", "formatted_address": "Emiliano Zapata, Coyoacan, Iztacalco, 04610 Ciudad de M\u00e9xico, CDMX", "geometry": {"location": {"lat": 19.3277298, "lng": -99.13937609999999}, "viewport": {"northeast": {"lat": 19.32911602989272, "lng": -99.13803772010728}, "southwest": {"lat": 19.32641637010727, "lng": -99.14073737989273}}}, "icon": "https://maps.gstatic.com/mapfiles/place_api/icons/v1/png_71/train-71.png", "name": "Xotepingo", "opening_hours": {"open_now": true}, "photos": [{"height": 4032, "html_attributions": ["<a href=\"https://maps.google.com/maps/contrib/111692072573276050127\">A Google User</a>"], "photo_reference": "CmRaAAAAfXJglWu1zuMpO3ySA2sAr8P282KBSy2IXd8kOlX1kVb3UqSvHp5EV9cZ2JGYWwMDO9H66Et1pJW1OWiCVS4H-zRwOwN-TafkAC9_cDGyBTJqI3fqaSFtHR3H98__oMaVEhDSydkK1Ntzm_Hn9rpDZ_e0GhQqTHgDoh21K7En4e1aUZkijLGaGw", "width": 3024}], "place_id": "ChIJqS5f-9EBzoURGo4jKK5R3OE", "plus_code": {"compound_code": "8VH6+36 Mexico City", "global_code": "76F28VH6+36"}, "rating": 4, "reference": "ChIJqS5f-9EBzoURGo4jKK5R3OE", "types": ["train_station", "transit_station", "point_of_interest", "establishment"], "user_ratings_total": 18}, {"business_status": "OPERATIONAL", "formatted_address": "Exejido de Sta \u00darsula Coapa, 04910 Mexico City, CDMX", "geometry": {"location": {"lat": 19.30154, "lng": -99.14724}, "viewport": {"northeast": {"lat": 19.30299567989272, "lng": -99.14615612010726}, "southwest": {"lat": 19.30029602010728, "lng": -99.14885577989271}}}, "icon": "https://maps.gstatic.com/mapfiles/place_api/icons/v1/png_71/train-71.png", "name": "Estadio Azteca", "photos": [{"height": 2160, "html_attributions": ["<a href=\"https://maps.google.com/maps/contrib/117548538095976843674\">Faby</a>"], "photo_reference": "CmRaAAAA0yO17IEiYShgWoBZ4mw_rqjswSTRbL0kWXvTvNgJLXwf14mb-3hgul6y67ej8uxCb83Uho5Wnp0LFepLQw8EcJUhePX64wy1Sqe7FRFXWPRjaR9fAdEW_y11huRUCvYqEhAcHzfJQ2unHfFy8QxpNeiqGhS_-Xk1IcJpfK82GLl4DIhuL1kwbw", "width": 3840}], "place_id": "ChIJZeg-61IAzoURWerIt5o97-8", "plus_code": {"compound_code": "8V23+J4 Mexico City", "global_code": "76F28V23+J4"}, "rating": 4.3, "reference": "ChIJZeg-61IAzoURWerIt5o97-8", "types": ["train_station", "transit_station", "point_of_interest", "establishment"], "user_ratings_total": 65}, {"business_status": "OPERATIONAL", "formatted_address": "Colonia Buenavista, 06350 Mexico City, CDMX", "geometry": {"location": {"lat": 19.4471789, "lng": -99.1520707}, "viewport": {"northeast": {"lat": 19.44801802989273, "lng": -99.15080832010729}, "southwest": {"lat": 19.44531837010728, "lng": -99.15350797989274}}}, "icon": "https://maps.gstatic.com/mapfiles/place_api/icons/v1/png_71/train-71.png", "name": "Estaci\u00f3n Buenavista", "photos": [{"height": 3096, "html_attributions": ["<a href=\"https://maps.google.com/maps/contrib/105976850687974865760\">Juande Cedillo Guevara</a>"], "photo_reference": "CmRaAAAAEV6yULr1wcL31OF6aYs2-rdzUOssaxqCubxcOw6WbVpvJV_nA0ROV6Gw2PgmqYswBoM3AmgMljNm9BO4gyGHAF0ssm_xJEF1V9r_oySpUstqXAaJbhmzYOh3vsNwBBZDEhBzTitgASnx-_skK4SozaRzGhTLto7uGYe7Qc-zBvXckipAwMG51g", "width": 4128}], "place_id": "ChIJjUKlSNr40YUReWGDHYkbqKY", "plus_code": {"compound_code": "CRWX+V5 Mexico City", "global_code": "76F2CRWX+V5"}, "rating": 4.4, "reference": "ChIJjUKlSNr40YUReWGDHYkbqKY", "types": ["train_station", "transit_station", "point_of_interest", "establishment"], "user_ratings_total": 5241}, {"business_status": "OPERATIONAL", "formatted_address": "Magdalena Mixihuca, 15860 Mexico City", "geometry": {"location": {"lat": 19.4109422, "lng": -99.12174139999999}, "viewport": {"northeast": {"lat": 19.41230892989272, "lng": -99.1202563701073}, "southwest": {"lat": 19.40960927010727, "lng": -99.12295602989273}}}, "icon": "https://maps.gstatic.com/mapfiles/place_api/icons/v1/png_71/train-71.png", "name": "Jamaica", "photos": [{"height": 2304, "html_attributions": ["<a href=\"https://maps.google.com/maps/contrib/104197116589221880036\">Armando Calderon</a>"], "photo_reference": "CmRaAAAAW-q9e2vyZPdmcqGYZsAg3vlXYZwqmNEQMnzvq0PU97wFtrUbHwo0mZUzgDgUsYvAvwQCTI-Cz-LbAostqDrL_rUwQoHIZZEdvsspK9AKkaqq-fn8rUCpqbnf5vfJBLz5EhDpZEC8x68yS_I9u_nxseIPGhTALndtAuWkXSFg6fIxP6DrL11ByQ", "width": 4096}], "place_id": "ChIJw4x53L_-0YURZ-jp9LHK0-c", "plus_code": {"compound_code": "CV6H+98 Mexico City", "global_code": "76F2CV6H+98"}, "rating": 3.8, "reference": "ChIJw4x53L_-0YURZ-jp9LHK0-c", "types": ["train_station", "transit_station", "point_of_interest", "establishment"], "user_ratings_total": 31}, {"business_status": "OPERATIONAL", "formatted_address": "Calz. de Tlalpan, Espartaco, 04870 Ciudad de M\u00e9xico, CDMX", "geometry": {"location": {"lat": 19.3179574, "lng": -99.1388216}, "viewport": {"northeast": {"lat": 19.31938162989272, "lng": -99.13735122010728}, "southwest": {"lat": 19.31668197010728, "lng": -99.14005087989273}}}, "icon": "https://maps.gstatic.com/mapfiles/place_api/icons/v1/png_71/train-71.png", "name": "Registro Federal", "photos": [{"height": 2448, "html_attributions": ["<a href=\"https://maps.google.com/maps/contrib/106006967103940675102\">Jos\u00e9 Luis Hern\u00e1ndez</a>"], "photo_reference": "CmRaAAAABBLxLst_sDHXxR2xNoqu_60_S5SnFSxwU0AQr_s16cfSh_KlDtz5kB5McDGMWw5njeeAYMUJ7LOkBvrR9dqYiqgJ6UPXSscCklNfD3XTdMG1s9_oQwBvCp1tHT39Eh6wEhDewzP7H5kiZNRa3OsPYXQrGhSbZ_tnuezI305WQZq59fHkXKgjGA", "width": 3264}], "place_id": "ChIJxWv4n8kBzoUR2GFSUKEwYpc", "plus_code": {"compound_code": "8V96+5F Mexico City", "global_code": "76F28V96+5F"}, "rating": 3.6, "reference": "ChIJxWv4n8kBzoUR2GFSUKEwYpc", "types": ["train_station", "transit_station", "point_of_interest", "establishment"], "user_ratings_total": 38}, {"business_status": "OPERATIONAL", "formatted_address": "De Tlalpan Emiliano Zapata Coyoacan, 04815 Ciudad de M\u00e9xico", "geometry": {"location": {"lat": 19.3238363, "lng": -99.1381964}, "viewport": {"northeast": {"lat": 19.32496422989272, "lng": -99.13677572010728}, "southwest": {"lat": 19.32226457010728, "lng": -99.13947537989273}}}, "icon": "https://maps.gstatic.com/mapfiles/place_api/icons/v1/png_71/train-71.png", "name": "Nezahualpilli", "photos": [{"height": 3840, "html_attributions": ["<a href=\"https://maps.google.com/maps/contrib/103477013078298671782\">kuro kenka</a>"], "photo_reference": "CmRaAAAAj2Kv7jRzgiudsKbButATrjcO3YxE4NQ_YCuRKv5vuJ3ZThFxct3kV82c55PayHlyi3ETk9BO3Ixu6g6Tih70zFSGFKF148fdB7HW0JfOgUfnrZWQ25qftjJIPN2q-GDdEhANmJZ2CAZlYcjaOoDP37ijGhQKfu_1BvpSTjiI7BDv37rmyu_3AQ", "width": 2160}], "place_id": "ChIJLWDT784BzoURfbXE6wP8WP4", "plus_code": {"compound_code": "8VF6+GP Mexico City", "global_code": "76F28VF6+GP"}, "rating": 4.5, "reference": "ChIJLWDT784BzoURfbXE6wP8WP4", "types": ["train_station", "transit_station", "point_of_interest", "establishment"], "user_ratings_total": 20}, {"business_status": "OPERATIONAL", "formatted_address": "Calz. de Tlalpan, Sta. \u00darsula Coapa, 04650 Ciudad de M\u00e9xico, CDMX", "geometry": {"location": {"lat": 19.3125677, "lng": -99.1405831}, "viewport": {"northeast": {"lat": 19.31432712989272, "lng": -99.13892492010729}, "southwest": {"lat": 19.31162747010728, "lng": -99.14162457989272}}}, "icon": "https://maps.gstatic.com/mapfiles/place_api/icons/v1/png_71/train-71.png", "name": "Textitl\u00e1n", "photos": [{"height": 768, "html_attributions": ["<a href=\"https://maps.google.com/maps/contrib/106339122765409247697\">Manuel Alberto Galindo Maya</a>"], "photo_reference": "CmRaAAAASFmy07F3FDTHa_ngxmwcSXrpsbnajTNm1N4c7vo1PaYZNuMiXxqncX1g8oQyTdGz0FyioRFuoCNAhN4bMCVdSUVyVSb4_MoRZ9tAT8uYHv1k4JB73CJt0yD1d_YPOGf6EhDFAqeIOZN_jql4Y4sm2V8vGhSpvqTl0O-AlhsnwpHV3Y5DZLupLg", "width": 1280}], "place_id": "ChIJM3LG0rUBzoUR1nYo6zBtBik", "plus_code": {"compound_code": "8V75+2Q Mexico City", "global_code": "76F28V75+2Q"}, "rating": 3.6, "reference": "ChIJM3LG0rUBzoUR1nYo6zBtBik", "types": ["train_station", "transit_station", "point_of_interest", "establishment"], "user_ratings_total": 26}, {"business_status": "OPERATIONAL", "formatted_address": "Coapa, Guadalupe Tlalpan, 14389 Mexico City, CDMX", "geometry": {"location": {"lat": 19.2887367, "lng": -99.146788}, "viewport": {"northeast": {"lat": 19.29011197989272, "lng": -99.14543247010727}, "southwest": {"lat": 19.28741232010728, "lng": -99.14813212989272}}}, "icon": "https://maps.gstatic.com/mapfiles/place_api/icons/v1/png_71/train-71.png", "name": "Xomali", "photos": [{"height": 4000, "html_attributions": ["<a href=\"https://maps.google.com/maps/contrib/114034334068820565905\">Eduardo Rodriguez Cruz</a>"], "photo_reference": "CmRaAAAAENQdLdQOpKJnCIK3pJ8FvpWwEgTbq-v3RgsAUQSt17x5LsZbtTu_VDXaazEWwz8CijVRaM9CQAp8JUIvoz4pPiOBL9MwwkTqCwvT6tpjxPe8ZE5A6bB2hbjuNXvGCBPkEhD3utYDtTkq9p5i0CQ4CiJpGhS1GMIj2nIvu31tIZsc9TOlymQxzw", "width": 3000}], "place_id": "ChIJF9fByf8AzoURw0EczKkIso0", "plus_code": {"compound_code": "7VQ3+F7 Mexico City", "global_code": "76F27VQ3+F7"}, "rating": 3.3, "reference": "ChIJF9fByf8AzoURw0EczKkIso0", "types": ["train_station", "transit_station", "point_of_interest", "establishment"], "user_ratings_total": 19}, {"business_status": "OPERATIONAL", "formatted_address": "Tierra Nueva, 16030 Mexico City, CDMX", "geometry": {"location": {"lat": 19.2679416, "lng": -99.12563340000001}, "viewport": {"northeast": {"lat": 19.26934172989272, "lng": -99.12434952010727}, "southwest": {"lat": 19.26664207010728, "lng": -99.12704917989272}}}, "icon": "https://maps.gstatic.com/mapfiles/place_api/icons/v1/png_71/train-71.png", "name": "La Noria", "photos": [{"height": 4140, "html_attributions": ["<a href=\"https://maps.google.com/maps/contrib/106006967103940675102\">Jos\u00e9 Luis Hern\u00e1ndez</a>"], "photo_reference": "CmRaAAAAOBjuT5gSL2J12jDrNdmCPXtCfBU8uCK9g2uh1cLQJ7IAg8n96Vodkg-7v5s2JM12ZUVJpymMf4ShgMQaX2Hviy_pdwHAWbQOniu_7I05GGdT74U8q-EO-TLRdpYsFKFzEhCbM8uSYlPnQsgNKnTD5pZeGhQmmVLDXja4i2sondLt9e6P8LI4kA", "width": 5520}], "place_id": "ChIJ-0JMzj8BzoURBwT8ZP_eScw", "plus_code": {"compound_code": "7V9F+5P Mexico City", "global_code": "76F27V9F+5P"}, "rating": 3.5, "reference": "ChIJ-0JMzj8BzoURBwT8ZP_eScw", "types": ["train_station", "transit_station", "point_of_interest", "establishment"], "user_ratings_total": 56}, {"business_status": "OPERATIONAL", "formatted_address": "Huipulco, 14370 Mexico City, CDMX", "geometry": {"location": {"lat": 19.2977029, "lng": -99.150739}, "viewport": {"northeast": {"lat": 19.29909132989272, "lng": -99.14940632010727}, "southwest": {"lat": 19.29639167010728, "lng": -99.15210597989272}}}, "icon": "https://maps.gstatic.com/mapfiles/place_api/icons/v1/png_71/train-71.png", "name": "Huipulco", "photos": [{"height": 3088, "html_attributions": ["<a href=\"https://maps.google.com/maps/contrib/103630750009246161650\">Jonathan Camargo</a>"], "photo_reference": "CmRaAAAAydq8ot8EaT9DrG2nlmQ4iexZo8f-WbZTRD3Es_lrcu9TLf2m52jv7Lx4xyI4qBuZx905swJAx1wRZnFvfaJLZ1l5FHOMPAKkHGhWo4EHqojr5FQUUk8xWZ4PjRsWSya-EhB-WTM1RncZvFd4TYxEHCFBGhSdAXGqWAiUdbar7I48ANmBMSKh4g", "width": 4160}], "place_id": "ChIJYcC_-1MAzoURPX7Y1x3pECA", "plus_code": {"compound_code": "7RXX+3P Mexico City", "global_code": "76F27RXX+3P"}, "rating": 3.8, "reference": "ChIJYcC_-1MAzoURPX7Y1x3pECA", "types": ["train_station", "transit_station", "point_of_interest", "establishment"], "user_ratings_total": 57}]