[{"business_status": "OPERATIONAL", "formatted_address": "Calle 5 Colonia Pur\u00edsima 1 Delegaci\u00f3n Iztapalapa CP 09209, 09209 Ciudad de M\u00e9xico", "geometry": {"location": {"lat": 19.3775444, "lng": -99.0980515}, "viewport": {"northeast": {"lat": 19.37882232989272, "lng": -99.09671157010727}, "southwest": {"lat": 19.37612267010728, "lng": -99.09941122989272}}}, "icon": "https://maps.gstatic.com/mapfiles/place_api/icons/v1/png_71/generic_business-71.png", "name": "Trip Magic M\u00e9xico", "place_id": "ChIJiepmv-z90YUR5urPzJiYzK0", "plus_code": {"compound_code": "9WH2+2Q Mexico City", "global_code": "76F29WH2+2Q"}, "rating": 0, "reference": "ChIJiepmv-z90YUR5urPzJiYzK0", "types": ["tourist_attraction", "point_of_interest", "establishment"], "user_ratings_total": 0}, {"business_status": "OPERATIONAL", "formatted_address": "5 de Mayo No. 3, La Asunci\u00f3n, Iztapalapa, 09000 Ciudad de M\u00e9xico, CDMX", "geometry": {"location": {"lat": 19.3607407, "lng": -99.09311029999999}, "viewport": {"northeast": {"lat": 19.36220632989272, "lng": -99.09172037010728}, "southwest": {"lat": 19.35950667010728, "lng": -99.09442002989273}}}, "icon": "https://maps.gstatic.com/mapfiles/place_api/icons/v1/png_71/generic_business-71.png", "name": "CENTRO DE IZTAPALAPA", "opening_hours": {"open_now": true}, "photos": [{"height": 1200, "html_attributions": ["<a href=\"https://maps.google.com/maps/contrib/112073610969746120019\">juan ramirez</a>"], "photo_reference": "CmRaAAAAM2sKmXTATi0iRGpv3FxEYUiqWYXw7ShXzDYxX98W5n9k8ALj0dpa84At-P9uwFPBZkpXozJ-qS85A0xhdLMTpd2aHx-QEVac_NGV9MPOPYoQFq22TCW99YDP5QTn06AaEhDIN5aWeKOvMZroZvVM4fzmGhQ88zDJNNljlGN8sRVB1Gp7UPWYxw", "width": 1600}], "place_id": "ChIJ___7V-b90YUROQ25whYu2Rk", "plus_code": {"compound_code": "9W64+7Q Mexico City", "global_code": "76F29W64+7Q"}, "rating": 4.1, "reference": "ChIJ___7V-b90YUROQ25whYu2Rk", "types": ["tourist_attraction", "point_of_interest", "establishment"], "user_ratings_total": 878}, {"business_status": "OPERATIONAL", "formatted_address": "Tecacalo 149, Adolfo Ru\u00edz Cort\u00ednez, Coyoac\u00e1n, 04630 Ciudad de M\u00e9xico, CDMX", "geometry": {"location": {"lat": 19.3200134, "lng": -99.1472153}, "viewport": {"northeast": {"lat": 19.32134372989272, "lng": -99.14579892010728}, "southwest": {"lat": 19.31864407010728, "lng": -99.14849857989273}}}, "icon": "https://maps.gstatic.com/mapfiles/place_api/icons/v1/png_71/generic_business-71.png", "name": "Schloss Tlalpanstein", "opening_hours": {"open_now": false}, "photos": [{"height": 1656, "html_attributions": ["<a href=\"https://maps.google.com/maps/contrib/116839817991444719377\">polyushko pole</a>"], "photo_reference": "CmRaAAAA4ShyBwEnSf2fi62Fxm7k-6Fk6wf7CeWsssRxCP6D0VQVlmC-tkKWsiF4e3fGP2syslgG5Bk1F5vveyvMH5O6gD_iFq3E8GvKnu8e7E7qxo1s6bPyYlXlmlizaHBFBWAbEhCeoDgmdkdXCs1LrnFM1YzqGhRKTdmEH7rGNKWEKH353XTVrP0wDQ", "width": 1242}], "place_id": "ChIJAxIa6wwBzoURRnUc-UyguX0", "plus_code": {"compound_code": "8VC3+24 Mexico City", "global_code": "76F28VC3+24"}, "rating": 0, "reference": "ChIJAxIa6wwBzoURRnUc-UyguX0", "types": ["tourist_attraction", "point_of_interest", "establishment"], "user_ratings_total": 0}, {"business_status": "OPERATIONAL", "formatted_address": "Cto Interior Avenida R\u00edo Churubusco 1043, Tlacotal Ramos Mill\u00e1n, Iztacalco, 08720 Ciudad de M\u00e9xico, CDMX", "geometry": {"location": {"lat": 19.3967158, "lng": -99.09916120000001}, "viewport": {"northeast": {"lat": 19.39807002989273, "lng": -99.09784177010728}, "southwest": {"lat": 19.39537037010728, "lng": -99.10054142989273}}}, "icon": "https://maps.gstatic.com/mapfiles/place_api/icons/v1/png_71/generic_business-71.png", "name": "LETRAS LUMINOSAS DE IZTACALCO", "place_id": "ChIJVdEAX1X90YURSQaw-k7gevw", "plus_code": {"compound_code": "9WW2+M8 Mexico City", "global_code": "76F29WW2+M8"}, "rating": 1, "reference": "ChIJVdEAX1X90YURSQaw-k7gevw", "types": ["tourist_attraction", "point_of_interest", "establishment"], "user_ratings_total": 1}, {"business_status": "OPERATIONAL", "formatted_address": "Calle 8 #85, Col Metropolitana, Col. Porvenir, 57430 Nezahualc\u00f3yotl, M\u00e9x.", "geometry": {"location": {"lat": 19.412811, "lng": -99.055927}, "viewport": {"northeast": {"lat": 19.41416977989272, "lng": -99.05459717010727}, "southwest": {"lat": 19.41147012010727, "lng": -99.05729682989272}}}, "icon": "https://maps.gstatic.com/mapfiles/place_api/icons/v1/png_71/generic_business-71.png", "name": "DESTINOS TURISTICOS MEXICO", "opening_hours": {"open_now": true}, "place_id": "ChIJYe5Oi2T90YURL3pr2DqN1AA", "plus_code": {"compound_code": "CW7V+4J Ciudad Nezahualc\u00f3yotl, State of Mexico", "global_code": "76F2CW7V+4J"}, "rating": 0, "reference": "ChIJYe5Oi2T90YURL3pr2DqN1AA", "types": ["tourist_attraction", "point_of_interest", "establishment"], "user_ratings_total": 0}, {"business_status": "OPERATIONAL", "formatted_address": "10 de Abril de 1859 86, Leyes de Reforma 3ra Secc, Iztapalapa, 09310 Ciudad de M\u00e9xico, CDMX", "geometry": {"location": {"lat": 19.3750881, "lng": -99.076657}, "viewport": {"northeast": {"lat": 19.37642792989272, "lng": -99.07524767010727}, "southwest": {"lat": 19.37372827010727, "lng": -99.07794732989272}}}, "icon": "https://maps.gstatic.com/mapfiles/place_api/icons/v1/png_71/generic_business-71.png", "name": "Sal\u00f3n Luna Romantica", "opening_hours": {"open_now": true}, "photos": [{"height": 1536, "html_attributions": ["<a href=\"https://maps.google.com/maps/contrib/117305411979184109117\">A Google User</a>"], "photo_reference": "CmRaAAAAqfNv80YqXrjnrf3qwMsk5MBvUTJ7Ky2r3TTopFfdE7_-7sM_pGvDszvhCMTN8TT68w5CNCt-KiBvhybOYeS3TiUmKZUtYcqft0PtZe35LuRrKbhtgTc1BQXh-WsN_IMLEhBiaLgTvcHIveggmb9l0CQ-GhRsKqk7jE5I2B1yLjD8m6RNpBCfgQ", "width": 2048}], "place_id": "ChIJdYZ7Urj90YURVfMLsqhWAto", "plus_code": {"compound_code": "9WGF+28 Mexico City", "global_code": "76F29WGF+28"}, "rating": 4, "reference": "ChIJdYZ7Urj90YURVfMLsqhWAto", "types": ["tourist_attraction", "point_of_interest", "establishment"], "user_ratings_total": 75}, {"business_status": "OPERATIONAL", "formatted_address": "Unnamed Road, Coapa, Parque Ecol\u00f3gico de Xochimilco, Xochimilco, 16036 Ciudad de M\u00e9xico, CDMX", "geometry": {"location": {"lat": 19.2992468, "lng": -99.10011259999999}, "viewport": {"northeast": {"lat": 19.30059592989272, "lng": -99.09875417010727}, "southwest": {"lat": 19.29789627010728, "lng": -99.10145382989272}}}, "icon": "https://maps.gstatic.com/mapfiles/place_api/icons/v1/png_71/generic_business-71.png", "name": "Artemex (Artesan\u00edas Mexicanas)", "opening_hours": {"open_now": true}, "photos": [{"height": 4160, "html_attributions": ["<a href=\"https://maps.google.com/maps/contrib/109891934198746751019\">Monica Mendoza</a>"], "photo_reference": "CmRaAAAANex04_c9jMdURG3dPvDW8oIEBqrqhpeHEOl21IJaxFSqEpVawkHhRe2u-IvuF20xgGszMOyd8rkVZORG1f9IDsh_xcAG98SpWuLPFkFp02izoRazpsien9CXwgkpBMYdEhAidjpNSleJVVK0HxTNYtjAGhTtN8fG2btErx65CmGv_zSDqv7xYQ", "width": 3120}], "place_id": "ChIJKbxWu_wDzoURkpPvQVCkUkw", "plus_code": {"compound_code": "7VXX+MX Mexico City", "global_code": "76F27VXX+MX"}, "rating": 4.7, "reference": "ChIJKbxWu_wDzoURkpPvQVCkUkw", "types": ["tourist_attraction", "home_goods_store", "point_of_interest", "store", "establishment"], "user_ratings_total": 10}, {"business_status": "OPERATIONAL", "formatted_address": "Federal, Venustiano Carranza, 15700 Mexico City", "geometry": {"location": {"lat": 19.4199457, "lng": -99.0882857}, "viewport": {"northeast": {"lat": 19.42131972989272, "lng": -99.08709417010728}, "southwest": {"lat": 19.41862007010728, "lng": -99.08979382989273}}}, "icon": "https://maps.gstatic.com/mapfiles/place_api/icons/v1/png_71/generic_business-71.png", "name": "Carrusel", "photos": [{"height": 780, "html_attributions": ["<a href=\"https://maps.google.com/maps/contrib/103307013791359287187\">Said M.</a>"], "photo_reference": "CmRaAAAA9AGsnSgxoL-n0t3d_QLF0aAUDfKb_1jvS2k52NjE0-knWiFS1HEw6kf3VQCrhW9E2-0o9Xb6qiRZ0yKakScaDVkD_BvVVk9Xx62x5FC3WfXIVNQX6cyqQbXAIHGUwm4TEhDQZkJxbSAjNjKa9zTH9eeHGhREK76fxCLucFCUmo0-A0xutY37qg", "width": 996}], "place_id": "ChIJ_eVlRnn90YURu-yZomifDa4", "plus_code": {"compound_code": "CW96+XM Mexico City", "global_code": "76F2CW96+XM"}, "rating": 0, "reference": "ChIJ_eVlRnn90YURu-yZomifDa4", "types": ["tourist_attraction", "point_of_interest", "establishment"], "user_ratings_total": 0}, {"business_status": "OPERATIONAL", "formatted_address": "Jard\u00edn Plaza Hidalgo, Coyoac\u00e1n TNT, Del Carmen, Coyoac\u00e1n, 04100 Ciudad de M\u00e9xico, CDMX", "geometry": {"location": {"lat": 19.3493628, "lng": -99.16302639999999}, "viewport": {"northeast": {"lat": 19.35071877989272, "lng": -99.16169262010729}, "southwest": {"lat": 19.34801912010728, "lng": -99.16439227989274}}}, "icon": "https://maps.gstatic.com/mapfiles/place_api/icons/v1/png_71/generic_business-71.png", "name": "Tranv\u00eda Coyoac\u00e1n", "opening_hours": {"open_now": true}, "photos": [{"height": 1280, "html_attributions": ["<a href=\"https://maps.google.com/maps/contrib/110712787896822925603\">Ulises Gervacio Hernandez</a>"], "photo_reference": "CmRaAAAAGeSEo7OclG65ZYoTx9OefF7ANR87riYiFswmAjT7U-5t5g7Lb9wZ5FnLEZDd2yGxJYkYppfmW2L4G8A3aXtFUq6n69xZ6szogDNdl6_Hadtb36-efeNHA023l4id1I9VEhAs4VJum633K-c0Xkj4d5HXGhQ3ROzovhtwvfivN3YC7Rxsc--P4Q", "width": 1920}], "place_id": "ChIJIRoUsdz_0YURX84VhI3hHVs", "plus_code": {"compound_code": "8RXP+PQ Mexico City", "global_code": "76F28RXP+PQ"}, "rating": 4.5, "reference": "ChIJIRoUsdz_0YURX84VhI3hHVs", "types": ["tourist_attraction", "point_of_interest", "establishment"], "user_ratings_total": 249}, {"business_status": "OPERATIONAL", "formatted_address": "Av. Guadalupe I. Ram\u00edrez s/n, Barrio San Juan, Xochimilco, 16000 Ciudad de M\u00e9xico, CDMX", "geometry": {"location": {"lat": 19.2647611, "lng": -99.1081152}, "viewport": {"northeast": {"lat": 19.26601447989272, "lng": -99.10680227010728}, "southwest": {"lat": 19.26331482010728, "lng": -99.10950192989272}}}, "icon": "https://maps.gstatic.com/mapfiles/place_api/icons/v1/png_71/generic_business-71.png", "name": "Paseos Tur\u00edsticos XOCHITLALY", "opening_hours": {"open_now": true}, "photos": [{"height": 635, "html_attributions": ["<a href=\"https://maps.google.com/maps/contrib/114587345045673281450\">A Google User</a>"], "photo_reference": "CmRaAAAAGL3ShTPjoNAvE1x_0SVzg1OiORMIneu0kHb1qI_9ymEYRAhTEsbRhZhMmcnuZByB49kZeWJoARUjN8pDHUmiN2Gwv4SaRwE5EhrTQCVOaRL3VHWLD1JrYLZ3z_ScBkIpEhDdCzO0uJKFqSI_2SkY-LCCGhTYE4S2A9sqn9yRMNE1tRczFTJvoQ", "width": 960}], "place_id": "ChIJc0_f7xUBzoURaS9PWaqBzQA", "plus_code": {"compound_code": "7V7R+WQ Mexico City", "global_code": "76F27V7R+WQ"}, "rating": 0, "reference": "ChIJc0_f7xUBzoURaS9PWaqBzQA", "types": ["tourist_attraction", "point_of_interest", "establishment"], "user_ratings_total": 0}, {"business_status": "OPERATIONAL", "formatted_address": "Los Reyes, Coyoac\u00e1n, 04330 Mexico City", "geometry": {"location": {"lat": 19.3284989, "lng": -99.1553584}, "viewport": {"northeast": {"lat": 19.32981047989272, "lng": -99.15395267010727}, "southwest": {"lat": 19.32711082010728, "lng": -99.15665232989271}}}, "icon": "https://maps.gstatic.com/mapfiles/place_api/icons/v1/png_71/generic_business-71.png", "name": "Calendario Azteca", "opening_hours": {"open_now": true}, "photos": [{"height": 3345, "html_attributions": ["<a href=\"https://maps.google.com/maps/contrib/115059112040661417680\">\u0404\u0141 ZU\u042f\u0110O \u042fIV\u042d\u042f\u039b</a>"], "photo_reference": "CmRaAAAAZg2jcjbQt-M3NBfMhVwWh07czJ5PJUp3t_bsl2n1S_C4HXYNXOP5IwvMoQEDUPHbmptRP5p8_0No1pyeZ3XUJ7IRTCSxzzRkZglmKRkjC3Aeg3XU273D8_8w8VYGvjU_EhDF8H0waXkquKyrwwhbZJSPGhTepJWPBVs4COXeoO_HLuNnU9e67w", "width": 3096}], "place_id": "ChIJAxwYHm8BzoUR0zxGV436T8I", "plus_code": {"compound_code": "8RHV+9V Mexico City", "global_code": "76F28RHV+9V"}, "rating": 5, "reference": "ChIJAxwYHm8BzoUR0zxGV436T8I", "types": ["tourist_attraction", "point_of_interest", "establishment"], "user_ratings_total": 11}, {"business_status": "OPERATIONAL", "formatted_address": "Calle Av. \u00c1ngel de la Independencia, San Marcos, 57720 Nezahualc\u00f3yotl, M\u00e9x.", "geometry": {"location": {"lat": 19.3968325, "lng": -99.02712489999999}, "viewport": {"northeast": {"lat": 19.39819597989272, "lng": -99.02580517010728}, "southwest": {"lat": 19.39549632010728, "lng": -99.02850482989271}}}, "icon": "https://maps.gstatic.com/mapfiles/place_api/icons/v1/png_71/generic_business-71.png", "name": "NIDA", "place_id": "ChIJ1x0MG8D90YURZEtuBVX80lc", "plus_code": {"compound_code": "9XWF+P5 Ciudad Nezahualc\u00f3yotl, State of Mexico", "global_code": "76F29XWF+P5"}, "rating": 0, "reference": "ChIJ1x0MG8D90YURZEtuBVX80lc", "types": ["tourist_attraction", "point_of_interest", "establishment"], "user_ratings_total": 0}, {"business_status": "OPERATIONAL", "formatted_address": "Calle Guadalupe I. Ram\u00edrez s/n, San Jos\u00e9 Zacatepec, Barrio San Juan, Xochimilco, 16000 Ciudad de M\u00e9xico, CDMX", "geometry": {"location": {"lat": 19.2439777, "lng": -99.12338009999999}, "viewport": {"northeast": {"lat": 19.24536537989272, "lng": -99.12206692010729}, "southwest": {"lat": 19.24266572010728, "lng": -99.12476657989274}}}, "icon": "https://maps.gstatic.com/mapfiles/place_api/icons/v1/png_71/generic_business-71.png", "name": "Paseos Tur\u00edsticos XOCHITLALY", "opening_hours": {"open_now": true}, "photos": [{"height": 635, "html_attributions": ["<a href=\"https://maps.google.com/maps/contrib/104553224588980155827\">cruz alejandro miranda navarro</a>"], "photo_reference": "CmRaAAAAglxy85bteh_fGFYd2aoYQDlqrmDcFTmAWY3gyBFxNknFafPGSPsQdzphTKwv2DUqQgcI7TakK8DEa0vCWaj2YTywm-O-igIvAGcRqTic-dRWmZfxjO5VceLmcMw9BtFxEhBCoqzH0ESEEFXmB0kOX7pGGhRmNY2Iffc2T9eP58jI8ewFEKs_wA", "width": 960}], "place_id": "ChIJj8CGNscHzoURHVqLQpJumc0", "plus_code": {"compound_code": "6VVG+HJ Mexico City", "global_code": "76F26VVG+HJ"}, "rating": 0, "reference": "ChIJj8CGNscHzoURHVqLQpJumc0", "types": ["tourist_attraction", "point_of_interest", "establishment"], "user_ratings_total": 0}, {"business_status": "OPERATIONAL", "formatted_address": "Perif\u00e9rico sur Adolfo Ru\u00edz Cortines, Xochimilco, 16034, Cuidad de mexico CDMX Embarcadero, Cuemanco, 16034 Ciudad de M\u00e9xico, CDMX", "geometry": {"location": {"lat": 19.2868768, "lng": -99.10227189999999}, "viewport": {"northeast": {"lat": 19.28823107989273, "lng": -99.10098132010728}, "southwest": {"lat": 19.28553142010728, "lng": -99.10368097989273}}}, "icon": "https://maps.gstatic.com/mapfiles/place_api/icons/v1/png_71/generic_business-71.png", "name": "Trajineras Xochimilco - Embarcadero Cuemanco", "opening_hours": {"open_now": true}, "photos": [{"height": 540, "html_attributions": ["<a href=\"https://maps.google.com/maps/contrib/109218298995327190254\">A Google User</a>"], "photo_reference": "CmRaAAAA4-xRfASjWtwdTzCx4YnTHXJJSUkbO5zaCCVUM04-zR6RwSgKCVM8aTt-VFgd_JhQ2lN6km1k2o7d2bVp5pediakfoWg-rYc06JZcKXosfwHDUhH3pXiE8y01CY92WhNbEhBwdNKm-kzC-BqYbTmda7ySGhSOdOzLHdkb2pUNyPVXQZ_UXaUodQ", "width": 959}], "place_id": "ChIJGz3Epb0BzoUR1LJ8CfCO6TY", "plus_code": {"compound_code": "7VPX+Q3 Mexico City", "global_code": "76F27VPX+Q3"}, "rating": 4.4, "reference": "ChIJGz3Epb0BzoUR1LJ8CfCO6TY", "types": ["tourist_attraction", "point_of_interest", "establishment"], "user_ratings_total": 57}, {"business_status": "OPERATIONAL", "formatted_address": "13310, Augusto Aguirre #17, San Miguel Zapotitla, Tl\u00e1huac, 13310 Ciudad de M\u00e9xico, CDMX", "geometry": {"location": {"lat": 19.3060617, "lng": -99.03923879999999}, "viewport": {"northeast": {"lat": 19.30741162989272, "lng": -99.03788922010727}, "southwest": {"lat": 19.30471197010728, "lng": -99.04058887989272}}}, "icon": "https://maps.gstatic.com/mapfiles/place_api/icons/v1/png_71/generic_business-71.png", "name": "Temazcal Huitzilin", "opening_hours": {"open_now": true}, "photos": [{"height": 299, "html_attributions": ["<a href=\"https://maps.google.com/maps/contrib/101273319789424264481\">A Google User</a>"], "photo_reference": "CmRaAAAA3Z8s5okcjTots7O8lkDTInZE4rQDXrMoMHsrQlvZaFxSH2YdlKw_OH54mplt65hprHDn0_9a3tvh0WcOH8yEanfhb7C008Y4_iCIiHEbpokazMSk8rsCRIoIRdVD2ik-EhD7ZosViNKhL9rb0arqCthoGhQeh_xt3gJINEBzy7Bq1Dk3Xl7xHA", "width": 534}], "place_id": "ChIJTxSV3DsDzoURTgV95AwQ-zg", "plus_code": {"compound_code": "8X46+C8 Mexico City", "global_code": "76F28X46+C8"}, "rating": 4.8, "reference": "ChIJTxSV3DsDzoURTgV95AwQ-zg", "types": ["tourist_attraction", "point_of_interest", "establishment"], "user_ratings_total": 6}, {"business_status": "OPERATIONAL", "formatted_address": "Chimalpopoca 19, Centro, Cuauht\u00e9moc, 06800 Ciudad de M\u00e9xico, CDMX", "geometry": {"location": {"lat": 19.4221397, "lng": -99.1419183}, "viewport": {"northeast": {"lat": 19.42356562989272, "lng": -99.14057237010726}, "southwest": {"lat": 19.42086597010728, "lng": -99.14327202989271}}}, "icon": "https://maps.gstatic.com/mapfiles/place_api/icons/v1/png_71/generic_business-71.png", "name": "Recorrido de Leyendas", "opening_hours": {"open_now": true}, "place_id": "ChIJT74Ps1f_0YURou1vuFptyhc", "plus_code": {"compound_code": "CVC5+V6 Mexico City", "global_code": "76F2CVC5+V6"}, "rating": 4, "reference": "ChIJT74Ps1f_0YURou1vuFptyhc", "types": ["tourist_attraction", "point_of_interest", "establishment"], "user_ratings_total": 1}, {"business_status": "OPERATIONAL", "formatted_address": "Calle Dr Mora 9, Colonia Centro, Centro, Cuauht\u00e9moc, 06010 Ciudad de M\u00e9xico, CDMX", "geometry": {"location": {"lat": 19.4363035, "lng": -99.14635249999999}, "viewport": {"northeast": {"lat": 19.43762882989272, "lng": -99.14485087010728}, "southwest": {"lat": 19.43492917010728, "lng": -99.14755052989273}}}, "icon": "https://maps.gstatic.com/mapfiles/place_api/icons/v1/png_71/generic_business-71.png", "name": "Mexico at Max - Gay History II", "opening_hours": {"open_now": false}, "photos": [{"height": 540, "html_attributions": ["<a href=\"https://maps.google.com/maps/contrib/109847286561789157065\">A Google User</a>"], "photo_reference": "CmRaAAAAEkFhxJtrXdDKMf5e-KMYUOkg1nsm2uvHlysFU4Plw0T7v_ltRNfA5TGwmpWOMTRwdaRv4MYsQABtlgUFZewHjOXRPsil2grFmT0qtvOrQ3k1a6KPiAJenklu9LL2QgDBEhDSPnwUjr5fGIIivNKT2Z_TGhR4ENsPfy28x4092R06q2D_hRIbJQ", "width": 960}], "place_id": "ChIJwbV_Prz50YURG2RCIuW3jgw", "plus_code": {"compound_code": "CVP3+GF Mexico City", "global_code": "76F2CVP3+GF"}, "rating": 0, "reference": "ChIJwbV_Prz50YURG2RCIuW3jgw", "types": ["tourist_attraction", "point_of_interest", "establishment"], "user_ratings_total": 0}, {"business_status": "OPERATIONAL", "formatted_address": "Calle de Venustiano Carranza 50, Centro Hist\u00f3rico de la Cdad. de M\u00e9xico, Centro, Cuauht\u00e9moc, 06000 Centro, CDMX", "geometry": {"location": {"lat": 19.4315498, "lng": -99.1372662}, "viewport": {"northeast": {"lat": 19.43286687989272, "lng": -99.13596467010727}, "southwest": {"lat": 19.43016722010727, "lng": -99.13866432989272}}}, "icon": "https://maps.gstatic.com/mapfiles/place_api/icons/v1/png_71/generic_business-71.png", "name": "Las Delicias de Do\u00f1a Mary", "opening_hours": {"open_now": true}, "photos": [{"height": 1200, "html_attributions": ["<a href=\"https://maps.google.com/maps/contrib/112247009672734893938\">A Google User</a>"], "photo_reference": "CmRaAAAAh6KJZH5ArtJKQzWPSpuYJmVFAx8Ix2flmIT2Q_8jm7nZvs2lsV87eQiHMS9iG402D6ddLN3WDR0vjwAN-1ZDUwwqEhSzRJH3YgvhCQhLEG7izgEEojed2IRrH6zbSN8yEhDzI37oFT2bpOoaK8Da4O0_GhQd6Mw9J_Ak-ZX7aYKSis4QHl5LvA", "width": 1600}], "place_id": "ChIJV8lQRcn_0YURzenkcqvMseM", "plus_code": {"compound_code": "CVJ7+J3 Centro, Mexico City", "global_code": "76F2CVJ7+J3"}, "rating": 5, "reference": "ChIJV8lQRcn_0YURzenkcqvMseM", "types": ["tourist_attraction", "point_of_interest", "establishment"], "user_ratings_total": 3}, {"business_status": "OPERATIONAL", "formatted_address": "Av. Insurgentes Sur, Extremadura Insurgentes, Benito Ju\u00e1rez, 03740 Ciudad de M\u00e9xico, CDMX", "geometry": {"location": {"lat": 19.3783839, "lng": -99.1786219}, "viewport": {"northeast": {"lat": 19.37959847989272, "lng": -99.17678817010727}, "southwest": {"lat": 19.37689882010728, "lng": -99.17948782989271}}}, "icon": "https://maps.gstatic.com/mapfiles/place_api/icons/v1/png_71/generic_business-71.png", "name": "Reloj Floral", "opening_hours": {"open_now": true}, "photos": [{"height": 2976, "html_attributions": ["<a href=\"https://maps.google.com/maps/contrib/101810625720859271218\">Ana Elena Espinosa</a>"], "photo_reference": "CmRaAAAAsHz6Bh_ftJ1Nx9gjvNTzHP5ORGnHd4OYyS1tl5oxFgQuHbk2rjlkk1gHPtLRFlsZLs3NCLodJKEYSeTKjBInD6Fzm8VJ3vYp-u0_qa2tcL7M44hDbr_PwERKRRFGh9j1EhD3ui-PXMyd_pWYtjZgTzaMGhQo_Vz1dEZYH2H1_viQmEDvvC0xuw", "width": 3968}], "place_id": "ChIJkU1sq5z_0YURw_OYMq2HzKA", "plus_code": {"compound_code": "9RHC+9H Mexico City", "global_code": "76F29RHC+9H"}, "rating": 4.6, "reference": "ChIJkU1sq5z_0YURw_OYMq2HzKA", "types": ["tourist_attraction", "point_of_interest", "establishment"], "user_ratings_total": 60}, {"business_status": "OPERATIONAL", "formatted_address": "Felipe Carrillo Puerto 19, Coyoac\u00e1n TNT, Coyoac\u00e1n, 04000 Ciudad de M\u00e9xico, CDMX", "geometry": {"location": {"lat": 19.3480309, "lng": -99.1636649}, "viewport": {"northeast": {"lat": 19.34936597989272, "lng": -99.16220197010729}, "southwest": {"lat": 19.34666632010728, "lng": -99.16490162989274}}}, "icon": "https://maps.gstatic.com/mapfiles/place_api/icons/v1/png_71/generic_business-71.png", "name": "Centro De Coyoacan", "opening_hours": {"open_now": true}, "photos": [{"height": 3464, "html_attributions": ["<a href=\"https://maps.google.com/maps/contrib/102317492469176952417\">A Google User</a>"], "photo_reference": "CmRaAAAAkuOy3295o0-QPE9su0Oqu6ASRrvJydapjPnagbxCwMoZxT7I2xX72wXkICSJJI9Vkf2yB79UBPgQm8sZ3999pi4RiAB3LII0rbTsHqSsDgxzusshgdoownk6yhqO_RCjEhAXv1r1P4zgBClz5L5rJu2oGhS7VVN6KWLhxswXljr87Hg2nWWUZQ", "width": 4618}], "place_id": "ChIJ0civs9z_0YURgaH7i5yD6Jw", "plus_code": {"compound_code": "8RXP+6G Mexico City", "global_code": "76F28RXP+6G"}, "rating": 4.7, "reference": "ChIJ0civs9z_0YURgaH7i5yD6Jw", "types": ["tourist_attraction", "point_of_interest", "establishment"], "user_ratings_total": 4951}]