[{"business_status": "OPERATIONAL", "formatted_address": "Chimacoatl 13, Estrella del Sur, Iztapalapa, 09820 Ciudad de M\u00e9xico, CDMX", "geometry": {"location": {"lat": 19.3517809, "lng": -99.09898369999999}, "viewport": {"northeast": {"lat": 19.35305317989272, "lng": -99.09766657010728}, "southwest": {"lat": 19.35035352010728, "lng": -99.10036622989273}}}, "icon": "https://maps.gstatic.com/mapfiles/place_api/icons/v1/png_71/shopping-71.png", "name": "Comercializadora Fammax Parts of bicycles and motorcycles", "opening_hours": {"open_now": false}, "place_id": "ChIJpW7lJP390YURab239SMzfRM", "plus_code": {"compound_code": "9W22+PC Mexico City", "global_code": "76F29W22+PC"}, "rating": 4.2, "reference": "ChIJpW7lJP390YURab239SMzfRM", "types": ["bicycle_store", "car_repair", "point_of_interest", "store", "establishment"], "user_ratings_total": 6}, {"business_status": "OPERATIONAL", "formatted_address": "Jacarandas 23, El Molino Iztapalapa, Iztapalapa, 09830 Ciudad de M\u00e9xico, CDMX", "geometry": {"location": {"lat": 19.3555772, "lng": -99.08641039999999}, "viewport": {"northeast": {"lat": 19.35695982989272, "lng": -99.0851298201073}, "southwest": {"lat": 19.35426017010727, "lng": -99.08782947989273}}}, "icon": "https://maps.gstatic.com/mapfiles/place_api/icons/v1/png_71/shopping-71.png", "name": "bicicletas valerio", "opening_hours": {"open_now": false}, "photos": [{"height": 397, "html_attributions": ["<a href=\"https://maps.google.com/maps/contrib/107531322467213672251\">Vicente Valerio</a>"], "photo_reference": "CmRaAAAA75BIfk6XmB0ajSSWeySXsQuDAtfQIE-VA3xc_XW8QaWOMOxWpZ2CJC2lR2NObp5ir2WtVDdON2ZQXa6WIW2EtCo_0t2uuh2d4t1eYugQjZvZ75s5PWybFQjAXaFr-HNZEhDIMNejNJNmI2bpu2zi5ScnGhTAn6WrSN1DNxTNjz7b_FCypbuW_w", "width": 530}], "place_id": "ChIJd_-uW-790YURTqreo7IXRRg", "plus_code": {"compound_code": "9W47+6C Mexico City", "global_code": "76F29W47+6C"}, "rating": 4.5, "reference": "ChIJd_-uW-790YURTqreo7IXRRg", "types": ["bicycle_store", "point_of_interest", "store", "establishment"], "user_ratings_total": 24}, {"business_status": "OPERATIONAL", "formatted_address": "Ermita Iztapalapa 876, Sta B\u00e1rbara, Iztapalapa, 09000 Ciudad de M\u00e9xico, CDMX", "geometry": {"location": {"lat": 19.3560861, "lng": -99.10391659999999}, "viewport": {"northeast": {"lat": 19.35739102989272, "lng": -99.10257107010727}, "southwest": {"lat": 19.35469137010728, "lng": -99.10527072989271}}}, "icon": "https://maps.gstatic.com/mapfiles/place_api/icons/v1/png_71/shopping-71.png", "name": "Super Bike Ermita", "opening_hours": {"open_now": false}, "photos": [{"height": 1920, "html_attributions": ["<a href=\"https://maps.google.com/maps/contrib/109480878016842708926\">Zero Luna</a>"], "photo_reference": "CmRaAAAATI0QqHUmtV02kEqfkva2oOklL5EdIZ-xtcUNnipQxgKsnh32hGqS5ZXD5No0KXHVgqZcNtr9uOOTpkk3rcCT10sDA7lSQMl7ngX6kw6P9xkHGZHlsTi1ONDPFHB3eiaVEhDH05hyA7kNwOG5Casl5-pnGhQFjxiBIi2OpTeXQbzubaCe6pyThg", "width": 1080}], "place_id": "ChIJyZkppgn-0YURDTcoh3AKhho", "plus_code": {"compound_code": "9V4W+CC Mexico City", "global_code": "76F29V4W+CC"}, "rating": 4.2, "reference": "ChIJyZkppgn-0YURDTcoh3AKhho", "types": ["bicycle_store", "point_of_interest", "store", "establishment"], "user_ratings_total": 132}, {"business_status": "OPERATIONAL", "formatted_address": "Ermita Iztapalapa 1781, 8va Amp San Miguel, Iztapalapa, 09837 Ciudad de M\u00e9xico, CDMX", "geometry": {"location": {"lat": 19.3513694, "lng": -99.07615709999999}, "viewport": {"northeast": {"lat": 19.35277837989272, "lng": -99.07477777010727}, "southwest": {"lat": 19.35007872010728, "lng": -99.07747742989272}}}, "icon": "https://maps.gstatic.com/mapfiles/place_api/icons/v1/png_71/shopping-71.png", "name": "INTERBIKE", "opening_hours": {"open_now": true}, "photos": [{"height": 3998, "html_attributions": ["<a href=\"https://maps.google.com/maps/contrib/109648888150256741187\">one two</a>"], "photo_reference": "CmRaAAAAo8Y04qgTNlKC1f7GE6sZ37GKiIAKtBaV-0ecCfsBH3aoIMMs54PNT5jh7mzojjLyw9rpBWNGxK8Jb1Zh1jh68UaZumLDtxBejoBfMtF7gs5gdqwJgjrldWTTb49PtZOiEhDusBHivum3A6tu7bOUtLDgGhTRRNfGwpfx7ZTReTD1Q5_4IiyLhw", "width": 2248}], "place_id": "ChIJXZcpqY390YUR1CRKlvWNzPw", "plus_code": {"compound_code": "9W2F+GG Mexico City", "global_code": "76F29W2F+GG"}, "rating": 3.6, "reference": "ChIJXZcpqY390YUR1CRKlvWNzPw", "types": ["bicycle_store", "point_of_interest", "store", "establishment"], "user_ratings_total": 71}, {"business_status": "OPERATIONAL", "formatted_address": "Av. Tlahuac 1021, Granjas Estrella, Iztapalapa, 09880 Ciudad de M\u00e9xico, CDMX", "geometry": {"location": {"lat": 19.3215988, "lng": -99.09147639999999}, "viewport": {"northeast": {"lat": 19.32291272989272, "lng": -99.09013327010727}, "southwest": {"lat": 19.32021307010728, "lng": -99.09283292989271}}}, "icon": "https://maps.gstatic.com/mapfiles/place_api/icons/v1/png_71/shopping-71.png", "name": "Motocicletas Vento Monk", "opening_hours": {"open_now": false}, "photos": [{"height": 4096, "html_attributions": ["<a href=\"https://maps.google.com/maps/contrib/110637882507528796115\">Yolanda Velazquez</a>"], "photo_reference": "CmRaAAAAn30Ps7C_S-e3wUhBxdlr7d3soLPoR-vBepiWfZ2BbbCbIgs8m3CZ3aBP08jUR9Mbgu3pfp9d1t7Y1tV8oMFk7DQbElqcskOsJuC-oJL10ahwOulvyy47FcAoMRYgs5DDEhCrbdYLT-Y9YNo1TzRF94QcGhTbZFXE4-lYtUeAxCxanq68QGvhTw", "width": 3072}], "place_id": "ChIJdT_qChUCzoURxRi4iXixdvY", "plus_code": {"compound_code": "8WC5+JC Mexico City", "global_code": "76F28WC5+JC"}, "rating": 4.3, "reference": "ChIJdT_qChUCzoURxRi4iXixdvY", "types": ["bicycle_store", "point_of_interest", "store", "establishment"], "user_ratings_total": 75}, {"business_status": "OPERATIONAL", "formatted_address": "Eje 8 Sur (Calz. Ermita Iztapalapa), Constituci\u00f3n de 1917, 09260 Iztapalapa, CDMX", "geometry": {"location": {"lat": 19.3467115, "lng": -99.0645548}, "viewport": {"northeast": {"lat": 19.34803057989272, "lng": -99.06318282010729}, "southwest": {"lat": 19.34533092010728, "lng": -99.06588247989272}}}, "icon": "https://maps.gstatic.com/mapfiles/place_api/icons/v1/png_71/shopping-71.png", "name": "Ferre-Bici Juarez", "opening_hours": {"open_now": false}, "photos": [{"height": 4160, "html_attributions": ["<a href=\"https://maps.google.com/maps/contrib/108785129146590306822\">Roberto Morales</a>"], "photo_reference": "CmRZAAAANru8tFZUoaQuHhSwwYLW_Gbxn1THjMR_RlKbzPfmUAxqVgrBwtCSaV2hto3iwVi8Px8P4hnKwrYkFYMdqJ4FD0RYP1pooISHAMWrBkHo2yEzcBfBDYIhZ9W1YEBgnWoMEhDivNPoqWLw1prY7A_Wx-FdGhTF6I0p9HlTV3NGPMg2mLKwgLzl3A", "width": 3120}], "place_id": "ChIJXXYz7Ib90YURmAv3rQfJBm8", "plus_code": {"compound_code": "8WWP+M5 Mexico City", "global_code": "76F28WWP+M5"}, "rating": 4.2, "reference": "ChIJXXYz7Ib90YURmAv3rQfJBm8", "types": ["bicycle_store", "point_of_interest", "store", "establishment"], "user_ratings_total": 88}, {"business_status": "OPERATIONAL", "formatted_address": "Eje 3, Av. 5, Escuadr\u00f3n 201, 09060 Ciudad de M\u00e9xico, CDMX", "geometry": {"location": {"lat": 19.3589781, "lng": -99.11098109999999}, "viewport": {"northeast": {"lat": 19.36031667989272, "lng": -99.10957777010728}, "southwest": {"lat": 19.35761702010728, "lng": -99.11227742989271}}}, "icon": "https://maps.gstatic.com/mapfiles/place_api/icons/v1/png_71/shopping-71.png", "name": "Oskarbyke taller de reparaci\u00f3n de bicicletas", "opening_hours": {"open_now": false}, "photos": [{"height": 4032, "html_attributions": ["<a href=\"https://maps.google.com/maps/contrib/116226363536134655648\">Oscar Moreno Fosado</a>"], "photo_reference": "CmRaAAAA4GM3BeMZh9K5228gd1pdcQeEEjf2_lvwiowmQKYdv9FhX55bxrYmqZecoYoWni4aAAxHSAXndMzAwkTKI6OEpwrO5jrQY6tDhFb9t4LrVFRTFOLT_zcR76Mkse4U190nEhAfhyS-Y1dDY51E5R7mTUOIGhQQ6uhBDwRWlD3bH9PpOsWew8sNTQ", "width": 3024}], "place_id": "ChIJK3dywg3-0YUR8jBIE-ixmjM", "plus_code": {"compound_code": "9V5Q+HJ Mexico City", "global_code": "76F29V5Q+HJ"}, "rating": 3.9, "reference": "ChIJK3dywg3-0YUR8jBIE-ixmjM", "types": ["bicycle_store", "point_of_interest", "store", "establishment"], "user_ratings_total": 9}, {"business_status": "OPERATIONAL", "formatted_address": "Ermita Iztapalapa 750, Granjas San Antonio, Iztapalapa, 09070 Ciudad de M\u00e9xico, CDMX", "geometry": {"location": {"lat": 19.3565556, "lng": -99.10883729999999}, "viewport": {"northeast": {"lat": 19.35784957989272, "lng": -99.10749347010729}, "southwest": {"lat": 19.35514992010727, "lng": -99.11019312989272}}}, "icon": "https://maps.gstatic.com/mapfiles/place_api/icons/v1/png_71/shopping-71.png", "name": "Latin Retro Bikes", "place_id": "ChIJkV5xbsH_0YURtWmZRWxjCV0", "plus_code": {"compound_code": "9V4R+JF Mexico City", "global_code": "76F29V4R+JF"}, "rating": 0, "reference": "ChIJkV5xbsH_0YURtWmZRWxjCV0", "types": ["bicycle_store", "point_of_interest", "store", "establishment"], "user_ratings_total": 0}, {"business_status": "OPERATIONAL", "formatted_address": "Av. 5 No. 6, Zona Ermita A, Escuadr\u00f3n 201, Iztapalapa, 09060 Ciudad de M\u00e9xico, CDMX", "geometry": {"location": {"lat": 19.3568805, "lng": -99.11153859999999}, "viewport": {"northeast": {"lat": 19.35821267989272, "lng": -99.11010607010726}, "southwest": {"lat": 19.35551302010728, "lng": -99.11280572989271}}}, "icon": "https://maps.gstatic.com/mapfiles/place_api/icons/v1/png_71/shopping-71.png", "name": "BICI CINCO", "opening_hours": {"open_now": true}, "photos": [{"height": 2448, "html_attributions": ["<a href=\"https://maps.google.com/maps/contrib/105276387156078179248\">bicicinco</a>"], "photo_reference": "CmRaAAAAzr7Y-NiOSSTAMDYtJqZfeTakqNpdJKpAy0CACCe2ofey3cjxqSjXvzNox8QCiYfbVbeEbAbg5B7UL8UXNlb3zZjbtcYFCIZNMFNDeG0or05i5_w1LfvlVDWhU3toqPhFEhA0lIwPYNs4q2cIKXM2_tlWGhQqVWqeHg5ZnDE0wJ_jx_cgcTsiQw", "width": 3264}], "place_id": "ChIJg9fbFw7-0YURkSc673Z6MCc", "plus_code": {"compound_code": "9V4Q+Q9 Mexico City", "global_code": "76F29V4Q+Q9"}, "rating": 4.8, "reference": "ChIJg9fbFw7-0YURkSc673Z6MCc", "types": ["bicycle_store", "point_of_interest", "store", "establishment"], "user_ratings_total": 8}, {"business_status": "OPERATIONAL", "formatted_address": "Eje 5 Sur, Av. Leyes de Reforma 1178 A, Leyes de Reforma 3ra Secc, Iztapalapa, 09310 Ciudad de M\u00e9xico, CDMX", "geometry": {"location": {"lat": 19.3769573, "lng": -99.06697229999999}, "viewport": {"northeast": {"lat": 19.37837702989273, "lng": -99.06560852010728}, "southwest": {"lat": 19.37567737010728, "lng": -99.06830817989271}}}, "icon": "https://maps.gstatic.com/mapfiles/place_api/icons/v1/png_71/shopping-71.png", "name": "Garozzo Bikes", "opening_hours": {"open_now": true}, "photos": [{"height": 2160, "html_attributions": ["<a href=\"https://maps.google.com/maps/contrib/117346599946589814935\">Ezequiel Isaac Acu\u00f1a</a>"], "photo_reference": "CmRaAAAArTLqhq0zD2l8TqdUuKqJ0eGrNZNSB0X_nRYON-id-yB1kJnfg6Fw3lh1jxhSP8M6iJ-Ot-AUYto2AZHBH7O4ccoSKAA7EsmsMKctsCv__gVhPhvO1ZISuP1slHhwR7TlEhA0VUyRPYFQwQO2W9k7lpnfGhQDjmMVjbX7DlMk8sIvQxzpJok7qQ", "width": 3840}], "place_id": "ChIJnQ8YQ6X90YUReJ1Mp0Ru5U4", "plus_code": {"compound_code": "9WGM+Q6 Mexico City", "global_code": "76F29WGM+Q6"}, "rating": 3.7, "reference": "ChIJnQ8YQ6X90YUReJ1Mp0Ru5U4", "types": ["bicycle_store", "point_of_interest", "store", "establishment"], "user_ratings_total": 71}, {"business_status": "OPERATIONAL", "formatted_address": "Calz. del Hueso 921, Coapa, Granjas Coapa, Tlalpan, 14330 Ciudad de M\u00e9xico, CDMX", "geometry": {"location": {"lat": 19.2991168, "lng": -99.11016040000001}, "viewport": {"northeast": {"lat": 19.30054637989272, "lng": -99.1087918701073}, "southwest": {"lat": 19.29784672010728, "lng": -99.11149152989273}}}, "icon": "https://maps.gstatic.com/mapfiles/place_api/icons/v1/png_71/shopping-71.png", "name": "Transvision Bike Coapa", "opening_hours": {"open_now": false}, "photos": [{"height": 3024, "html_attributions": ["<a href=\"https://maps.google.com/maps/contrib/114657580204079056023\">SalvaTierrA musik</a>"], "photo_reference": "CmRaAAAAdOmgQ5kK33NsE6pi3hdicfluRNH-3jd597U0Je1Df2Ym6b-zRbsqd__mRD3WgVRR9nsuVargBPDRTzKrQc4dl20HnLz7nDr59YrXUF1zTLVZCgzASNaC3bTJ4NliU63AEhDyJ1kM5H3PbPTmYkFafXedGhQMloEWz2adFDxvUGa4ePpXpLoW-g", "width": 4032}], "place_id": "ChIJSX3NhYQBzoURTHhO8FGAX2g", "plus_code": {"compound_code": "7VXQ+JW Mexico City", "global_code": "76F27VXQ+JW"}, "rating": 3.8, "reference": "ChIJSX3NhYQBzoURTHhO8FGAX2g", "types": ["bicycle_store", "point_of_interest", "store", "establishment"], "user_ratings_total": 70}, {"business_status": "OPERATIONAL", "formatted_address": "Benito Ju\u00e1rez 72 Bis, Los Reyes Culhuacan, Iztapalapa, 09840 Ciudad de M\u00e9xico, CDMX", "geometry": {"location": {"lat": 19.3424749, "lng": -99.1094564}, "viewport": {"northeast": {"lat": 19.34382472989272, "lng": -99.10810657010727}, "southwest": {"lat": 19.34112507010728, "lng": -99.11080622989272}}}, "icon": "https://maps.gstatic.com/mapfiles/place_api/icons/v1/png_71/shopping-71.png", "name": "V\u00e9loM\u00e9xico Bicicleteria", "photos": [{"height": 3024, "html_attributions": ["<a href=\"https://maps.google.com/maps/contrib/100255438913391446529\">A Google User</a>"], "photo_reference": "CmRaAAAAB-fSlkNrgiRQNE5RubPb2_JyKbjo4N-IY10ZxMnJHfD-ZKNSWbN12m2GCwE7Himt3pCVUkq9cXDWBFTaJt23yZWcKcmHo0T5O7lkihZv632MW5MpKtwcmiWkd_iWR5PAEhB1Wm5-BVMJUaJZHBUm28hXGhSPRbtJz3HQ17mvu9UXjyXqB8yS0Q", "width": 4032}], "place_id": "ChIJXfi0mw7_0YUREGsa_CJkUGg", "plus_code": {"compound_code": "8VRR+X6 Mexico City", "global_code": "76F28VRR+X6"}, "rating": 5, "reference": "ChIJXfi0mw7_0YUREGsa_CJkUGg", "types": ["bicycle_store", "point_of_interest", "store", "establishment"], "user_ratings_total": 1}, {"business_status": "OPERATIONAL", "formatted_address": "Av. Leyes de Reforma 1377, Leyes de Reforma 3ra Secc, Iztapalapa, 09310 Ciudad de M\u00e9xico, CDMX", "geometry": {"location": {"lat": 19.3773726, "lng": -99.067644}, "viewport": {"northeast": {"lat": 19.37864577989272, "lng": -99.06630842010728}, "southwest": {"lat": 19.37594612010727, "lng": -99.06900807989273}}}, "icon": "https://maps.gstatic.com/mapfiles/place_api/icons/v1/png_71/shopping-71.png", "name": "BENOTTO", "opening_hours": {"open_now": true}, "photos": [{"height": 5344, "html_attributions": ["<a href=\"https://maps.google.com/maps/contrib/100827044639829473856\">Mauricio Ortega</a>"], "photo_reference": "CmRaAAAAT1DDHhV4KW4XDOeYITJeXoGP8V1GwWdkUvOx4YPWjrKEucmSPrOKba9Zamc3k4qNkY8882oNk5ToDt70Sd1ELT1fE0BdgWrh0S5u0NAaOXA4UW1Gpd90xRrPkQvyAmgbEhAF61HXkkdBx1S1DOvYf_8tGhT98ztNWEsHkOpD6CYdBjCFTSALpw", "width": 4008}], "place_id": "ChIJo3HeUKX90YURj6ty_W9PnZk", "plus_code": {"compound_code": "9WGJ+WW Mexico City", "global_code": "76F29WGJ+WW"}, "rating": 3.9, "reference": "ChIJo3HeUKX90YURj6ty_W9PnZk", "types": ["bicycle_store", "point_of_interest", "store", "establishment"], "user_ratings_total": 139}, {"business_status": "OPERATIONAL", "formatted_address": "Juan Aldama Mz. 1, Guadalupe del Moral, Iztapalapa, 09300 Ciudad de M\u00e9xico, CDMX", "geometry": {"location": {"lat": 19.3681861, "lng": -99.07184350000001}, "viewport": {"northeast": {"lat": 19.36952832989272, "lng": -99.07047407010728}, "southwest": {"lat": 19.36682867010728, "lng": -99.07317372989272}}}, "icon": "https://maps.gstatic.com/mapfiles/place_api/icons/v1/png_71/shopping-71.png", "name": "De ciclistas para ciclistas", "opening_hours": {"open_now": true}, "photos": [{"height": 3024, "html_attributions": ["<a href=\"https://maps.google.com/maps/contrib/116809732970896967947\">Efr\u00e9n Valdez</a>"], "photo_reference": "CmRaAAAAD40ubfvdnehnMy_88HSX3dA7rp0sgngWKyptZU9WI-7-JWL9LKCmK1a8sPyWUxJ7sidoaV3TB1ffAViR_8-ba0I9uYNmSqphVV7lf3rIC6vIyysJqhLMs1Pjn7htJ2TAEhBym19tDfOk1USOC2qDYaMfGhR9nvhtGIyieqVOWy2dv4pdBXIdYA", "width": 4032}], "place_id": "ChIJD7127v_90YURWlchCXji2s8", "plus_code": {"compound_code": "9W9H+77 Guadalupe del Moral, Mexico City", "global_code": "76F29W9H+77"}, "rating": 5, "reference": "ChIJD7127v_90YURWlchCXji2s8", "types": ["bicycle_store", "point_of_interest", "store", "establishment"], "user_ratings_total": 13}, {"business_status": "OPERATIONAL", "formatted_address": "Gonz\u00e1lez Camarena 193, Jacarandas, Iztapalapa, 09280 Ciudad de M\u00e9xico, CDMX", "geometry": {"location": {"lat": 19.3502056, "lng": -99.0511774}, "viewport": {"northeast": {"lat": 19.35155802989272, "lng": -99.04988382010728}, "southwest": {"lat": 19.34885837010728, "lng": -99.05258347989272}}}, "icon": "https://maps.gstatic.com/mapfiles/place_api/icons/v1/png_71/shopping-71.png", "name": "Reparaci\u00f3n De Bicicletas Chirino", "opening_hours": {"open_now": true}, "place_id": "ChIJWWII5Hv90YURrQYpYdAwQyk", "plus_code": {"compound_code": "9W2X+3G Mexico City", "global_code": "76F29W2X+3G"}, "rating": 3, "reference": "ChIJWWII5Hv90YURrQYpYdAwQyk", "types": ["bicycle_store", "point_of_interest", "store", "establishment"], "user_ratings_total": 2}, {"business_status": "OPERATIONAL", "formatted_address": "Anillo Perif. Canal de Garay, Puente Blanco, Iztapalapa, 09770 Ciudad de M\u00e9xico, CDMX", "geometry": {"location": {"lat": 19.3273509, "lng": -99.06827609999999}, "viewport": {"northeast": {"lat": 19.32875372989272, "lng": -99.06699912010727}, "southwest": {"lat": 19.32605407010728, "lng": -99.06969877989272}}}, "icon": "https://maps.gstatic.com/mapfiles/place_api/icons/v1/png_71/shopping-71.png", "name": "INTERBIKE", "opening_hours": {"open_now": true}, "photos": [{"height": 2736, "html_attributions": ["<a href=\"https://maps.google.com/maps/contrib/104132260560546113620\">A Google User</a>"], "photo_reference": "CmRaAAAAw9kyeyYtpZ7hVlU8BOqqWh6YjWLi8idhsIDF78xFez3KGf0JpWfHRXmKWoZ4eMGyLltPTSS4IerHLsNSG0UYaacvw7grfc4_BxWoS47GPy9du-_Ab_NCoa6n5TRNZv9cEhBWlShzKtCYBBSAN67ArfQOGhTOhkk100bPXBRJEnh-QZwcuGndyQ", "width": 3648}], "place_id": "ChIJYYSLfm8CzoURG-SQ0miD950", "plus_code": {"compound_code": "8WGJ+WM Puente Blanco, Mexico City", "global_code": "76F28WGJ+WM"}, "rating": 3.6, "reference": "ChIJYYSLfm8CzoURG-SQ0miD950", "types": ["bicycle_store", "point_of_interest", "store", "establishment"], "user_ratings_total": 101}, {"business_status": "OPERATIONAL", "formatted_address": "Av Leyes de Reforma MZ 123 LT 1312-B, Leyes de Reforma 3ra Secc, Iztapalapa, 09310 CDMX", "geometry": {"location": {"lat": 19.3782319, "lng": -99.07284659999999}, "viewport": {"northeast": {"lat": 19.37951632989272, "lng": -99.07150922010727}, "southwest": {"lat": 19.37681667010728, "lng": -99.07420887989272}}}, "icon": "https://maps.gstatic.com/mapfiles/place_api/icons/v1/png_71/shopping-71.png", "name": "Accesorios y reparacion de bicicletas FENIX BIKE", "opening_hours": {"open_now": false}, "place_id": "ChIJhWo7pbD90YUR_nzSE7mzPbc", "plus_code": {"compound_code": "9WHG+7V Leyes de Reforma 3ra Secc, Mexico City", "global_code": "76F29WHG+7V"}, "rating": 2.3, "reference": "ChIJhWo7pbD90YUR_nzSE7mzPbc", "types": ["bicycle_store", "point_of_interest", "store", "establishment"], "user_ratings_total": 3}, {"business_status": "OPERATIONAL", "formatted_address": "Calle 25 de septiembre 1873 #2206 mz 187, Leyes de Reforma 3ra sec, 09310 Iztapalapa, CDMX", "geometry": {"location": {"lat": 19.3814164, "lng": -99.0610327}, "viewport": {"northeast": {"lat": 19.38276322989272, "lng": -99.05960927010729}, "southwest": {"lat": 19.38006357010728, "lng": -99.06230892989272}}}, "icon": "https://maps.gstatic.com/mapfiles/place_api/icons/v1/png_71/shopping-71.png", "name": "Agencia De Bicicletas Mart\u00edn", "opening_hours": {"open_now": false}, "place_id": "ChIJ-WSsHqn90YURwDRZYu0pTk8", "plus_code": {"compound_code": "9WJQ+HH Mexico City", "global_code": "76F29WJQ+HH"}, "rating": 1, "reference": "ChIJ-WSsHqn90YURwDRZYu0pTk8", "types": ["bicycle_store", "point_of_interest", "store", "establishment"], "user_ratings_total": 1}, {"business_status": "OPERATIONAL", "formatted_address": "Sur 157 1414, Amp Ramos Mill\u00e1n, Iztacalco, 08020 Ciudad de M\u00e9xico, CDMX", "geometry": {"location": {"lat": 19.3853575, "lng": -99.09622859999999}, "viewport": {"northeast": {"lat": 19.38670852989272, "lng": -99.09489112010728}, "southwest": {"lat": 19.38400887010728, "lng": -99.09759077989273}}}, "icon": "https://maps.gstatic.com/mapfiles/place_api/icons/v1/png_71/shopping-71.png", "name": "Taller de Bicicletas", "place_id": "ChIJ92Ymh9T90YURfs889bEbJ9s", "plus_code": {"compound_code": "9WP3+4G Mexico City", "global_code": "76F29WP3+4G"}, "rating": 5, "reference": "ChIJ92Ymh9T90YURfs889bEbJ9s", "types": ["bicycle_store", "point_of_interest", "store", "establishment"], "user_ratings_total": 2}, {"business_status": "OPERATIONAL", "formatted_address": "Ingenieros Petroleros 35, Nueva Rosita, Iztacalco, 09420 Ciudad de M\u00e9xico, CDMX", "geometry": {"location": {"lat": 19.3783059, "lng": -99.1040338}, "viewport": {"northeast": {"lat": 19.37966477989272, "lng": -99.10272852010726}, "southwest": {"lat": 19.37696512010728, "lng": -99.10542817989271}}}, "icon": "https://maps.gstatic.com/mapfiles/place_api/icons/v1/png_71/shopping-71.png", "name": "Taller de bicicletas mundo", "opening_hours": {"open_now": true}, "photos": [{"height": 2048, "html_attributions": ["<a href=\"https://maps.google.com/maps/contrib/100270418563710896348\">A Google User</a>"], "photo_reference": "CmRaAAAAkAVDkIZaiULPULTdRTW8yhF5HURrPcWzCYVsFWAZNpfIYKVzpmEM1DvDx4wje4n6m3JnDn7bVqIl1Kh5AW-Kvy2t4Eb123Mzu04oy0EsCkFiCQwa11zZTEg_1T_PnJnBEhBnyT8jXdNWuv2y4M2RdfH0GhQ_WRtnOSRed1KHYbeUr4n18hLT8w", "width": 1536}], "place_id": "ChIJ2QdNrXn-0YUR2DnlgYP9FIc", "plus_code": {"compound_code": "9VHW+89 Mexico City", "global_code": "76F29VHW+89"}, "rating": 3, "reference": "ChIJ2QdNrXn-0YUR2DnlgYP9FIc", "types": ["bicycle_store", "point_of_interest", "store", "establishment"], "user_ratings_total": 1}]