[{"business_status": "OPERATIONAL", "formatted_address": "Ermita Iztapalapa 160, El Santuario, Iztapalapa, 09820 Ciudad de M\u00e9xico, CDMX", "geometry": {"location": {"lat": 19.3553341, "lng": -99.0957751}, "viewport": {"northeast": {"lat": 19.35688177989272, "lng": -99.09445637010728}, "southwest": {"lat": 19.35418212010728, "lng": -99.09715602989273}}}, "icon": "https://maps.gstatic.com/mapfiles/place_api/icons/v1/png_71/bank-71.png", "name": "BBVA Ermita", "opening_hours": {"open_now": false}, "photos": [{"height": 2448, "html_attributions": ["<a href=\"https://maps.google.com/maps/contrib/112341756235486963350\">Dj Dark</a>"], "photo_reference": "CmRaAAAA2bcmQ-F3gSGIPxag-iGhvAiq0D9Q0OslEvUmpuCCGF0do1aqzh2tPApIhQO0-PG_KZakwURYIxPGj05tjpaVMmFl5W-ZHxJ6fjxrCnsDzvjWvDVh-9JE9ymLSYCSMBj2EhC2Hy_juJ7px-kCnhtq3O3xGhSKQVsCUdzMjP1IoYhPEERxePW9eg", "width": 3264}], "place_id": "ChIJO4AAh-T90YUR1-CJ41C18bE", "plus_code": {"compound_code": "9W43+4M Mexico City", "global_code": "76F29W43+4M"}, "rating": 3, "reference": "ChIJO4AAh-T90YUR1-CJ41C18bE", "types": ["bank", "atm", "finance", "point_of_interest", "establishment"], "user_ratings_total": 5}, {"business_status": "OPERATIONAL", "formatted_address": "Eje Vial 8 Sur, Ermita Iztapalapa 203, San Lucas, Iztapalapa, 09470 CDMX", "geometry": {"location": {"lat": 19.3553822, "lng": -99.09743879999999}, "viewport": {"northeast": {"lat": 19.35680432989272, "lng": -99.09609807010727}, "southwest": {"lat": 19.35410467010728, "lng": -99.09879772989271}}}, "icon": "https://maps.gstatic.com/mapfiles/place_api/icons/v1/png_71/bank-71.png", "name": "Grupo Financiero Banorte Corresponsal DELEG IZTAPALAPA D F ERMITA SINATEL", "place_id": "ChIJ_Zogqv790YUR3WWL8bwu83I", "plus_code": {"compound_code": "9W43+52 San Lucas, Mexico City", "global_code": "76F29W43+52"}, "rating": 0, "reference": "ChIJ_Zogqv790YUR3WWL8bwu83I", "types": ["bank", "finance", "point_of_interest", "establishment"], "user_ratings_total": 0}, {"business_status": "OPERATIONAL", "formatted_address": "Privada Ermita Iztapalapa MZ1 LTSN, Amp Ricardo Flores Mag\u00f3n, Iztapalapa, 09828 Ciudad de M\u00e9xico, CDMX", "geometry": {"location": {"lat": 19.3551428, "lng": -99.0996301}, "viewport": {"northeast": {"lat": 19.35651272989272, "lng": -99.09837252010729}, "southwest": {"lat": 19.35381307010728, "lng": -99.10107217989274}}}, "icon": "https://maps.gstatic.com/mapfiles/place_api/icons/v1/png_71/bank-71.png", "name": "Compartamos Banco Iztapalapa", "opening_hours": {"open_now": false}, "photos": [{"height": 4608, "html_attributions": ["<a href=\"https://maps.google.com/maps/contrib/101226785813533469313\">A Google User</a>"], "photo_reference": "CmRaAAAAT0EDRFZGxldJeJaxyAGK4h0o2byMVUArIGH3qnhLtQEBCuHBexZG-AyIEFUuYC4u8oir2n3CZ3UAZeNdsxI0e7ppmEjnOiz1HE6imnUTPKMs48ysOBfqMuZEnz921E1KEhCVFKE6-UCGxXuhRxjpEcvsGhSwlaTRlnb9ivfRdhyBVXdj3Fp2Mg", "width": 3456}], "place_id": "ChIJ5dsS9OL90YUReAbA8oTlQLA", "plus_code": {"compound_code": "9W42+34 Mexico City", "global_code": "76F29W42+34"}, "rating": 4, "reference": "ChIJ5dsS9OL90YUReAbA8oTlQLA", "types": ["bank", "finance", "point_of_interest", "establishment"], "user_ratings_total": 2}, {"business_status": "OPERATIONAL", "formatted_address": "Ermita Iztapalapa 1042, San Lucas, Iztapalapa, 09000 Ciudad de M\u00e9xico, CDMX", "geometry": {"location": {"lat": 19.3566731, "lng": -99.0984544}, "viewport": {"northeast": {"lat": 19.35792957989272, "lng": -99.09708867010727}, "southwest": {"lat": 19.35522992010727, "lng": -99.09978832989272}}}, "icon": "https://maps.gstatic.com/mapfiles/place_api/icons/v1/png_71/bank-71.png", "name": "BBVA", "opening_hours": {"open_now": false}, "photos": [{"height": 900, "html_attributions": ["<a href=\"https://maps.google.com/maps/contrib/113640324241377697467\">BBVA BANCOMER IZTAPALAPA</a>"], "photo_reference": "CmRaAAAAPOrI_3-B1d3OrWzu0TdAYR9B1BDj-B9hzivADY6o3UjwRvjVUXz14JhlJwXphEqTHlaPJXATQ2SmQiJKJpCEkA0T0FlnxzhP59142yyGwt3-oPtol4JlIy_RUuNs9IAoEhBWRH3a6l8AmA-uFaK0WALFGhRgNOlSJZNmivIVYSbtmk8p3oStUA", "width": 1600}], "place_id": "ChIJQfs9s-P90YURHIAjzOZ_1E4", "plus_code": {"compound_code": "9W42+MJ Mexico City", "global_code": "76F29W42+MJ"}, "rating": 2.7, "reference": "ChIJQfs9s-P90YURHIAjzOZ_1E4", "types": ["bank", "atm", "finance", "point_of_interest", "establishment"], "user_ratings_total": 21}, {"business_status": "OPERATIONAL", "formatted_address": "Ermita Iztapalapa 1441, El Molino Iztapalapa, Iztapalapa, 09830 Ciudad de M\u00e9xico, CDMX", "geometry": {"location": {"lat": 19.3559018, "lng": -99.0861683}, "viewport": {"northeast": {"lat": 19.35725162989272, "lng": -99.08481847010728}, "southwest": {"lat": 19.35455197010727, "lng": -99.08751812989273}}}, "icon": "https://maps.gstatic.com/mapfiles/place_api/icons/v1/png_71/bank-71.png", "name": "Scotiabank", "opening_hours": {"open_now": false}, "photos": [{"height": 3024, "html_attributions": ["<a href=\"https://maps.google.com/maps/contrib/108166672272246752782\">Guillermo Guerrero</a>"], "photo_reference": "CmRaAAAA3BSRKyuPO-oN4Z_86O0ulhFY2TV-QLoOvX9dosv7wIDxK-3YIdg1vYuj1Lyr7oOGUhNC8qKMcuhcdgtW9592rRV8CxCKqp-_DL9j5qRiu2qAMt3I9iBGy0iRgEIDxWK0EhADNmNa0dFLqkxfygcmRgh0GhRlMzd3wxk4wPuKqF5oVKKfNcP3Dw", "width": 4032}], "place_id": "ChIJh8tl1Qn-0YUR-x4j2YtbCjM", "plus_code": {"compound_code": "9W47+9G Mexico City", "global_code": "76F29W47+9G"}, "rating": 3.1, "reference": "ChIJh8tl1Qn-0YUR-x4j2YtbCjM", "types": ["bank", "atm", "finance", "point_of_interest", "establishment"], "user_ratings_total": 22}, {"business_status": "OPERATIONAL", "formatted_address": "CALZ ERMITA IZTAPAA 1029, BARRIO, Iztapalapa, 09000 Santa B\u00e1rbara, CDMX", "geometry": {"location": {"lat": 19.356273, "lng": -99.09916899999999}, "viewport": {"northeast": {"lat": 19.35767272989272, "lng": -99.09782737010728}, "southwest": {"lat": 19.35497307010728, "lng": -99.10052702989273}}}, "icon": "https://maps.gstatic.com/mapfiles/place_api/icons/v1/png_71/bank-71.png", "name": "Grupo Financiero Banorte Corresponsal IZTAPALAPA", "place_id": "ChIJEXDE-nn90YURBKLnW4Pz1EY", "plus_code": {"compound_code": "9W42+G8 Mexico City", "global_code": "76F29W42+G8"}, "rating": 1, "reference": "ChIJEXDE-nn90YURBKLnW4Pz1EY", "types": ["bank", "finance", "point_of_interest", "establishment"], "user_ratings_total": 1}, {"business_status": "OPERATIONAL", "formatted_address": "Ermita Iztapalapa 1328, San Pablo, Iztapalapa, 09000 Ciudad de M\u00e9xico, CDMX", "geometry": {"location": {"lat": 19.358583, "lng": -99.08908199999999}, "viewport": {"northeast": {"lat": 19.35985367989272, "lng": -99.08776987010727}, "southwest": {"lat": 19.35715402010728, "lng": -99.09046952989272}}}, "icon": "https://maps.gstatic.com/mapfiles/place_api/icons/v1/png_71/bank-71.png", "name": "Banco Azteca", "opening_hours": {"open_now": true}, "place_id": "ChIJ8RAHRSz90YURnotONsSbIzA", "plus_code": {"compound_code": "9W56+C9 Mexico City", "global_code": "76F29W56+C9"}, "rating": 1, "reference": "ChIJ8RAHRSz90YURnotONsSbIzA", "types": ["bank", "finance", "point_of_interest", "establishment"], "user_ratings_total": 2}, {"business_status": "OPERATIONAL", "formatted_address": "Ermita Iztapalapa 1441, El Manto, Iztapalapa, 09830 Ciudad de M\u00e9xico, CDMX", "geometry": {"location": {"lat": 19.3560486, "lng": -99.0867493}, "viewport": {"northeast": {"lat": 19.35752087989272, "lng": -99.08534317010728}, "southwest": {"lat": 19.35482122010728, "lng": -99.08804282989271}}}, "icon": "https://maps.gstatic.com/mapfiles/place_api/icons/v1/png_71/bank-71.png", "name": "banco bangio", "place_id": "ChIJufx80wn-0YUR7l_5RI1hZMg", "plus_code": {"compound_code": "9W47+C8 Mexico City", "global_code": "76F29W47+C8"}, "rating": 0, "reference": "ChIJufx80wn-0YUR7l_5RI1hZMg", "types": ["bank", "finance", "point_of_interest", "establishment"], "user_ratings_total": 0}, {"business_status": "OPERATIONAL", "formatted_address": "Ermita Iztapalapa 31, San Lucas, Iztapalapa, 09000 Ciudad de M\u00e9xico, CDMX", "geometry": {"location": {"lat": 19.357665, "lng": -99.09407999999999}, "viewport": {"northeast": {"lat": 19.35902897989272, "lng": -99.09273467010729}, "southwest": {"lat": 19.35632932010728, "lng": -99.09543432989274}}}, "icon": "https://maps.gstatic.com/mapfiles/place_api/icons/v1/png_71/bank-71.png", "name": "Grupo Financiero Banorte Corresponsal EJE 8 MEX", "place_id": "ChIJC_0wCg_90YURM5-Gyyd3dhc", "plus_code": {"compound_code": "9W54+39 San Lucas, Mexico City", "global_code": "76F29W54+39"}, "rating": 0, "reference": "ChIJC_0wCg_90YURM5-Gyyd3dhc", "types": ["bank", "finance", "point_of_interest", "establishment"], "user_ratings_total": 0}, {"business_status": "OPERATIONAL", "formatted_address": "No. 1441, Ermita Iztapalapa, Molino Cerro De La Estrella, El Molino Iztapalapa, Iztapalapa, 09830 Ciudad de M\u00e9xico, CDMX", "geometry": {"location": {"lat": 19.3558316, "lng": -99.0862904}, "viewport": {"northeast": {"lat": 19.35732237989272, "lng": -99.08488457010728}, "southwest": {"lat": 19.35462272010728, "lng": -99.08758422989273}}}, "icon": "https://maps.gstatic.com/mapfiles/place_api/icons/v1/png_71/bank-71.png", "name": "BanBaj\u00edo Cajero Ermita", "opening_hours": {"open_now": false}, "photos": [{"height": 1592, "html_attributions": ["<a href=\"https://maps.google.com/maps/contrib/105143792918166207379\">German Mora</a>"], "photo_reference": "CmRaAAAA2S0P5tlgFW24dC4v1jJcMW8AJ5WjVskg8FYslWuB9-NOn7YAA2aHggDfV9O7yqz-URyQqrNNduFiAv2gxvUSXCkl8gkDpGvqH3AwHFSIpx9-kYgRg7p7VXNIWwlViBpnEhCqeFjDxId8xcqx1gHgt-7hGhSaXDvFDfXJHeG5GraOneKgNxbUEA", "width": 3141}], "place_id": "ChIJVVXRXe790YURJxD6RaKjrgA", "plus_code": {"compound_code": "9W47+8F Mexico City", "global_code": "76F29W47+8F"}, "rating": 4.6, "reference": "ChIJVVXRXe790YURJxD6RaKjrgA", "types": ["bank", "finance", "point_of_interest", "establishment"], "user_ratings_total": 7}, {"business_status": "OPERATIONAL", "formatted_address": "Ermita Iztapalapa # 920, Local C, Barrio, Sta B\u00e1rbara, Iztapalapa, 09000 CDMX", "geometry": {"location": {"lat": 19.3561, "lng": -99.10119999999999}, "viewport": {"northeast": {"lat": 19.35741427989272, "lng": -99.09984442010727}, "southwest": {"lat": 19.35471462010728, "lng": -99.10254407989272}}}, "icon": "https://maps.gstatic.com/mapfiles/place_api/icons/v1/png_71/bank-71.png", "name": "Grupo Financiero Banorte Sucursal", "place_id": "ChIJHTYwsFX90YURPEVJK6_uKjs", "plus_code": {"compound_code": "9V4X+CG Sta B\u00e1rbara, Mexico City", "global_code": "76F29V4X+CG"}, "rating": 1, "reference": "ChIJHTYwsFX90YURPEVJK6_uKjs", "types": ["bank", "finance", "point_of_interest", "establishment"], "user_ratings_total": 1}, {"business_status": "OPERATIONAL", "formatted_address": "Cristobal Colon, Ermita Iztapalapa 79, Iztapalapa, 09360 Ciudad de M\u00e9xico", "geometry": {"location": {"lat": 19.3586664, "lng": -99.0890496}, "viewport": {"northeast": {"lat": 19.36001622989272, "lng": -99.08769977010729}, "southwest": {"lat": 19.35731657010728, "lng": -99.09039942989273}}}, "icon": "https://maps.gstatic.com/mapfiles/place_api/icons/v1/png_71/bank-71.png", "name": "Banco Azteca", "opening_hours": {"open_now": true}, "photos": [{"height": 480, "html_attributions": ["<a href=\"https://maps.google.com/maps/contrib/114435834464310276808\">A Google User</a>"], "photo_reference": "CmRaAAAAjYk9Bx1HvJDrt1J095747xRpH6j1qABnyDRrNYxfh00enWOpjcXp1T7nc5Q-3p3kxRlj03u6XiaLX0xrCRnRiSVnUvkzHbGD9YuEE27zbS8-KbS4MIR_h6iqm5wMKwKvEhBxJiXGQ324g58cIt66stiZGhR387cmqY_1pVGFagORB2w-YynU4A", "width": 853}], "place_id": "ChIJnXi0c5Mf0oURVL8ZPey9wRY", "plus_code": {"compound_code": "9W56+F9 Mexico City", "global_code": "76F29W56+F9"}, "rating": 4.5, "reference": "ChIJnXi0c5Mf0oURVL8ZPey9wRY", "types": ["bank", "finance", "point_of_interest", "establishment"], "user_ratings_total": 2}, {"business_status": "OPERATIONAL", "formatted_address": "EL DESCANSO sn SAN JUAN, Coapanoaya, 52740 Ocoyoacac, CDMX", "geometry": {"location": {"lat": 19.356844, "lng": -99.08649899999999}, "viewport": {"northeast": {"lat": 19.35818512989272, "lng": -99.08513167010727}, "southwest": {"lat": 19.35548547010728, "lng": -99.08783132989272}}}, "icon": "https://maps.gstatic.com/mapfiles/place_api/icons/v1/png_71/bank-71.png", "name": "Grupo Financiero Banorte Corresponsal SAN JUAN TLC", "place_id": "ChIJXb6DN8v90YURvUh8NQA9Hv4", "plus_code": {"compound_code": "9W47+PC Mexico City", "global_code": "76F29W47+PC"}, "rating": 0, "reference": "ChIJXb6DN8v90YURvUh8NQA9Hv4", "types": ["bank", "finance", "point_of_interest", "establishment"], "user_ratings_total": 0}, {"business_status": "OPERATIONAL", "formatted_address": "TECNICOS MEX 60, Plan de Iguala, Iztapalapa, 09838 Ciudad de M\u00e9xico, CDMX", "geometry": {"location": {"lat": 19.3553907, "lng": -99.0851361}, "viewport": {"northeast": {"lat": 19.35667917989272, "lng": -99.08384662010728}, "southwest": {"lat": 19.35397952010728, "lng": -99.08654627989273}}}, "icon": "https://maps.gstatic.com/mapfiles/place_api/icons/v1/png_71/bank-71.png", "name": "Grupo Financiero Banorte Corresponsal TECNICOS MEX", "place_id": "ChIJvcxA5UD90YUR_FjHSxF0jwE", "plus_code": {"compound_code": "9W47+5W Plan de Iguala, Mexico City", "global_code": "76F29W47+5W"}, "rating": 1, "reference": "ChIJvcxA5UD90YUR_FjHSxF0jwE", "types": ["bank", "finance", "point_of_interest", "establishment"], "user_ratings_total": 1}, {"business_status": "OPERATIONAL", "formatted_address": "Esq. Gral. Anaya. Interior de la Plaza Aristeum \u12a4\u122d\u121a\u1273, Santa Isabel Industrial, Iztapalapa, 09820 Ciudad de M\u00e9xico", "geometry": {"location": {"lat": 19.3556017, "lng": -99.1019049}, "viewport": {"northeast": {"lat": 19.35702107989272, "lng": -99.10054942010728}, "southwest": {"lat": 19.35432142010728, "lng": -99.10324907989272}}}, "icon": "https://maps.gstatic.com/mapfiles/place_api/icons/v1/png_71/bank-71.png", "name": "Santander", "opening_hours": {"open_now": false}, "photos": [{"height": 463, "html_attributions": ["<a href=\"https://maps.google.com/maps/contrib/105143792918166207379\">German Mora</a>"], "photo_reference": "CmRaAAAAAh_2UfUv16gVYsaccwdkN_u-gxLZrqbk6Bo2qx3Bu6D7CxXuDao9jPzFQ23eJakAtcuWjPlf3TCOrki9VoczsKlHj0CSgvbRX493ogwtneCqSnYttcuT-mLULy_UDCuLEhB1dz6NBGmfFW_u9kj7s48JGhTGBIJQ7P0dQcSI8Jgk6NmFOdEFUQ", "width": 949}], "place_id": "ChIJa7Zh0gn-0YURhi9TRdea4bk", "plus_code": {"compound_code": "9V4X+66 Mexico City", "global_code": "76F29V4X+66"}, "rating": 2.4, "reference": "ChIJa7Zh0gn-0YURhi9TRdea4bk", "types": ["bank", "finance", "point_of_interest", "establishment"], "user_ratings_total": 20}, {"business_status": "OPERATIONAL", "formatted_address": "Camino Cerro de la Estrella 4, San Pablo, Iztapalapa, 09000 Ciudad de M\u00e9xico, CDMX", "geometry": {"location": {"lat": 19.3583684, "lng": -99.0898768}, "viewport": {"northeast": {"lat": 19.35975722989272, "lng": -99.08858827010728}, "southwest": {"lat": 19.35705757010728, "lng": -99.09128792989273}}}, "icon": "https://maps.gstatic.com/mapfiles/place_api/icons/v1/png_71/bank-71.png", "name": "BBVA Ermita El Manto", "opening_hours": {"open_now": false}, "photos": [{"height": 900, "html_attributions": ["<a href=\"https://maps.google.com/maps/contrib/104253764838598174889\">BBVA BANCOMER ERMITA EL MANTO</a>"], "photo_reference": "CmRaAAAAeJwIMlOcifikr7NZ2x3Of6ExkeNwqq87T_28BzTYVD61kOEw6zMh6f8a1lnfuEaR444kxP2X-AHWncGbxAgBcWAjvhXdJjCc0fzwzeqZfWetR3kimzwFTke_LsMv1WSKEhAvGt7UxRqUI1t9sb9Ass7LGhTlQvAgnMTSdki5I8M0Fn01RyMbvA", "width": 1600}], "place_id": "ChIJP6IwUe_90YURMFfgfh7E-ms", "plus_code": {"compound_code": "9W56+82 Mexico City", "global_code": "76F29W56+82"}, "rating": 3.1, "reference": "ChIJP6IwUe_90YURMFfgfh7E-ms", "types": ["bank", "atm", "finance", "point_of_interest", "establishment"], "user_ratings_total": 12}, {"business_status": "OPERATIONAL", "formatted_address": "Av. Tlahuac 46, Santa Isabel Industrial, Iztapalapa, 09820 Ciudad de M\u00e9xico, CDMX", "geometry": {"location": {"lat": 19.3555727, "lng": -99.1018108}, "viewport": {"northeast": {"lat": 19.35700307989272, "lng": -99.10045442010727}, "southwest": {"lat": 19.35430342010728, "lng": -99.10315407989272}}}, "icon": "https://maps.gstatic.com/mapfiles/place_api/icons/v1/png_71/bank-71.png", "name": "Cr\u00e9dito Familiar Sucursal Ermita Tl\u00e1huac", "opening_hours": {"open_now": false}, "place_id": "ChIJETv53gj-0YUR7m5XkmIBeOY", "plus_code": {"compound_code": "9V4X+67 Mexico City", "global_code": "76F29V4X+67"}, "rating": 2.7, "reference": "ChIJETv53gj-0YUR7m5XkmIBeOY", "types": ["bank", "finance", "point_of_interest", "establishment"], "user_ratings_total": 3}, {"business_status": "OPERATIONAL", "formatted_address": "Avenida, Ermita Iztapalapa 920, Sta B\u00e1rbara, Iztapalapa, 09000 Ciudad de M\u00e9xico, CDMX", "geometry": {"location": {"lat": 19.3560229, "lng": -99.1029654}, "viewport": {"northeast": {"lat": 19.35731887989272, "lng": -99.10161932010729}, "southwest": {"lat": 19.35461922010728, "lng": -99.10431897989274}}}, "icon": "https://maps.gstatic.com/mapfiles/place_api/icons/v1/png_71/bank-71.png", "name": "Banca Afirme S.A.", "opening_hours": {"open_now": false}, "photos": [{"height": 2988, "html_attributions": ["<a href=\"https://maps.google.com/maps/contrib/105143792918166207379\">German Mora</a>"], "photo_reference": "CmRaAAAAGWWljHx7pli_JaBKYFJzOUhUJDRHHM5p0xNwJ0oF2MpOiOuPlCRNHpN8GKSj4x2fIhbM_wNo6dT1S65Nxa2iu4oG9sdKX7lEBA2-HeQRziIa-0rtBnHb17e1wqfP5QdXEhAhtkc0XFhKOgYUg5msnL1kGhTSlDX-o35hEHXcBdhaEWu4CSWq8g", "width": 5312}], "place_id": "ChIJg2AXYuL90YURhrnQaPXUX3w", "plus_code": {"compound_code": "9V4W+CR Mexico City", "global_code": "76F29V4W+CR"}, "rating": 2.7, "reference": "ChIJg2AXYuL90YURhrnQaPXUX3w", "types": ["bank", "atm", "finance", "point_of_interest", "establishment"], "user_ratings_total": 17}, {"business_status": "OPERATIONAL", "formatted_address": "Calzada Ermita Iztapalapa, Sta. Isabel 835, Industrial, Iztapalapa, 09820 Ciudad de M\u00e9xico", "geometry": {"location": {"lat": 19.3558706, "lng": -99.1052825}, "viewport": {"northeast": {"lat": 19.35722042989272, "lng": -99.1039326701073}, "southwest": {"lat": 19.35452077010728, "lng": -99.10663232989273}}}, "icon": "https://maps.gstatic.com/mapfiles/place_api/icons/v1/png_71/bank-71.png", "name": "Banco Azteca", "opening_hours": {"open_now": true}, "photos": [{"height": 480, "html_attributions": ["<a href=\"https://maps.google.com/maps/contrib/116136884104819211055\">A Google User</a>"], "photo_reference": "CmRaAAAAbuORzeBcIxT_4NN5PU8EvD_r6gTtbq3D-u_w1hwkRG01j3-3ZfTY3aANkKzPEwoaPGbTXzBm_2JbhMPhzEFs281zwZHs28Oa3jtvw8jX4RSIUJY32ydm8aHNzMP1RGILEhAyDlfk4VVqrqXJ55H10GdPGhRKsA-CvGlrjtCV0b25TIhEM9ZIkw", "width": 853}], "place_id": "ChIJkwHOmOb10YURvgprVieV_CY", "plus_code": {"compound_code": "9V4V+8V Mexico City", "global_code": "76F29V4V+8V"}, "rating": 2, "reference": "ChIJkwHOmOb10YURvgprVieV_CY", "types": ["bank", "finance", "point_of_interest", "establishment"], "user_ratings_total": 3}, {"business_status": "OPERATIONAL", "formatted_address": "Ermita Iztapalapa 941, Santa Isabel Industrial, Iztapalapa, 09820 Ciudad de M\u00e9xico, CDMX", "geometry": {"location": {"lat": 19.3551447, "lng": -99.1019908}, "viewport": {"northeast": {"lat": 19.35679432989272, "lng": -99.10061662010727}, "southwest": {"lat": 19.35409467010728, "lng": -99.10331627989272}}}, "icon": "https://maps.gstatic.com/mapfiles/place_api/icons/v1/png_71/bank-71.png", "name": "Compartamos Banco Atlalilco", "opening_hours": {"open_now": false}, "photos": [{"height": 2592, "html_attributions": ["<a href=\"https://maps.google.com/maps/contrib/102511026814854787869\">Isaac German</a>"], "photo_reference": "CmRaAAAAlvD8qTAsVgWth8-yZEnYVVqHt-h6RsGaSvhqDpAn23dZewMfJfqr89qUYWQTt5VcwHR_hweiMMMYVwBWEhjrhqMYEsVqM51Bf_iUzv4Abt9YylK97OMCEmPOJflmDARYEhBbjmqluoCcbC4wIii22O65GhSKHYwRgPaISH_BhQwja70q-l1suA", "width": 1456}], "place_id": "ChIJbbntLQj-0YURQBgw37jbEdc", "plus_code": {"compound_code": "9V4X+36 Mexico City", "global_code": "76F29V4X+36"}, "rating": 3.7, "reference": "ChIJbbntLQj-0YURQBgw37jbEdc", "types": ["bank", "finance", "point_of_interest", "establishment"], "user_ratings_total": 6}]