[{"business_status": "OPERATIONAL", "formatted_address": "Aldama 63, San Lucas, Iztapalapa, 09000 Ciudad de M\u00e9xico, CDMX", "geometry": {"location": {"lat": 19.3582648, "lng": -99.09282879999999}, "viewport": {"northeast": {"lat": 19.35961462989272, "lng": -99.09147897010726}, "southwest": {"lat": 19.35691497010728, "lng": -99.09417862989271}}}, "icon": "https://maps.gstatic.com/mapfiles/place_api/icons/v1/png_71/civic_building-71.png", "name": "Alcald\u00eda Iztapalapa", "opening_hours": {"open_now": false}, "photos": [{"height": 3120, "html_attributions": ["<a href=\"https://maps.google.com/maps/contrib/111351335647354014727\">Norma Bonilla Vasquez</a>"], "photo_reference": "CmRaAAAA5gcQaGjVv13_Cu3g4Oc67SYm7eOmfG2Oo8S8vwqSClSdLqiyl-B_YwkiGxyrOX_J4j4NVNkxLY7NfgOJnfIszIhkHfbMxgSIpU8uvN2NPKMTwFUKPDk8zuMUIOh89KOMEhCRWFRXQMziO0LRIDZmM4MsGhSiI5dqzuXfA8O2dhAx8UTxHmWGFA", "width": 4160}], "place_id": "ChIJ-0_kTcji0YURVBkKWnt9Lrg", "plus_code": {"compound_code": "9W54+8V Mexico City", "global_code": "76F29W54+8V"}, "rating": 4, "reference": "ChIJ-0_kTcji0YURVBkKWnt9Lrg", "types": ["city_hall", "local_government_office", "point_of_interest", "establishment"], "user_ratings_total": 390}, {"business_status": "OPERATIONAL", "formatted_address": "Avenida Chimalhuac\u00e1n S/N Entre Fais\u00e1n y, Calle Caballo Bayo, Benito Ju\u00e1rez, 57000 Nezahualc\u00f3yotl, M\u00e9x.", "geometry": {"location": {"lat": 19.4087097, "lng": -99.01821799999999}, "viewport": {"northeast": {"lat": 19.40985607989272, "lng": -99.01663737010728}, "southwest": {"lat": 19.40715642010728, "lng": -99.01933702989272}}}, "icon": "https://maps.gstatic.com/mapfiles/place_api/icons/v1/png_71/civic_building-71.png", "name": "H. City of Nezahualcoyotl", "opening_hours": {"open_now": false}, "photos": [{"height": 3120, "html_attributions": ["<a href=\"https://maps.google.com/maps/contrib/108637161707639858381\">Julieta L\u00f3pez Rend\u00f3n</a>"], "photo_reference": "CmRaAAAA4U3b7PDQw4LR-kGK6zFykYuJIn3p02OWl4P5ZnM3gPNT5I7lwLAPCyblg4rDPVHc1JtBqG5NLlkdX8tnM9XP7gqY7jMGl_HiQj5U3rAxpXYKm9e0m3fKpG6NpHQYFYd2EhC_xXgnnJjfGZ85y9kYhQIWGhQygmdSr_tq2D9eNkd8dWlUIRoAow", "width": 4160}], "place_id": "ChIJwfjJns780YURC2pY0_InE3c", "plus_code": {"compound_code": "CX5J+FP Ciudad Nezahualc\u00f3yotl, State of Mexico", "global_code": "76F2CX5J+FP"}, "rating": 4, "reference": "ChIJwfjJns780YURC2pY0_InE3c", "types": ["city_hall", "local_government_office", "point_of_interest", "establishment"], "user_ratings_total": 656}, {"business_status": "OPERATIONAL", "formatted_address": "Calle, Av. R\u00edo Churubusco S/N, Gabriel Ramos Mill\u00e1n, Iztacalco, 08000 Ciudad de M\u00e9xico, CDMX", "geometry": {"location": {"lat": 19.3956042, "lng": -99.0966787}, "viewport": {"northeast": {"lat": 19.39752465, "lng": -99.09564827010728}, "southwest": {"lat": 19.39390044999999, "lng": -99.09834792989273}}}, "icon": "https://maps.gstatic.com/mapfiles/place_api/icons/v1/png_71/civic_building-71.png", "name": "Delegaci\u00f3n Iztacalco", "opening_hours": {"open_now": false}, "photos": [{"height": 1080, "html_attributions": ["<a href=\"https://maps.google.com/maps/contrib/110499894291937238915\">Chiquilinelgrande Elgrande</a>"], "photo_reference": "CmRaAAAAtQnAM7GxqyHm8j78Vlil67WCmrfRmI8h8Ueqw3lV5RuZFoZ44KrmXjK2ZGRgnnwPC0_fG0lNwbTm7uFq4bvV3H8xR3-leirJhv2IHr1e9pIE65Kj0LNT6C_AXSKACr5eEhCZpQAEf67D2j4YghiJa2OkGhQZEqaGe0I5N6fNxW4Se1OlEeMHuA", "width": 1879}], "place_id": "ChIJGz2vvj780YURx75stsws0Zk", "plus_code": {"compound_code": "9WW3+68 Mexico City", "global_code": "76F29WW3+68"}, "rating": 4.2, "reference": "ChIJGz2vvj780YURx75stsws0Zk", "types": ["city_hall", "local_government_office", "point_of_interest", "establishment"], "user_ratings_total": 333}, {"business_status": "OPERATIONAL", "formatted_address": "Palacio Municipal s/n, Centro, 57000 Ciudad de M\u00e9xico, M\u00e9x.", "geometry": {"location": {"lat": 19.4086045, "lng": -99.0182696}, "viewport": {"northeast": {"lat": 19.41000342989273, "lng": -99.01704132010728}, "southwest": {"lat": 19.40730377010728, "lng": -99.01974097989273}}}, "icon": "https://maps.gstatic.com/mapfiles/place_api/icons/v1/png_71/civic_building-71.png", "name": "AYUNTAMIENTO DE LERMA", "place_id": "ChIJk6h4Hsz80YURapBVnhh4Axo", "plus_code": {"compound_code": "CX5J+CM Mexico City", "global_code": "76F2CX5J+CM"}, "rating": 0, "reference": "ChIJk6h4Hsz80YURapBVnhh4Axo", "types": ["city_hall", "local_government_office", "point_of_interest", "establishment"], "user_ratings_total": 0}, {"business_status": "OPERATIONAL", "formatted_address": "Calle Caballocalco 22, La Concepci\u00f3n, Coyoac\u00e1n, 04020 Ciudad de M\u00e9xico, CDMX", "geometry": {"location": {"lat": 19.3484845, "lng": -99.1618369}, "viewport": {"northeast": {"lat": 19.34984902989272, "lng": -99.16055152010728}, "southwest": {"lat": 19.34714937010727, "lng": -99.16325117989273}}}, "icon": "https://maps.gstatic.com/mapfiles/place_api/icons/v1/png_71/civic_building-71.png", "name": "OFICINAS DELEGACION COYOACAN", "place_id": "ChIJGxqxXtv_0YURaFrFlMaa5Yc", "plus_code": {"compound_code": "8RXQ+97 Mexico City", "global_code": "76F28RXQ+97"}, "rating": 3.3, "reference": "ChIJGxqxXtv_0YURaFrFlMaa5Yc", "types": ["city_hall", "local_government_office", "point_of_interest", "establishment"], "user_ratings_total": 3}, {"business_status": "OPERATIONAL", "formatted_address": "Av. Divisi\u00f3n del Nte. 1611, Sta Cruz Atoyac, Benito Ju\u00e1rez, 03310 Ciudad de M\u00e9xico, CDMX", "geometry": {"location": {"lat": 19.371504, "lng": -99.15894399999999}, "viewport": {"northeast": {"lat": 19.37261152989272, "lng": -99.1574758201073}, "southwest": {"lat": 19.36991187010727, "lng": -99.16017547989273}}}, "icon": "https://maps.gstatic.com/mapfiles/place_api/icons/v1/png_71/civic_building-71.png", "name": "Alcald\u00eda Benito Ju\u00e1rez", "opening_hours": {"open_now": true}, "photos": [{"height": 2268, "html_attributions": ["<a href=\"https://maps.google.com/maps/contrib/106083374542437032990\">Axel Rosas</a>"], "photo_reference": "CmRaAAAAIbka7MUQG5zIYqLg9Kinc5TlBAhEByrTFwSz5FhG3_jeeOOWOfvUMXJD13YMlBceqc6dFoSTp1ocgc8_LSrs6jkIK4Trh7wFUv3iOfpN-uICN60tEja3s2SPbnO37dTgEhCyOAzKDVtA9nJLi4OQYSMJGhTX3GkUH33EQUP4rL2pmA6vdxeqVQ", "width": 4032}], "place_id": "ChIJdZhRS6X_0YURYH2bRPMvWSk", "plus_code": {"compound_code": "9RCR+JC Mexico City", "global_code": "76F29RCR+JC"}, "rating": 4.1, "reference": "ChIJdZhRS6X_0YURYH2bRPMvWSk", "types": ["city_hall", "local_government_office", "point_of_interest", "establishment"], "user_ratings_total": 118}, {"business_status": "OPERATIONAL", "formatted_address": "Calle Tres Cruces 58, Coyoac\u00e1n, 04000 Ciudad de M\u00e9xico, CDMX", "geometry": {"location": {"lat": 19.3458129, "lng": -99.1647945}, "viewport": {"northeast": {"lat": 19.34717277989272, "lng": -99.16350387010728}, "southwest": {"lat": 19.34447312010728, "lng": -99.16620352989273}}}, "icon": "https://maps.gstatic.com/mapfiles/place_api/icons/v1/png_71/civic_building-71.png", "name": "Centro para el Fomento Educaci\u00f3n y Salud los Operadores del Transporte P\u00fablico de la Ciudad de M\u00e9xico A.C.", "opening_hours": {"open_now": false}, "place_id": "ChIJ2xoeU9z_0YURT96myFEvqEY", "plus_code": {"compound_code": "8RWP+83 Mexico City", "global_code": "76F28RWP+83"}, "rating": 0, "reference": "ChIJ2xoeU9z_0YURT96myFEvqEY", "types": ["city_hall", "local_government_office", "gym", "health", "point_of_interest", "establishment"], "user_ratings_total": 0}]