[{"business_status": "OPERATIONAL", "formatted_address": "Cda. Iztapalapa 1B, Amp Ricardo Flores Mag\u00f3n, Iztapalapa, 09820 Ciudad de M\u00e9xico, CDMX", "geometry": {"location": {"lat": 19.3552706, "lng": -99.0990281}, "viewport": {"northeast": {"lat": 19.35663907989272, "lng": -99.0977043701073}, "southwest": {"lat": 19.35393942010728, "lng": -99.10040402989273}}}, "icon": "https://maps.gstatic.com/mapfiles/place_api/icons/v1/png_71/shopping-71.png", "name": "Tienda de Ropa Elvira", "opening_hours": {"open_now": true}, "place_id": "ChIJpfZo-eL90YURocBgAIOQKHM", "plus_code": {"compound_code": "9W42+49 Mexico City", "global_code": "76F29W42+49"}, "rating": 0, "reference": "ChIJpfZo-eL90YURocBgAIOQKHM", "types": ["clothing_store", "point_of_interest", "store", "establishment"], "user_ratings_total": 0}, {"business_status": "OPERATIONAL", "formatted_address": "Av Estrella 46, Estrella del Sur, Iztapalapa, 09820 Ciudad de M\u00e9xico, CDMX", "geometry": {"location": {"lat": 19.3522149, "lng": -99.0984826}, "viewport": {"northeast": {"lat": 19.35366602989272, "lng": -99.09707022010727}, "southwest": {"lat": 19.35096637010728, "lng": -99.09976987989272}}}, "icon": "https://maps.gstatic.com/mapfiles/place_api/icons/v1/png_71/shopping-71.png", "name": "Ropa y Boneteria David", "opening_hours": {"open_now": false}, "place_id": "ChIJRdJd1vz90YURbbJwcuJQ4lE", "plus_code": {"compound_code": "9W22+VJ Mexico City", "global_code": "76F29W22+VJ"}, "rating": 0, "reference": "ChIJRdJd1vz90YURbbJwcuJQ4lE", "types": ["clothing_store", "point_of_interest", "store", "establishment"], "user_ratings_total": 0}, {"business_status": "OPERATIONAL", "formatted_address": "Puentetitla 30, Amp Ricardo Flores Mag\u00f3n, Iztapalapa, 09820 Ciudad de M\u00e9xico, CDMX", "geometry": {"location": {"lat": 19.3544633, "lng": -99.0989838}, "viewport": {"northeast": {"lat": 19.35580142989272, "lng": -99.09760297010727}, "southwest": {"lat": 19.35310177010728, "lng": -99.10030262989271}}}, "icon": "https://maps.gstatic.com/mapfiles/place_api/icons/v1/png_71/shopping-71.png", "name": "La Puertita Ropa", "opening_hours": {"open_now": false}, "place_id": "ChIJKYim5uL90YURUKDnktTUT04", "plus_code": {"compound_code": "9W32+QC Amp Ricardo Flores Mag\u00f3n, Mexico City", "global_code": "76F29W32+QC"}, "rating": 0, "reference": "ChIJKYim5uL90YURUKDnktTUT04", "types": ["clothing_store", "point_of_interest", "store", "establishment"], "user_ratings_total": 0}, {"business_status": "OPERATIONAL", "formatted_address": "Loma Encantada, Estrella del Sur, Iztapalapa, 09820 Ciudad de M\u00e9xico, CDMX", "geometry": {"location": {"lat": 19.3494508, "lng": -99.0953727}, "viewport": {"northeast": {"lat": 19.35080722989272, "lng": -99.09403452010729}, "southwest": {"lat": 19.34810757010728, "lng": -99.09673417989272}}}, "icon": "https://maps.gstatic.com/mapfiles/place_api/icons/v1/png_71/shopping-71.png", "name": "Boutique", "place_id": "ChIJga1thPv90YURAfo0lYc5kFI", "plus_code": {"compound_code": "8WX3+QV Mexico City", "global_code": "76F28WX3+QV"}, "rating": 0, "reference": "ChIJga1thPv90YURAfo0lYc5kFI", "types": ["clothing_store", "point_of_interest", "store", "establishment"], "user_ratings_total": 0}, {"business_status": "OPERATIONAL", "formatted_address": "Puentetitla 26, Amp Ricardo Flores Mag\u00f3n, Iztapalapa, 09820 Ciudad de M\u00e9xico, CDMX", "geometry": {"location": {"lat": 19.3544658, "lng": -99.0988649}, "viewport": {"northeast": {"lat": 19.35583482989272, "lng": -99.09756587010727}, "southwest": {"lat": 19.35313517010728, "lng": -99.10026552989272}}}, "icon": "https://maps.gstatic.com/mapfiles/place_api/icons/v1/png_71/shopping-71.png", "name": "Boutique Liz", "opening_hours": {"open_now": true}, "photos": [{"height": 1200, "html_attributions": ["<a href=\"https://maps.google.com/maps/contrib/114897243233837345156\">A Google User</a>"], "photo_reference": "CmRaAAAAXFsdq_uyy-DkdeBf10NTLvRRattPMv_g2wPkSYY0gP-fWp6tozRQ-IwqjfESUTnxyMOMXKoIFy_cXK-XFJgWXDf0vbcdINd7SIPWmDyQiKMGUAFB6W1XynfgUnaWlUZ3EhD_VUIbCk11ZW1bTc2lDyoOGhSJZ_2TbrpMvnydqfX5QTxiRX_zzw", "width": 1600}], "place_id": "ChIJ7w9HNcP90YUR5BIuh3uNcOU", "plus_code": {"compound_code": "9W32+QF Mexico City", "global_code": "76F29W32+QF"}, "rating": 0, "reference": "ChIJ7w9HNcP90YUR5BIuh3uNcOU", "types": ["point_of_interest", "clothing_store", "store", "establishment"], "user_ratings_total": 0}, {"business_status": "OPERATIONAL", "formatted_address": "Ermita Iztapalapa 1334 A, El Santuario, Iztapalapa, 09820 Ciudad de M\u00e9xico, CDMX", "geometry": {"location": {"lat": 19.3561534, "lng": -99.091391}, "viewport": {"northeast": {"lat": 19.35757367989272, "lng": -99.09005117010727}, "southwest": {"lat": 19.35487402010728, "lng": -99.09275082989272}}}, "icon": "https://maps.gstatic.com/mapfiles/place_api/icons/v1/png_71/shopping-71.png", "name": "Clothing store", "opening_hours": {"open_now": false}, "place_id": "ChIJdw2LnuX90YURVp3qqE6M7ic", "plus_code": {"compound_code": "9W45+FC Mexico City", "global_code": "76F29W45+FC"}, "rating": 0, "reference": "ChIJdw2LnuX90YURVp3qqE6M7ic", "types": ["clothing_store", "point_of_interest", "store", "establishment"], "user_ratings_total": 0}, {"business_status": "OPERATIONAL", "formatted_address": "Santo Tomas 4, Santa Mar\u00eda del Monte, Iztapalapa, 09850 Ciudad de M\u00e9xico, CDMX", "geometry": {"location": {"lat": 19.3532206, "lng": -99.09012779999999}, "viewport": {"northeast": {"lat": 19.35457742989272, "lng": -99.08881052010727}, "southwest": {"lat": 19.35187777010728, "lng": -99.09151017989272}}}, "icon": "https://maps.gstatic.com/mapfiles/place_api/icons/v1/png_71/shopping-71.png", "name": "Venta de Uniformes en Mexico | Uniformes Santander", "opening_hours": {"open_now": false}, "place_id": "ChIJh3qy_-_90YURNgFni8Pw0CI", "plus_code": {"compound_code": "9W35+7W Mexico City", "global_code": "76F29W35+7W"}, "rating": 0, "reference": "ChIJh3qy_-_90YURNgFni8Pw0CI", "types": ["clothing_store", "point_of_interest", "store", "establishment"], "user_ratings_total": 0}, {"business_status": "OPERATIONAL", "formatted_address": "Camino Cerro de la Estrella, Parque Nacional Cerro de la Estrella, Iztapalapa, Ciudad de M\u00e9xico, CDMX", "geometry": {"location": {"lat": 19.3490708, "lng": -99.0918658}, "viewport": {"northeast": {"lat": 19.35041857989272, "lng": -99.09051862010728}, "southwest": {"lat": 19.34771892010728, "lng": -99.09321827989272}}}, "icon": "https://maps.gstatic.com/mapfiles/place_api/icons/v1/png_71/shopping-71.png", "name": "Bara Bara Deportivo. Tenis originales y ropa deportiva adidas Nike Asics", "opening_hours": {"open_now": false}, "photos": [{"height": 3024, "html_attributions": ["<a href=\"https://maps.google.com/maps/contrib/107704485549431043638\">Manuel Torres</a>"], "photo_reference": "CmRaAAAAXm-2N2v05rzhskQiBJLkRi_GJUFri5FB5FLK0KYEqxTtWPByAN6FGH7KDmayTPD2YXNm7TMHId7Do4qsnTIiQYvxB3jzWMHmshkD4D-qsrpQRZ1tp1fqDPxU75rezudAEhBEVgjZwT3RlqYTuPW71vqhGhQCvgzitaRNA1HAhSBxkZhhql5NAg", "width": 4032}], "place_id": "ChIJrdpgb9T90YURfVpwNFWLc0U", "plus_code": {"compound_code": "8WX5+J7 Mexico City", "global_code": "76F28WX5+J7"}, "rating": 0, "reference": "ChIJrdpgb9T90YURfVpwNFWLc0U", "types": ["clothing_store", "point_of_interest", "store", "establishment"], "user_ratings_total": 0}, {"business_status": "OPERATIONAL", "formatted_address": "Calle Perote, Estado de Veracruz, Iztapalapa, 09856 Ciudad de M\u00e9xico, CDMX", "geometry": {"location": {"lat": 19.350499, "lng": -99.088408}, "viewport": {"northeast": {"lat": 19.35185417989272, "lng": -99.08709107010728}, "southwest": {"lat": 19.34915452010728, "lng": -99.08979072989273}}}, "icon": "https://maps.gstatic.com/mapfiles/place_api/icons/v1/png_71/shopping-71.png", "name": "Belleza Seldy", "opening_hours": {"open_now": true}, "photos": [{"height": 955, "html_attributions": ["<a href=\"https://maps.google.com/maps/contrib/104510411520720684225\">A Google User</a>"], "photo_reference": "CmRaAAAAlM7tLpJB2jowE4zYOKcvf9hxi160oYr8WjjtBb-QqM0paYUlRB0qFdeWvpOkdfvCn-jp9FaXai6HSaK9PXqMh6CxE-tfKiuGSOm9WvKkGdCbf1M5gj-Fem6xYRB25-mIEhAu9JK2mJg6G2my6sYzO0jxGhRhqQjlrzjkfkZQtbZqXDJG_NNzUw", "width": 1080}], "place_id": "ChIJ76hnWvT90YURgX-skZ5dwek", "plus_code": {"compound_code": "9W26+5J Mexico City", "global_code": "76F29W26+5J"}, "rating": 0, "reference": "ChIJ76hnWvT90YURgX-skZ5dwek", "types": ["clothing_store", "point_of_interest", "store", "establishment"], "user_ratings_total": 0}, {"business_status": "OPERATIONAL", "formatted_address": "Ayuntamiento 29, San Pablo, Iztapalapa, 09000 Ciudad de M\u00e9xico, CDMX", "geometry": {"location": {"lat": 19.3591523, "lng": -99.09169159999999}, "viewport": {"northeast": {"lat": 19.36051527989272, "lng": -99.09039277010729}, "southwest": {"lat": 19.35781562010727, "lng": -99.09309242989274}}}, "icon": "https://maps.gstatic.com/mapfiles/place_api/icons/v1/png_71/shopping-71.png", "name": "TIENDA DE ROPA", "opening_hours": {"open_now": true}, "place_id": "ChIJ-QLkdOb90YURUVhC-7MgUTM", "plus_code": {"compound_code": "9W55+M8 Mexico City", "global_code": "76F29W55+M8"}, "rating": 0, "reference": "ChIJ-QLkdOb90YURUVhC-7MgUTM", "types": ["point_of_interest", "clothing_store", "store", "establishment"], "user_ratings_total": 0}, {"business_status": "OPERATIONAL", "formatted_address": "Av. Rojo G\u00f3mez Sin n\u00famero, San Miguel, 09360 Ciudad de M\u00e9xico", "geometry": {"location": {"lat": 19.357978, "lng": -99.0856427}, "viewport": {"northeast": {"lat": 19.35935377989272, "lng": -99.08434587010727}, "southwest": {"lat": 19.35665412010728, "lng": -99.08704552989272}}}, "icon": "https://maps.gstatic.com/mapfiles/place_api/icons/v1/png_71/shopping-71.png", "name": "Moda Para Ti", "opening_hours": {"open_now": true}, "place_id": "ChIJw4bPve790YURAGsidJUNXqw", "plus_code": {"compound_code": "9W57+5P Mexico City", "global_code": "76F29W57+5P"}, "rating": 0, "reference": "ChIJw4bPve790YURAGsidJUNXqw", "types": ["point_of_interest", "clothing_store", "store", "establishment"], "user_ratings_total": 0}, {"business_status": "OPERATIONAL", "formatted_address": "Loma Encantada 107, Estrella del Sur, Iztapalapa, 09820 Ciudad de M\u00e9xico, CDMX", "geometry": {"location": {"lat": 19.3488623, "lng": -99.0954294}, "viewport": {"northeast": {"lat": 19.35021212989272, "lng": -99.09407957010728}, "southwest": {"lat": 19.34751247010728, "lng": -99.09677922989272}}}, "icon": "https://maps.gstatic.com/mapfiles/place_api/icons/v1/png_71/shopping-71.png", "name": "Crayowarrior", "place_id": "ChIJbTbtgKP90YURz5gi57yJ2nw", "plus_code": {"compound_code": "8WX3+GR Mexico City", "global_code": "76F28WX3+GR"}, "rating": 0, "reference": "ChIJbTbtgKP90YURz5gi57yJ2nw", "types": ["clothing_store", "point_of_interest", "store", "establishment"], "user_ratings_total": 0}, {"business_status": "OPERATIONAL", "formatted_address": "San Miguel, Iztapalapa, 09360 Ciudad de M\u00e9xico, CDMX", "geometry": {"location": {"lat": 19.3569411, "lng": -99.0863492}, "viewport": {"northeast": {"lat": 19.35830507989272, "lng": -99.08502807010728}, "southwest": {"lat": 19.35560542010727, "lng": -99.08772772989273}}}, "icon": "https://maps.gstatic.com/mapfiles/place_api/icons/v1/png_71/shopping-71.png", "name": "Boutique Isabella", "opening_hours": {"open_now": false}, "photos": [{"height": 4608, "html_attributions": ["<a href=\"https://maps.google.com/maps/contrib/101226785813533469313\">A Google User</a>"], "photo_reference": "CmRaAAAAu8dZDcn4D6fCdCGKwNDgHYgWvmwb25xPQTwLMMq-MAEhucrV4nZ7YHH7dFfFaXAY9fDZYbRSaIphmRV-Vjhs7HjCgboriEdAHPYS-ObaOjlQoJ_6PiBaeOIMaaNciafkEhCpwdzCVOu3wRlnA0vtvrMOGhQo_OSkZwl71SEb6z0HLsZKe8qN7w", "width": 3456}], "place_id": "ChIJ76Pl7DT90YURP7Q_7kJhA44", "plus_code": {"compound_code": "9W47+QF Mexico City", "global_code": "76F29W47+QF"}, "rating": 0, "reference": "ChIJ76Pl7DT90YURP7Q_7kJhA44", "types": ["clothing_store", "point_of_interest", "store", "establishment"], "user_ratings_total": 0}, {"business_status": "OPERATIONAL", "formatted_address": "lerdo de tejada y ayuntamiento s/n, Iztapalapa, 09000 Ciudad de M\u00e9xico", "geometry": {"location": {"lat": 19.360767, "lng": -99.09164}, "viewport": {"northeast": {"lat": 19.36216492989272, "lng": -99.09027532010728}, "southwest": {"lat": 19.35946527010728, "lng": -99.09297497989273}}}, "icon": "https://maps.gstatic.com/mapfiles/place_api/icons/v1/png_71/shopping-71.png", "name": "Tienda de Ropa infantil", "opening_hours": {"open_now": true}, "photos": [{"height": 1200, "html_attributions": ["<a href=\"https://maps.google.com/maps/contrib/100466158607483399496\">A Google User</a>"], "photo_reference": "CmRaAAAAfYKixOIye1nKCrRtKkTSGTAl77bYSq7VwqfrTDcsVd1IQf7Q2BI_CL3cDKULCEsw8Vy-DGcDF1jJZ6rVi9jNcLvVK5xUGRO88YOmZbukisgk4TqoLsMyYjgQIHaOcd6EEhAAmE6UZ3cLRnl9OFrfkD6OGhS3uT9gR8ACVvvRoi3YN9mGhQAkQQ", "width": 1600}], "place_id": "ChIJe3iI1nT90YURLhh2N-6FvkA", "plus_code": {"compound_code": "9W65+88 Mexico City", "global_code": "76F29W65+88"}, "rating": 0, "reference": "ChIJe3iI1nT90YURLhh2N-6FvkA", "types": ["point_of_interest", "clothing_store", "store", "establishment"], "user_ratings_total": 0}, {"business_status": "OPERATIONAL", "formatted_address": "Av. Tlahuac 4421, Cerro de la Estrella, Iztapalapa, 09860 Ciudad de M\u00e9xico, CDMX", "geometry": {"location": {"lat": 19.3211259, "lng": -99.08434609999999}, "viewport": {"northeast": {"lat": 19.32239152989272, "lng": -99.08301652010728}, "southwest": {"lat": 19.31969187010727, "lng": -99.08571617989273}}}, "icon": "https://maps.gstatic.com/mapfiles/place_api/icons/v1/png_71/shopping-71.png", "name": "JULIO OUTLET", "opening_hours": {"open_now": true}, "photos": [{"height": 1920, "html_attributions": ["<a href=\"https://maps.google.com/maps/contrib/101848382131929540393\">Vivian Pelayo</a>"], "photo_reference": "CmRaAAAAk_BnaTsX4NA1Xq4PxvZXY_y4RCkh9RpGxV_B0xsoZEaCH4xmJpbOeW29s4lHQb3hY-GExbT_QCFmANMB_cCh0R1sddvmWRYZJ7ZPqPRBxlsXC2OjKzwDnsdbcqH_iIrNEhDP0xq2LYmtctOoDPrKRAe-GhSKN7XQsne-X4oDEZ0SDrRvh0Iw5Q", "width": 1080}], "place_id": "ChIJ9dpuzRUCzoURwAx4a9CKm-M", "plus_code": {"compound_code": "8WC8+F7 Mexico City", "global_code": "76F28WC8+F7"}, "rating": 4, "reference": "ChIJ9dpuzRUCzoURwAx4a9CKm-M", "types": ["clothing_store", "point_of_interest", "store", "establishment"], "user_ratings_total": 106}, {"business_status": "OPERATIONAL", "formatted_address": "Ayuntamiento 53, San Lucas, Iztapalapa, 09000 Ciudad de M\u00e9xico, CDMX", "geometry": {"location": {"lat": 19.36048, "lng": -99.09165999999999}, "viewport": {"northeast": {"lat": 19.36180137989272, "lng": -99.09019932010727}, "southwest": {"lat": 19.35910172010728, "lng": -99.09289897989272}}}, "icon": "https://maps.gstatic.com/mapfiles/place_api/icons/v1/png_71/shopping-71.png", "name": "ropa rap", "opening_hours": {"open_now": true}, "photos": [{"height": 1280, "html_attributions": ["<a href=\"https://maps.google.com/maps/contrib/104627297495021781850\">A Google User</a>"], "photo_reference": "CmRaAAAAFEltIUvOLWhnT8Ra12T49hKrEYpFyFuZbMT2HMi4XuI9--jrn3aBU3tlTNI_dhpaTSzcA5oO7HCuwmUVTRLMvuzziZJ9v54FBPmMNnhgrwTjtA2bkbER5I3oL4XWMedREhAoWi_kYkOFb1DzPd5G5T2PGhRTw2inJgjdsSZcek5OPR8MAqpatQ", "width": 960}], "place_id": "ChIJCdPszqr90YUR2A0li5A_Gac", "plus_code": {"compound_code": "9W65+58 Mexico City", "global_code": "76F29W65+58"}, "rating": 0, "reference": "ChIJCdPszqr90YUR2A0li5A_Gac", "types": ["point_of_interest", "clothing_store", "store", "establishment"], "user_ratings_total": 0}, {"business_status": "OPERATIONAL", "formatted_address": "Ayuntamiento Mercado, San Pablo, Iztapalapa, 09000 Ciudad de M\u00e9xico, CDMX", "geometry": {"location": {"lat": 19.36064, "lng": -99.09116499999999}, "viewport": {"northeast": {"lat": 19.36201497989272, "lng": -99.08991332010726}, "southwest": {"lat": 19.35931532010728, "lng": -99.0926129798927}}}, "icon": "https://maps.gstatic.com/mapfiles/place_api/icons/v1/png_71/shopping-71.png", "name": "vestidos Vicky", "opening_hours": {"open_now": true}, "photos": [{"height": 1280, "html_attributions": ["<a href=\"https://maps.google.com/maps/contrib/104511440568730476977\">A Google User</a>"], "photo_reference": "CmRaAAAArShYv96XPZEWHUhzIUmevLvPYhoqK9aIFDteboCZo9AAC3YDtL62QKhGcJdtVyXS09DOO2tE-pzQUwhp9bD9LbCBkJ7p1mJAb7wTREtHWsV-f9TJpnhMSWaN-Bpi0g_tEhD-2FngU6mj_ZmgSjCI-gybGhTcPtlyizBWg86j3JpWKfENetC38w", "width": 720}], "place_id": "ChIJzeidno790YURZM4B-wstwtU", "plus_code": {"compound_code": "9W65+7G San Pablo, Mexico City", "global_code": "76F29W65+7G"}, "rating": 0, "reference": "ChIJzeidno790YURZM4B-wstwtU", "types": ["clothing_store", "point_of_interest", "store", "establishment"], "user_ratings_total": 0}, {"business_status": "OPERATIONAL", "formatted_address": "Eje 8 Sur (Calz. Ermita Iztapalapa) 1153, San Lucas, 09000 Iztapalapa, CDMX", "geometry": {"location": {"lat": 19.3572217, "lng": -99.0952325}, "viewport": {"northeast": {"lat": 19.35861677989272, "lng": -99.0938971201073}, "southwest": {"lat": 19.35591712010728, "lng": -99.09659677989274}}}, "icon": "https://maps.gstatic.com/mapfiles/place_api/icons/v1/png_71/shopping-71.png", "name": "NAHUAL SHOP", "opening_hours": {"open_now": true}, "place_id": "ChIJdRAzDeT90YURXbQX_ZlApGY", "plus_code": {"compound_code": "9W43+VW Mexico City", "global_code": "76F29W43+VW"}, "rating": 0, "reference": "ChIJdRAzDeT90YURXbQX_ZlApGY", "types": ["clothing_store", "point_of_interest", "store", "establishment"], "user_ratings_total": 0}, {"business_status": "OPERATIONAL", "formatted_address": "Ayuntamiento Mercado, San Pablo, Iztapalapa, 09000 Ciudad de M\u00e9xico, CDMX", "geometry": {"location": {"lat": 19.360642, "lng": -99.09116499999999}, "viewport": {"northeast": {"lat": 19.36201692989272, "lng": -99.08991302010728}, "southwest": {"lat": 19.35931727010728, "lng": -99.09261267989272}}}, "icon": "https://maps.gstatic.com/mapfiles/place_api/icons/v1/png_71/shopping-71.png", "name": "ropa para hombre julio", "opening_hours": {"open_now": false}, "photos": [{"height": 1280, "html_attributions": ["<a href=\"https://maps.google.com/maps/contrib/100715005118724140274\">A Google User</a>"], "photo_reference": "CmRaAAAAv1fDF82URCuaMQwGcjMg9tESgK-wkVp26Ane9GVHM1gEUcEN_Hb4-tzI5SJ7nrr5_AJF8oztfTpXg8wLqV42oswNYptvIPCxu-3dcsBlLDCCxLkf8MXBGgxH2ugxw3zREhAutuD8D8U8BmrSu6CU8rfTGhSTZvuxdGKUPWxRYaOh6D4ouc3fag", "width": 720}], "place_id": "ChIJAZwAW3T90YUR4Y74No3LmoI", "plus_code": {"compound_code": "9W65+7G San Pablo, Mexico City", "global_code": "76F29W65+7G"}, "rating": 0, "reference": "ChIJAZwAW3T90YUR4Y74No3LmoI", "types": ["point_of_interest", "clothing_store", "store", "establishment"], "user_ratings_total": 0}, {"business_status": "OPERATIONAL", "formatted_address": "Avenida Eje 8 Sur (calzada Ermita Iztapalapa) 870, Sta B\u00e1rbara, Iztapalapa, 09000 Iztapalapa, CDMX", "geometry": {"location": {"lat": 19.3561115, "lng": -99.10404659999999}, "viewport": {"northeast": {"lat": 19.35740932989272, "lng": -99.10270177010727}, "southwest": {"lat": 19.35470967010728, "lng": -99.10540142989271}}}, "icon": "https://maps.gstatic.com/mapfiles/place_api/icons/v1/png_71/shopping-71.png", "name": "Tienda de Venta Por Catalogo desigual Sucursal Ermita.", "place_id": "ChIJaaMZEAn-0YUR64znBWFjG5g", "plus_code": {"compound_code": "9V4W+C9 Sta B\u00e1rbara, Mexico City", "global_code": "76F29V4W+C9"}, "rating": 0, "reference": "ChIJaaMZEAn-0YUR64znBWFjG5g", "types": ["clothing_store", "point_of_interest", "store", "establishment"], "user_ratings_total": 0}]