[{"business_status": "OPERATIONAL", "formatted_address": "Calle Prol. de Mina N\u00b049, El Manto, Iztapalapa, 09830 Ciudad de M\u00e9xico, CDMX", "geometry": {"location": {"lat": 19.35228, "lng": -99.0837236}, "viewport": {"northeast": {"lat": 19.35361687989272, "lng": -99.08234247010728}, "southwest": {"lat": 19.35091722010728, "lng": -99.08504212989271}}}, "icon": "https://maps.gstatic.com/mapfiles/place_api/icons/v1/png_71/shopping-71.png", "name": "walmart", "place_id": "ChIJrRCqFvL90YUR_v0Q6hlOkr0", "plus_code": {"compound_code": "9W28+WG Mexico City", "global_code": "76F29W28+WG"}, "rating": 0, "reference": "ChIJrRCqFvL90YUR_v0Q6hlOkr0", "types": ["department_store", "point_of_interest", "store", "establishment"], "user_ratings_total": 0}, {"business_status": "OPERATIONAL", "formatted_address": "Av, Ermita Iztapalapa # 875, Iztapalapa, 09820 Ciudad de M\u00e9xico, CDMX", "geometry": {"location": {"lat": 19.3547869, "lng": -99.1039428}, "viewport": {"northeast": {"lat": 19.35668127989272, "lng": -99.1025353201073}, "southwest": {"lat": 19.35398162010727, "lng": -99.10523497989273}}}, "icon": "https://maps.gstatic.com/mapfiles/place_api/icons/v1/png_71/shopping-71.png", "name": "walmart", "place_id": "ChIJVVVVVgj-0YUReDGuAtynCxk", "rating": 0, "reference": "ChIJVVVVVgj-0YUReDGuAtynCxk", "types": ["department_store", "point_of_interest", "store", "establishment"], "user_ratings_total": 0}, {"business_status": "OPERATIONAL", "formatted_address": "Av. Luis Hidalgo Monroy N\u00b0 573, San Miguel, Iztapalapa, 09360 Ciudad de M\u00e9xico, CDMX", "geometry": {"location": {"lat": 19.3530315, "lng": -99.0721385}, "viewport": {"northeast": {"lat": 19.35449607989272, "lng": -99.07071797010727}, "southwest": {"lat": 19.35179642010728, "lng": -99.07341762989272}}}, "icon": "https://maps.gstatic.com/mapfiles/place_api/icons/v1/png_71/shopping-71.png", "name": "walmart", "place_id": "ChIJCTBTPI790YURvS20w6dDjVA", "plus_code": {"compound_code": "9W3H+64 Mexico City", "global_code": "76F29W3H+64"}, "rating": 0, "reference": "ChIJCTBTPI790YURvS20w6dDjVA", "types": ["department_store", "point_of_interest", "store", "establishment"], "user_ratings_total": 0}, {"business_status": "OPERATIONAL", "formatted_address": "Ermita Iztapalapa 915, Santa Isabel Industrial, Iztapalapa, 09810 Ciudad de M\u00e9xico, CDMX", "geometry": {"location": {"lat": 19.3556644, "lng": -99.10267180000001}, "viewport": {"northeast": {"lat": 19.35707217989273, "lng": -99.10131842010728}, "southwest": {"lat": 19.35437252010728, "lng": -99.10401807989273}}}, "icon": "https://maps.gstatic.com/mapfiles/place_api/icons/v1/png_71/shopping-71.png", "name": "Coppel Iztapalapa", "opening_hours": {"open_now": true}, "photos": [{"height": 3096, "html_attributions": ["<a href=\"https://maps.google.com/maps/contrib/111110660026337759575\">A Google User</a>"], "photo_reference": "CmRaAAAAS2tE2VaovU1ZTcQxm51QeMvMuoChW7Ef8nQ5WQ9MIJrTVnRsedNeAwj_BdqR9BfFC1_vORV2KpErVJ0ZRtYQtswomrMoh74OfVBfjyG281rUzCPjX6sbgRF56AR3K2VlEhDSCh2QH2HpTzSqCbP7h2T0GhQ_Owe7NNOHXkf_k3xE7l1guDTvhg", "width": 4128}], "place_id": "ChIJa_-LtQn-0YURuRZL0bJY5Sw", "plus_code": {"compound_code": "9V4W+7W Mexico City", "global_code": "76F29V4W+7W"}, "rating": 4.1, "reference": "ChIJa_-LtQn-0YURuRZL0bJY5Sw", "types": ["department_store", "electronics_store", "furniture_store", "home_goods_store", "point_of_interest", "clothing_store", "store", "establishment"], "user_ratings_total": 209}, {"business_status": "OPERATIONAL", "formatted_address": "Ayuntamiento #33, San Pablo, Iztapalapa, 09000 Ciudad de M\u00e9xico, CDMX", "geometry": {"location": {"lat": 19.3596954, "lng": -99.0915832}, "viewport": {"northeast": {"lat": 19.36105227989272, "lng": -99.09025922010728}, "southwest": {"lat": 19.35835262010728, "lng": -99.09295887989273}}}, "icon": "https://maps.gstatic.com/mapfiles/place_api/icons/v1/png_71/shopping-71.png", "name": "Coppel Ayuntamiento", "opening_hours": {"open_now": true}, "photos": [{"height": 4096, "html_attributions": ["<a href=\"https://maps.google.com/maps/contrib/112552788606074193551\">Esteban Unefon</a>"], "photo_reference": "CmRaAAAAK5J5II3-ON9t_WZS7pmjNfggmUWzr3mHaJO3duUTG9CXRbSNZDMB_SP-UMigMsUNWv7PQr712AwOTCpR5fqpEDHRnPAwAg4sCLB8YS62CbBcQleEAbdWhnvjBF_rC90LEhBhpbjkIknMkZXWoJvrcLCZGhSyzWnfBOZy52DxS8v4vOQCqh3gRg", "width": 3072}], "place_id": "ChIJN5q7Eub90YUR81fm1HOJEBs", "plus_code": {"compound_code": "9W55+V9 Mexico City", "global_code": "76F29W55+V9"}, "rating": 3.9, "reference": "ChIJN5q7Eub90YUR81fm1HOJEBs", "types": ["department_store", "point_of_interest", "store", "establishment"], "user_ratings_total": 521}, {"business_status": "OPERATIONAL", "formatted_address": "Av. Tlahuac #1, Los Cipreses, Iztapalapa, 09810 Ciudad de M\u00e9xico, CDMX", "geometry": {"location": {"lat": 19.3559559, "lng": -99.1059882}, "viewport": {"northeast": {"lat": 19.35728797989272, "lng": -99.10451567010729}, "southwest": {"lat": 19.35458832010728, "lng": -99.10721532989274}}}, "icon": "https://maps.gstatic.com/mapfiles/place_api/icons/v1/png_71/shopping-71.png", "name": "Coppel Canada Naples", "opening_hours": {"open_now": true}, "photos": [{"height": 1920, "html_attributions": ["<a href=\"https://maps.google.com/maps/contrib/116737529897905352579\">asuncion azamar lopez</a>"], "photo_reference": "CmRaAAAA6NuCDmAhMmwYiVI7hEVa2cWpNJ2Us7QXpGONDttcpcfqC2E1AwjnWMZZ49mtdTy3oxtg022tYZEtWf7dVRJic-Jm8Ds7ZsW0CEBZVNu-QXygF9ubI2Y76DrAsbdBQ-CiEhCjmG-XvqFlV8XCXnlp2Jr7GhRpWDS_324NZwy2wSLFLmcvSAm4dw", "width": 1080}], "place_id": "ChIJuVvgQRkCzoURgARh9jkIcE4", "plus_code": {"compound_code": "9V4V+9J Mexico City", "global_code": "76F29V4V+9J"}, "rating": 3.8, "reference": "ChIJuVvgQRkCzoURgARh9jkIcE4", "types": ["department_store", "point_of_interest", "store", "establishment"], "user_ratings_total": 153}, {"business_status": "OPERATIONAL", "formatted_address": "Ermita Iztapalapa #1709, Octava De San Miguel, Iztapalapa, 09837 Ciudad de M\u00e9xico, CDMX", "geometry": {"location": {"lat": 19.3523025, "lng": -99.07821650000001}, "viewport": {"northeast": {"lat": 19.35370112989272, "lng": -99.07684232010729}, "southwest": {"lat": 19.35100147010728, "lng": -99.07954197989272}}}, "icon": "https://maps.gstatic.com/mapfiles/place_api/icons/v1/png_71/shopping-71.png", "name": "Coppel La Pur\u00edsima", "opening_hours": {"open_now": false}, "photos": [{"height": 4160, "html_attributions": ["<a href=\"https://maps.google.com/maps/contrib/116135903409244067075\">Carlos Ruiz</a>"], "photo_reference": "CmRaAAAAuXgMsIGSkieE6CF9xLMTU3bp9dD-6klF-B7j82I34ePCISwLJXDxt1UawQnijMheXqaAZySNJocvFfC6lsNjyXR0EVTbVPFXaEPACLnv_97Q2snHWNu1nFeFg5eoCm45EhATr3pX4dLfmRATzgpAM_1NGhSK-Pa1XH1Im_YQZV0HULiBOVKJ9Q", "width": 3120}], "place_id": "ChIJdVHRRo390YURtAXqhR49fYA", "plus_code": {"compound_code": "9W2C+WP Mexico City", "global_code": "76F29W2C+WP"}, "rating": 3.9, "reference": "ChIJdVHRRo390YURtAXqhR49fYA", "types": ["department_store", "point_of_interest", "store", "establishment"], "user_ratings_total": 2253}, {"business_status": "OPERATIONAL", "formatted_address": "Calzada Ermita Iztapalapa No. 1777 San Miguel 8a, Ampliaci\u00f3n, Iztapalapa, 09360 Ciudad de M\u00e9xico", "geometry": {"location": {"lat": 19.352962, "lng": -99.07844899999999}, "viewport": {"northeast": {"lat": 19.35420322989273, "lng": -99.07715727010728}, "southwest": {"lat": 19.35150357010728, "lng": -99.07985692989273}}}, "icon": "https://maps.gstatic.com/mapfiles/place_api/icons/v1/png_71/shopping-71.png", "name": "FAMSA ERMITA UAM - ROPA Y CALZADO", "place_id": "ChIJX6WlVnL90YURH9GgRKd7Vas", "plus_code": {"compound_code": "9W3C+5J Mexico City", "global_code": "76F29W3C+5J"}, "rating": 0, "reference": "ChIJX6WlVnL90YURH9GgRKd7Vas", "types": ["department_store", "point_of_interest", "store", "establishment"], "user_ratings_total": 0}, {"business_status": "OPERATIONAL", "formatted_address": "TULYEHUALCO #1 COL. MINERVA. ENTRE SUR 129 Y, Ermita Iztapalapa, Iztapalapa, 09810 Ciudad de M\u00e9xico", "geometry": {"location": {"lat": 19.3560464, "lng": -99.10705229999999}, "viewport": {"northeast": {"lat": 19.35745852989272, "lng": -99.10569492010727}, "southwest": {"lat": 19.35475887010728, "lng": -99.10839457989272}}}, "icon": "https://maps.gstatic.com/mapfiles/place_api/icons/v1/png_71/shopping-71.png", "name": "Coppel OCAMPO 353", "place_id": "ChIJ3_vvg9L_0YURUpatBZb93X0", "plus_code": {"compound_code": "9V4V+C5 Mexico City", "global_code": "76F29V4V+C5"}, "rating": 4, "reference": "ChIJ3_vvg9L_0YURUpatBZb93X0", "types": ["department_store", "point_of_interest", "store", "establishment"], "user_ratings_total": 1}, {"business_status": "OPERATIONAL", "formatted_address": "Suburbia Ermita Iztapalapa - Avenida, Ermita Iztapalapa #2039, Los \u00c1ngeles, Iztapalapa, 09710 CDMX", "geometry": {"location": {"lat": 19.3470029, "lng": -99.0676045}, "viewport": {"northeast": {"lat": 19.34860187989273, "lng": -99.06612672010729}, "southwest": {"lat": 19.34590222010728, "lng": -99.06882637989274}}}, "icon": "https://maps.gstatic.com/mapfiles/place_api/icons/v1/png_71/shopping-71.png", "name": "Suburbia", "opening_hours": {"open_now": true}, "photos": [{"height": 4160, "html_attributions": ["<a href=\"https://maps.google.com/maps/contrib/109769378900351102191\">Neslie Calderon Floees</a>"], "photo_reference": "CmRaAAAAGJjL2cmST_fln9Wh2uhGA5rVP186JK8bs-c2zphXRpU86ZC0ozRPhnaaWLv2fgwimo7nyeeE8frHMmdHY_pelLwnN-jP8DCmhnn9aASSesy3EPOb7MCeGNabFSN7mjiUEhAbuzDFE3UHlBf68brG9NgfGhTPAIoSioibFETn5NtmbSRAQBP7FQ", "width": 2340}], "place_id": "ChIJP3m88p0CzoURLYQeo8Nh7gI", "plus_code": {"compound_code": "8WWJ+RX Los \u00c1ngeles, Mexico City", "global_code": "76F28WWJ+RX"}, "rating": 4, "reference": "ChIJP3m88p0CzoURLYQeo8Nh7gI", "types": ["department_store", "shoe_store", "electronics_store", "home_goods_store", "point_of_interest", "clothing_store", "store", "establishment"], "user_ratings_total": 7256}, {"business_status": "OPERATIONAL", "formatted_address": "Calzada Ermita Iztapalapa No. 1696-B Barrio, San Miguel, Iztapalapa, 09360 Ciudad de M\u00e9xico", "geometry": {"location": {"lat": 19.3513116, "lng": -99.0764197}, "viewport": {"northeast": {"lat": 19.35279192989272, "lng": -99.07500247010728}, "southwest": {"lat": 19.35009227010728, "lng": -99.07770212989273}}}, "icon": "https://maps.gstatic.com/mapfiles/place_api/icons/v1/png_71/shopping-71.png", "name": "FAMSA SAN MIGUEL ERMITA - TIENDA", "place_id": "ChIJb_nhWe790YURwrA_p5EhMvs", "plus_code": {"compound_code": "9W2F+GC Mexico City", "global_code": "76F29W2F+GC"}, "rating": 0, "reference": "ChIJb_nhWe790YURwrA_p5EhMvs", "types": ["department_store", "point_of_interest", "store", "establishment"], "user_ratings_total": 0}, {"business_status": "OPERATIONAL", "formatted_address": "Cuauht\u00e9moc 462, Zona Urbana Ejidal Santa Mar\u00eda Aztahuacan, Iztapalapa, 03020 Benito Juarez, CDMX", "geometry": {"location": {"lat": 19.3546203, "lng": -99.0393541}, "viewport": {"northeast": {"lat": 19.35596777989272, "lng": -99.03798987010728}, "southwest": {"lat": 19.35326812010728, "lng": -99.04068952989272}}}, "icon": "https://maps.gstatic.com/mapfiles/place_api/icons/v1/png_71/shopping-71.png", "name": "Operadora De Nuevos Formatos, S.A. De C.V. (Liverpool Mac Delta)", "place_id": "ChIJR8Ih7Kf_0YURY00XJlqucP0", "rating": 0, "reference": "ChIJR8Ih7Kf_0YURY00XJlqucP0", "types": ["department_store", "point_of_interest", "store", "establishment"], "user_ratings_total": 0}, {"business_status": "OPERATIONAL", "formatted_address": "Calzada Ermita Iztapalapa No. 1777 San Miguel 8a, Ampliaci\u00f3n, 09360 Ciudad de M\u00e9xico", "geometry": {"location": {"lat": 19.3507164, "lng": -99.0767205}, "viewport": {"northeast": {"lat": 19.35193377989272, "lng": -99.07510707010728}, "southwest": {"lat": 19.34923412010728, "lng": -99.07780672989271}}}, "icon": "https://maps.gstatic.com/mapfiles/place_api/icons/v1/png_71/shopping-71.png", "name": "FAMSA ERMITA UAM", "opening_hours": {"open_now": true}, "photos": [{"height": 3264, "html_attributions": ["<a href=\"https://maps.google.com/maps/contrib/113600136630621190553\">Ro Deveraux</a>"], "photo_reference": "CmRaAAAAzI4fh-k9rT3elqC7YyX4gobw4Ylfjq0Z_38ENgjQSIOclE7ejWpGrCCcwj1N8fC6NiQEXe7_bCCreweN2eZZH7Qh6TUVx_oQaWXOHaEaH0vjHbxm86waMomUqVoG2msDEhDMq87vx5zG7RgaiMibiTijGhSjmJfLTxf9jGH9tzw75cbKNRUWTw", "width": 2448}], "place_id": "ChIJO9ReO4r90YURV41INOU50SU", "plus_code": {"compound_code": "9W2F+78 Mexico City", "global_code": "76F29W2F+78"}, "rating": 3.7, "reference": "ChIJO9ReO4r90YURV41INOU50SU", "types": ["department_store", "home_goods_store", "point_of_interest", "store", "establishment"], "user_ratings_total": 425}, {"business_status": "OPERATIONAL", "formatted_address": "Calz Taxque\u00f1a No. 2391, San Antonio Culhuacan, Iztapalapa, 09800 Ciudad de M\u00e9xico, CDMX", "geometry": {"location": {"lat": 19.338361, "lng": -99.112653}, "viewport": {"northeast": {"lat": 19.33981382989272, "lng": -99.11128517010728}, "southwest": {"lat": 19.33711417010728, "lng": -99.11398482989273}}}, "icon": "https://maps.gstatic.com/mapfiles/place_api/icons/v1/png_71/shopping-71.png", "name": "FAMSA TAXQUE\u00d1A - TIENDA", "opening_hours": {}, "place_id": "ChIJvxpLHrYBzoUR0s10r0ZXrjI", "plus_code": {"compound_code": "8VQP+8W Mexico City", "global_code": "76F28VQP+8W"}, "rating": 3.4, "reference": "ChIJvxpLHrYBzoUR0s10r0ZXrjI", "types": ["department_store", "point_of_interest", "store", "establishment"], "user_ratings_total": 31}, {"business_status": "OPERATIONAL", "formatted_address": "Canal R\u00edo Churubusco 1635, \u00c1rea Federal Central de Abastos, Iztapalapa, 09040 Ciudad de M\u00e9xico, CDMX", "geometry": {"location": {"lat": 19.3784277, "lng": -99.0952562}, "viewport": {"northeast": {"lat": 19.37993047989272, "lng": -99.09423707010727}, "southwest": {"lat": 19.37723082010728, "lng": -99.0969367298927}}}, "icon": "https://maps.gstatic.com/mapfiles/place_api/icons/v1/png_71/shopping-71.png", "name": "Suburbia Central Plaza", "opening_hours": {"open_now": true}, "photos": [{"height": 4032, "html_attributions": ["<a href=\"https://maps.google.com/maps/contrib/106906937509728647181\">Imagen y Salud de 10</a>"], "photo_reference": "CmRaAAAAPaUEE-OodTlbrNsDS1oaFagUvf0s61wELMZkXv0fp8a5KsyZqLy7XaHg-GkbR-SJvaFZXM3rTINcJd-dk1OTmlEWHg3i1SELkuRqmGaiV5GYLmJtvJAl02ErSkDcdWRTEhCklZsXQnZiIbfevdgnMN4aGhTPsISs1D5oPAvZqrNA_O0y4beTxA", "width": 3024}], "place_id": "ChIJTfzWV9f90YUReM7jycJfldc", "plus_code": {"compound_code": "9WH3+9V Mexico City", "global_code": "76F29WH3+9V"}, "rating": 4.1, "reference": "ChIJTfzWV9f90YUReM7jycJfldc", "types": ["department_store", "shoe_store", "electronics_store", "home_goods_store", "point_of_interest", "clothing_store", "store", "establishment"], "user_ratings_total": 1672}, {"business_status": "OPERATIONAL", "formatted_address": "Ermita Iztapalapa #595, Granjas Esmeralda, Iztapalapa, 09810 Ciudad de M\u00e9xico, CDMX", "geometry": {"location": {"lat": 19.3567722, "lng": -99.11599059999999}, "viewport": {"northeast": {"lat": 19.35821542989272, "lng": -99.11462452010727}, "southwest": {"lat": 19.35551577010728, "lng": -99.11732417989272}}}, "icon": "https://maps.gstatic.com/mapfiles/place_api/icons/v1/png_71/shopping-71.png", "name": "Coppel Granjas Esmeralda", "opening_hours": {"open_now": true}, "photos": [{"height": 1920, "html_attributions": ["<a href=\"https://maps.google.com/maps/contrib/101551924803149435212\">Arturo Mejia</a>"], "photo_reference": "CmRaAAAAGHpA62j1nIxYeki7NCSVZFM13V-i2jYvHx7EwesnQJZ8ixSPOMqPAODhXyFHg_FojBn_lia5WDgQBuxrXEYjfMw_qihe_EQv_Pan-dNHGBCf8hUNHYJCj9w43Fzk5FF9EhBLGtUy1lA1wIMfRF6SDrheGhRK8vv8mQdfyZstiTgiyN3bUGhP6Q", "width": 1088}], "place_id": "ChIJ8ScpcBH-0YURrJ-ZFqDFzkA", "plus_code": {"compound_code": "9V4M+PJ Mexico City", "global_code": "76F29V4M+PJ"}, "rating": 4.1, "reference": "ChIJ8ScpcBH-0YURrJ-ZFqDFzkA", "types": ["department_store", "point_of_interest", "store", "establishment"], "user_ratings_total": 3038}, {"business_status": "OPERATIONAL", "formatted_address": "Av Canal de Tezontle 1512, \u00c1rea Federal Central de Abastos, Iztapalapa, 09020 Ciudad de M\u00e9xico, CDMX", "geometry": {"location": {"lat": 19.3847978, "lng": -99.08176449999999}, "viewport": {"northeast": {"lat": 19.38615822989272, "lng": -99.08077927010729}, "southwest": {"lat": 19.38345857010727, "lng": -99.08347892989272}}}, "icon": "https://maps.gstatic.com/mapfiles/place_api/icons/v1/png_71/shopping-71.png", "name": "Sears", "opening_hours": {"open_now": false}, "photos": [{"height": 1920, "html_attributions": ["<a href=\"https://maps.google.com/maps/contrib/108430130242616741357\">Luis Gerardo Bravo Paredes</a>"], "photo_reference": "CmRaAAAAVdRcV-5f9U9lCFfbwaKVCuA1Z5nSKbAxqVL2LgE6JQkR55bEs327VjmtbZf8DCp4m8YiCPHbBnD0cj8YGTYzVUv-A6JeV0_2oRwEFjjSTylB1M10lFC3dSbWtMii8SZLEhDXnby7yvaXs73nEMDZIudBGhTroi6XH--6Y940mv7AaSuhWnvSbw", "width": 1080}], "place_id": "ChIJOdcg_cn90YURwnGMOCK_MVU", "plus_code": {"compound_code": "9WM9+W7 Mexico City", "global_code": "76F29WM9+W7"}, "price_level": 2, "rating": 4.2, "reference": "ChIJOdcg_cn90YURwnGMOCK_MVU", "types": ["department_store", "point_of_interest", "store", "establishment"], "user_ratings_total": 5735}, {"business_status": "OPERATIONAL", "formatted_address": "Suburbia Plaza Oriente - Avenida Canal de Tezontle #1520 Colonia, Dr Alfonso Ortiz Tirado, Iztapalapa, 09020 CDMX", "geometry": {"location": {"lat": 19.3841859, "lng": -99.07751309999999}, "viewport": {"northeast": {"lat": 19.38532507989272, "lng": -99.07615002010728}, "southwest": {"lat": 19.38262542010728, "lng": -99.07884967989273}}}, "icon": "https://maps.gstatic.com/mapfiles/place_api/icons/v1/png_71/shopping-71.png", "name": "Suburbia Plaza Oriente", "opening_hours": {"open_now": false}, "photos": [{"height": 1280, "html_attributions": ["<a href=\"https://maps.google.com/maps/contrib/110944485849298359693\">Alfredo RoRi</a>"], "photo_reference": "CmRaAAAAKo88PHS1t5j8kws-HwIRxu-t7WvEauUuIDlLRcYJd2eO5hjjuFIAPla0KoGgxKUSEy1r_gisDaBj-iHV_E5HdyqwkmgI382UJQTuisfMFXTPtY89PiqgcWQFfokpigrGEhCfkLW5WhxI5-A2leImfjWFGhTZNevS5gK8fhc9hAb9ZojK-mG0Ow", "width": 720}], "place_id": "ChIJlwkZStL90YURSf28napZqy4", "plus_code": {"compound_code": "9WMC+MX Dr Alfonso Ortiz Tirado, Mexico City", "global_code": "76F29WMC+MX"}, "rating": 4.2, "reference": "ChIJlwkZStL90YURSf28napZqy4", "types": ["department_store", "shoe_store", "electronics_store", "home_goods_store", "point_of_interest", "clothing_store", "store", "establishment"], "user_ratings_total": 7526}, {"business_status": "OPERATIONAL", "formatted_address": "Av Canal de Tezontle 1512, Dr Alfonso Ortiz Tirado, Iztapalapa, 09020 Ciudad de M\u00e9xico, CDMX", "geometry": {"location": {"lat": 19.3824763, "lng": -99.0830213}, "viewport": {"northeast": {"lat": 19.38411832989272, "lng": -99.08193852010727}, "southwest": {"lat": 19.38141867010728, "lng": -99.08463817989272}}}, "icon": "https://maps.gstatic.com/mapfiles/place_api/icons/v1/png_71/shopping-71.png", "name": "Liverpool", "opening_hours": {"open_now": true}, "photos": [{"height": 1920, "html_attributions": ["<a href=\"https://maps.google.com/maps/contrib/117793226387900094474\">Zaira Janneth</a>"], "photo_reference": "CmRaAAAAmlBpdlpQDC1xDa_IolmZ6Oyw-SgDUVmgVaHgggqAc1JOptCBi9lqQtMcHnKb0od6TFvA5xRBQkqohBB-py6hUcJH1egrbybiVD60U_DUrbDIm_dpkplSnmbpgdM3wok3EhD_-xiEHp1FS4OcUhO8Pf7ZGhS-sYeV2NhfWHt4r3e4lI-ASZiY8Q", "width": 1080}], "place_id": "ChIJYYYlvdP90YURIF0EsCjTn-A", "plus_code": {"compound_code": "9WJ8+XQ Dr Alfonso Ortiz Tirado, Mexico City", "global_code": "76F29WJ8+XQ"}, "rating": 4.4, "reference": "ChIJYYYlvdP90YURIF0EsCjTn-A", "types": ["department_store", "electronics_store", "furniture_store", "home_goods_store", "liquor_store", "food", "point_of_interest", "clothing_store", "store", "establishment"], "user_ratings_total": 17500}, {"business_status": "OPERATIONAL", "formatted_address": "CALZADA ROJO G\u00d3MEZ, Central de Abastos 719 COLONIA, \u00c1rea Federal Central de Abastos, Iztapalapa, 09040 Ciudad de M\u00e9xico, CDMX", "geometry": {"location": {"lat": 19.376436, "lng": -99.0784328}, "viewport": {"northeast": {"lat": 19.37774202989272, "lng": -99.07690652010727}, "southwest": {"lat": 19.37504237010728, "lng": -99.07960617989272}}}, "icon": "https://maps.gstatic.com/mapfiles/place_api/icons/v1/png_71/shopping-71.png", "name": "Coppel del Moral", "opening_hours": {"open_now": true}, "photos": [{"height": 1728, "html_attributions": ["<a href=\"https://maps.google.com/maps/contrib/108125498037470741826\">ral lo</a>"], "photo_reference": "CmRaAAAAZVMw3fru6LKksAJUa5OC8qvJ6nkOsS-aH05WkXRM2hDAWwVD-Ut4dfcjia5n6W5F0ffHY0ijntx7r_ZWNkgvgZ0GJyFnqLSjnQwcGL3X2F76kKTb8QRaCvEVskxq-63_EhCWBAulWNTtGrAa68UZ7MjIGhQX-RbdwyEpxey22KbTYY_DyDFqtQ", "width": 2592}], "place_id": "ChIJqWE0u7f90YURlAjGn6VEijY", "plus_code": {"compound_code": "9WGC+HJ Mexico City", "global_code": "76F29WGC+HJ"}, "rating": 4.2, "reference": "ChIJqWE0u7f90YURlAjGn6VEijY", "types": ["department_store", "point_of_interest", "store", "establishment"], "user_ratings_total": 1329}]