[{"business_status": "OPERATIONAL", "formatted_address": "Ermita Iztapalapa 1393, San Pablo, Iztapalapa, 09000 Ciudad de M\u00e9xico, CDMX", "geometry": {"location": {"lat": 19.3568592, "lng": -99.0878829}, "viewport": {"northeast": {"lat": 19.35844867989272, "lng": -99.08637977010727}, "southwest": {"lat": 19.35574902010728, "lng": -99.08907942989272}}}, "icon": "https://maps.gstatic.com/mapfiles/place_api/icons/v1/png_71/shopping-71.png", "name": "Delectric", "opening_hours": {"open_now": false}, "photos": [{"height": 3120, "html_attributions": ["<a href=\"https://maps.google.com/maps/contrib/110680879761507030388\">Juan Manuel Pita Moctezuma</a>"], "photo_reference": "CmRaAAAASL5nMgBWvOhqlAw0qOzrP8qtLyimBfBcnKNBSPR7Gha0BxyxXTixyRq9TBuOMbp2WMp3-to9qIRTeHN03pbI4x98MEEwHHbrIieywX42sen53_ASrrjoe3Vx4zk9uK2sEhAm8Zy-DObos5CjHPIn7C8iGhTksT10sclPwMMHmtTKorTiXh3-Zg", "width": 4160}], "place_id": "ChIJX4vRHe_90YUROMHm6wWNyV0", "plus_code": {"compound_code": "9W46+PR Mexico City", "global_code": "76F29W46+PR"}, "rating": 4.2, "reference": "ChIJX4vRHe_90YUROMHm6wWNyV0", "types": ["electronics_store", "point_of_interest", "store", "establishment"], "user_ratings_total": 121}, {"business_status": "OPERATIONAL", "formatted_address": "Ermita Iztapalapa 203, Ricardo Flores Mag\u00f3n, Iztapalapa, 09820 Ciudad de M\u00e9xico, CDMX", "geometry": {"location": {"lat": 19.3554062, "lng": -99.09734979999999}, "viewport": {"northeast": {"lat": 19.35679432989273, "lng": -99.09633862010726}, "southwest": {"lat": 19.35409467010728, "lng": -99.09903827989271}}}, "icon": "https://maps.gstatic.com/mapfiles/place_api/icons/v1/png_71/shopping-71.png", "name": "rep. de radiadores", "place_id": "ChIJR1NbBuP90YURz3sheIGGjjA", "plus_code": {"compound_code": "9W43+53 Mexico City", "global_code": "76F29W43+53"}, "rating": 0, "reference": "ChIJR1NbBuP90YURz3sheIGGjjA", "types": ["electronics_store", "point_of_interest", "store", "establishment"], "user_ratings_total": 0}, {"business_status": "OPERATIONAL", "formatted_address": "Avenida Santa Ana, Culhuacan CTM V, Coyoac\u00e1n, 04480 Ciudad de M\u00e9xico, CDMX", "geometry": {"location": {"lat": 19.32864, "lng": -99.11412899999999}, "viewport": {"northeast": {"lat": 19.32997077989272, "lng": -99.11278117010728}, "southwest": {"lat": 19.32727112010728, "lng": -99.11548082989273}}}, "icon": "https://maps.gstatic.com/mapfiles/place_api/icons/v1/png_71/shopping-71.png", "name": "Omega Electronics", "opening_hours": {"open_now": false}, "photos": [{"height": 1899, "html_attributions": ["<a href=\"https://maps.google.com/maps/contrib/104706341966405225541\">Omega Electronics</a>"], "photo_reference": "CmRaAAAA9V7Q1XR6LEUilrEVG0DVTdOrOMa5i2fqGjbohkOjJQKADONKa3rrYwPHkU-9MxyGmiXUz2EROuurhBYiSA-QH2rt7VA2yalTioPDxGiMzb81b2I8F_KiIsN7ZXqN656SEhCCewvfnk4QefOz-f0pjUhjGhSdbBJ_4v7f8RfNQGn_BFf-G05e3g", "width": 3306}], "place_id": "ChIJS0RaYeUBzoURcL9kJv8_His", "plus_code": {"compound_code": "8VHP+F8 Mexico City", "global_code": "76F28VHP+F8"}, "rating": 4.4, "reference": "ChIJS0RaYeUBzoURcL9kJv8_His", "types": ["electronics_store", "point_of_interest", "store", "establishment"], "user_ratings_total": 60}, {"business_status": "OPERATIONAL", "formatted_address": "5 de Mayo 76, San Ignacio, Iztapalapa, 09000 Ciudad de M\u00e9xico, CDMX", "geometry": {"location": {"lat": 19.3616223, "lng": -99.0956333}, "viewport": {"northeast": {"lat": 19.36301827989272, "lng": -99.09426892010727}, "southwest": {"lat": 19.36031862010728, "lng": -99.09696857989272}}}, "icon": "https://maps.gstatic.com/mapfiles/place_api/icons/v1/png_71/shopping-71.png", "name": "Electr\u00f3nica Guerrero", "opening_hours": {"open_now": false}, "photos": [{"height": 1600, "html_attributions": ["<a href=\"https://maps.google.com/maps/contrib/100256998439982125895\">A Google User</a>"], "photo_reference": "CmRaAAAAYibW2_Z1oZBVi4jz124Lwsolq2Etriy5-olE7Ef1D88vZvN2BMSMg-4F-ORj9xeggs-jFX537psLsUGncgn5bPS1B9cXvudNsFU4rEOYolxUg6ER9aL2SLEG774XtllpEhBcJEBHgfzJmabzs_7ReIvyGhR2FwVnwgaktxVEHdJ_uxEDq71YWA", "width": 1200}], "place_id": "ChIJXQyQaNH90YURlXrW36w8bwU", "plus_code": {"compound_code": "9W63+JP Mexico City", "global_code": "76F29W63+JP"}, "rating": 0, "reference": "ChIJXQyQaNH90YURlXrW36w8bwU", "types": ["electronics_store", "point_of_interest", "store", "establishment"], "user_ratings_total": 0}, {"business_status": "OPERATIONAL", "formatted_address": "Calle San Mart\u00edn 9, Lomas el Manto, Iztapalapa, 09830 Ciudad de M\u00e9xico, CDMX", "geometry": {"location": {"lat": 19.351115, "lng": -99.0875773}, "viewport": {"northeast": {"lat": 19.35243897989272, "lng": -99.08623212010728}, "southwest": {"lat": 19.34973932010728, "lng": -99.08893177989272}}}, "icon": "https://maps.gstatic.com/mapfiles/place_api/icons/v1/png_71/shopping-71.png", "name": "Abraham Hojalatero", "place_id": "ChIJp7WYiLn90YURSVDDbHD8_k0", "plus_code": {"compound_code": "9W26+CX Mexico City", "global_code": "76F29W26+CX"}, "rating": 0, "reference": "ChIJp7WYiLn90YURSVDDbHD8_k0", "types": ["electronics_store", "point_of_interest", "store", "establishment"], "user_ratings_total": 0}, {"business_status": "OPERATIONAL", "formatted_address": "Ermita Iztapalapa 1853, 2da Amp San Miguel, Iztapalapa, 09830 Ciudad de M\u00e9xico, CDMX", "geometry": {"location": {"lat": 19.3499094, "lng": -99.07482770000001}, "viewport": {"northeast": {"lat": 19.35166597989272, "lng": -99.07327287010729}, "southwest": {"lat": 19.34896632010727, "lng": -99.07597252989274}}}, "icon": "https://maps.gstatic.com/mapfiles/place_api/icons/v1/png_71/shopping-71.png", "name": "RadioShack", "opening_hours": {"open_now": true}, "photos": [{"height": 2340, "html_attributions": ["<a href=\"https://maps.google.com/maps/contrib/104987202215943596517\">Noe Redbandera Oficial</a>"], "photo_reference": "CmRaAAAAKeQZhY9e1iFWRooodQMJUzZ7NM9IMQ77TcgcZvulB3tGRgyrRVkmJfK9JUjp2Siv_DM1MIKd0awFLQ-k1RRFFy_0Fv8Y0_558I1PiXt3B2Gpq9TaXmhRxVqC0Rql7_1dEhAZT6f0LWFw8Okiu5rOubFZGhT_BmWCQffWvIT42pitk-j2Lp0JRg", "width": 4160}], "place_id": "ChIJ4bdGso390YURZWVV36DKTEs", "plus_code": {"compound_code": "8WXG+X3 Mexico City", "global_code": "76F28WXG+X3"}, "price_level": 2, "rating": 4.1, "reference": "ChIJ4bdGso390YURZWVV36DKTEs", "types": ["electronics_store", "point_of_interest", "store", "establishment"], "user_ratings_total": 225}, {"business_status": "OPERATIONAL", "formatted_address": "El Salvador #23 Local A, Centro, 06000 Ciudad de M\u00e9xico, CDMX", "geometry": {"location": {"lat": 19.4300876, "lng": -99.1401138}, "viewport": {"northeast": {"lat": 19.43146512989272, "lng": -99.13875587010727}, "southwest": {"lat": 19.42876547010728, "lng": -99.14145552989272}}}, "icon": "https://maps.gstatic.com/mapfiles/place_api/icons/v1/png_71/shopping-71.png", "name": "CDMX Electr\u00f3nica Centro", "opening_hours": {"open_now": false}, "photos": [{"height": 938, "html_attributions": ["<a href=\"https://maps.google.com/maps/contrib/100246622682014321766\">A Google User</a>"], "photo_reference": "CmRaAAAAL83egWsnyV5AADI1PAcfCR0tSQVnh0dYK70zFtfd9EMBvJcuU-MUSkH_ueXQSYnHgzKQ9pwNFiBWeHFUoBRb5bD_uwA2V84TTFN8N-W7_-aXW_gwtvIH1LUu2nAqV4-qEhAtoLlsPX1fP66wrnmptNPRGhQpRna4EJ3exOZmzMn_qsfnAezyLA", "width": 1250}], "place_id": "ChIJ9ZGdOiL_0YURXxyp2em7ib4", "plus_code": {"compound_code": "CVJ5+2X Mexico City", "global_code": "76F2CVJ5+2X"}, "rating": 4.8, "reference": "ChIJ9ZGdOiL_0YURXxyp2em7ib4", "types": ["electronics_store", "point_of_interest", "store", "establishment"], "user_ratings_total": 106}, {"business_status": "OPERATIONAL", "formatted_address": "Eje 8 Sur, Santa Isabel Industrial, 09820 Iztapalapa, CDMX", "geometry": {"location": {"lat": 19.3560579, "lng": -99.10704869999999}, "viewport": {"northeast": {"lat": 19.35741192989272, "lng": -99.1057514201073}, "southwest": {"lat": 19.35471227010728, "lng": -99.10845107989273}}}, "icon": "https://maps.gstatic.com/mapfiles/place_api/icons/v1/png_71/shopping-71.png", "name": "Mitzu Ermita", "opening_hours": {"open_now": false}, "photos": [{"height": 4608, "html_attributions": ["<a href=\"https://maps.google.com/maps/contrib/101226785813533469313\">A Google User</a>"], "photo_reference": "CmRaAAAAGOUw7HIvRinAsRjVzVP_HdJ0uFKF5X8NDVvk6TMk2jUd1AuYIRxDSHlb3JdS-WQyGSNoDNLWBQxncNbnS-F12s2-GCxUcbePQyKPo37i6C-m371-0-kmy6wlhZeELqhEEhCkQ61QVC32DtBfeI_CJxfsGhSM9J9TWInUeNqPxFhKLq2mtDlj6w", "width": 3456}], "place_id": "ChIJZaepzQ7-0YUR9LB0f7LYI1s", "plus_code": {"compound_code": "9V4V+C5 Mexico City", "global_code": "76F29V4V+C5"}, "rating": 3.9, "reference": "ChIJZaepzQ7-0YUR9LB0f7LYI1s", "types": ["electronics_store", "point_of_interest", "store", "establishment"], "user_ratings_total": 148}, {"business_status": "OPERATIONAL", "formatted_address": "Ermita Iztapalapa 941, Santa Isabel Industrial, Iztapalapa, 09820 Ciudad de M\u00e9xico, CDMX", "geometry": {"location": {"lat": 19.3553705, "lng": -99.10197079999999}, "viewport": {"northeast": {"lat": 19.35690712989272, "lng": -99.10060577010728}, "southwest": {"lat": 19.35420747010727, "lng": -99.10330542989273}}}, "icon": "https://maps.gstatic.com/mapfiles/place_api/icons/v1/png_71/shopping-71.png", "name": "Viveco", "place_id": "ChIJ67TzMMD_0YURCj0Nv4i4e8Q", "plus_code": {"compound_code": "9V4X+46 Mexico City", "global_code": "76F29V4X+46"}, "rating": 0, "reference": "ChIJ67TzMMD_0YURCj0Nv4i4e8Q", "types": ["electronics_store", "point_of_interest", "store", "establishment"], "user_ratings_total": 0}, {"business_status": "OPERATIONAL", "formatted_address": "Ermita Iztapalapa 1328, Amp Ricardo Flores Mag\u00f3n, Iztapalapa, 09000 Ciudad de M\u00e9xico, CDMX", "geometry": {"location": {"lat": 19.3586616, "lng": -99.0890884}, "viewport": {"northeast": {"lat": 19.35990042989272, "lng": -99.08779057010729}, "southwest": {"lat": 19.35720077010728, "lng": -99.09049022989272}}}, "icon": "https://maps.gstatic.com/mapfiles/place_api/icons/v1/png_71/shopping-71.png", "name": "Mega Elektra Iztapalapa San Pablo", "opening_hours": {"open_now": true}, "photos": [{"height": 2096, "html_attributions": ["<a href=\"https://maps.google.com/maps/contrib/117356300501619480687\">Kerim Garci</a>"], "photo_reference": "CmRaAAAARLhbV0NEmpYY0k26qmqiViYkMM-EWW6JkNk6aMq3neKom_PjWAnpZdMIfAFS_mZGzJSIVCWZuIdlzbz8_yWopdp8NJbCI1FBXe75AACL-9bcBmyIUxhYwJvk2PXY1scsEhBAab9LC-k3CA4sytF72rW2GhQwRTAGm_jQaxVpblI4UVsrf6B-jw", "width": 3724}], "place_id": "ChIJGx5lTO_90YURaWe-HWxVoHM", "plus_code": {"compound_code": "9W56+F9 Mexico City", "global_code": "76F29W56+F9"}, "rating": 3.7, "reference": "ChIJGx5lTO_90YURaWe-HWxVoHM", "types": ["electronics_store", "furniture_store", "home_goods_store", "point_of_interest", "store", "establishment"], "user_ratings_total": 877}, {"business_status": "OPERATIONAL", "formatted_address": "Ermita Iztapalapa 385, El Santuario, Iztapalapa, 09820 Ciudad de M\u00e9xico, CDMX", "geometry": {"location": {"lat": 19.3562435, "lng": -99.0906995}, "viewport": {"northeast": {"lat": 19.35766282989272, "lng": -99.0893589701073}, "southwest": {"lat": 19.35496317010728, "lng": -99.09205862989273}}}, "icon": "https://maps.gstatic.com/mapfiles/place_api/icons/v1/png_71/shopping-71.png", "name": "Refrigeraci\u00f3n Comercial Lascares", "opening_hours": {"open_now": false}, "photos": [{"height": 2340, "html_attributions": ["<a href=\"https://maps.google.com/maps/contrib/107209882250019871555\">Rafael Reyes Calder\u00f3n</a>"], "photo_reference": "CmRaAAAANDLYUsxjBoVGCPHiPCpHSiKujKP66D6PiAv4kf5ptxOcVTqfEUUlkXcwyPiGuXAb4vQoJHjNmFVTkFUynqnyIGZJmRH1TTwXvNruRwTPzC0Tz-YOIpdR8cb86tE5jnDFEhBHvRLyy5oznSXeHuBXPuGrGhTf7OYvK_40t9FbXylxlhrX2knSvA", "width": 4160}], "place_id": "ChIJIS7Dg-X90YURubpkliImKFw", "plus_code": {"compound_code": "9W45+FP Mexico City", "global_code": "76F29W45+FP"}, "rating": 4.5, "reference": "ChIJIS7Dg-X90YURubpkliImKFw", "types": ["electronics_store", "home_goods_store", "point_of_interest", "store", "establishment"], "user_ratings_total": 4}, {"business_status": "OPERATIONAL", "formatted_address": "Agustin de Iturbide NO.46 Col. Culhuacan, Deleg. Iztapalapa, 09800 Ciudad de M\u00e9xico, CDMX", "geometry": {"location": {"lat": 19.3372893, "lng": -99.10566899999999}, "viewport": {"northeast": {"lat": 19.33862037989272, "lng": -99.10433432010727}, "southwest": {"lat": 19.33592072010727, "lng": -99.10703397989272}}}, "icon": "https://maps.gstatic.com/mapfiles/place_api/icons/v1/png_71/shopping-71.png", "name": "Sf Computaci\u00f3n", "opening_hours": {"open_now": false}, "place_id": "ChIJ3Vk81f0BzoURF-nvsTbXz0w", "rating": 0, "reference": "ChIJ3Vk81f0BzoURF-nvsTbXz0w", "types": ["electronics_store", "home_goods_store", "point_of_interest", "store", "establishment"], "user_ratings_total": 0}, {"business_status": "OPERATIONAL", "formatted_address": "Velo de Novia 103, Los \u00c1ngeles, Iztapalapa, 09830 Ciudad de M\u00e9xico, CDMX", "geometry": {"location": {"lat": 19.344317, "lng": -99.06586039999999}, "viewport": {"northeast": {"lat": 19.34565977989272, "lng": -99.06448122010728}, "southwest": {"lat": 19.34296012010728, "lng": -99.06718087989273}}}, "icon": "https://maps.gstatic.com/mapfiles/place_api/icons/v1/png_71/shopping-71.png", "name": "INTERNET Y ELECTRONICA DANTE", "place_id": "ChIJj8aNo4f90YUR4sUIkICo77M", "plus_code": {"compound_code": "8WVM+PM Mexico City", "global_code": "76F28WVM+PM"}, "rating": 0, "reference": "ChIJj8aNo4f90YUR4sUIkICo77M", "types": ["electronics_store", "point_of_interest", "store", "establishment"], "user_ratings_total": 0}, {"business_status": "OPERATIONAL", "formatted_address": "Cerrada Iturbide 12, San Lucas, Iztapalapa, 09000 Ciudad de M\u00e9xico, CDMX", "geometry": {"location": {"lat": 19.3614263, "lng": -99.09630240000001}, "viewport": {"northeast": {"lat": 19.36266982989272, "lng": -99.09501132010729}, "southwest": {"lat": 19.35997017010727, "lng": -99.09771097989274}}}, "icon": "https://maps.gstatic.com/mapfiles/place_api/icons/v1/png_71/shopping-71.png", "name": "Reparadoc", "opening_hours": {"open_now": true}, "place_id": "ChIJk4xIvuP90YUR94qDsOEJk3A", "plus_code": {"compound_code": "9W63+HF Mexico City", "global_code": "76F29W63+HF"}, "rating": 0, "reference": "ChIJk4xIvuP90YUR94qDsOEJk3A", "types": ["electronics_store", "point_of_interest", "store", "establishment"], "user_ratings_total": 0}, {"business_status": "OPERATIONAL", "formatted_address": "Ermita Iztapalapa 2955, San Miguel, Iztapalapa, 09360 Ciudad de M\u00e9xico, CDMX", "geometry": {"location": {"lat": 19.3502113, "lng": -99.07159899999999}, "viewport": {"northeast": {"lat": 19.35148327989272, "lng": -99.07025982010727}, "southwest": {"lat": 19.34878362010727, "lng": -99.07295947989272}}}, "icon": "https://maps.gstatic.com/mapfiles/place_api/icons/v1/png_71/shopping-71.png", "name": "Compras TV Iztapalapa", "photos": [{"height": 3456, "html_attributions": ["<a href=\"https://maps.google.com/maps/contrib/106601951629316928851\">Raul Cortes</a>"], "photo_reference": "CmRaAAAAnwJFgicNM4kpqiFayAVzCAZ7Q7Bq_XMM8isk6vFZ1PPOb1r2wbZzPwoioO_s_oWHJBnp00tyrqykt3Nc57iDTWsJ73fgjNs6tHlBnNU1v3KsxZ2bqj-HS8eIk1yHISf4EhCUdpZQqueGGju-Zz9pPdjYGhS5HHFHVtquj8aHfY-HxDkTb2j6GQ", "width": 4608}], "place_id": "ChIJjYJh74790YURKXUHsvbghsQ", "plus_code": {"compound_code": "9W2H+39 Mexico City", "global_code": "76F29W2H+39"}, "rating": 3.6, "reference": "ChIJjYJh74790YURKXUHsvbghsQ", "types": ["electronics_store", "point_of_interest", "store", "establishment"], "user_ratings_total": 14}, {"business_status": "OPERATIONAL", "formatted_address": "Av. Tlahuac 3680, Culhuacan, Iztapalapa, 09800 Ciudad de M\u00e9xico, CDMX", "geometry": {"location": {"lat": 19.3358363, "lng": -99.1088355}, "viewport": {"northeast": {"lat": 19.33718807989273, "lng": -99.10753222010727}, "southwest": {"lat": 19.33448842010728, "lng": -99.11023187989272}}}, "icon": "https://maps.gstatic.com/mapfiles/place_api/icons/v1/png_71/shopping-71.png", "name": "SYSTEMS AUDIO", "opening_hours": {"open_now": true}, "photos": [{"height": 2061, "html_attributions": ["<a href=\"https://maps.google.com/maps/contrib/106417684213086144754\">SYSTEMS AUDIO</a>"], "photo_reference": "CmRaAAAA0Vff3eM6OvvvfeqBUGiYujFS8AUML2I8Kk2v_hPLFobm2dczEAaxS0MR-nhwwpa1mZorKQLfZwNctG27g0J40BruaRqH7a1Qexfl5nnIc5nfs0qOdDdHs_ComUzXoyJWEhA9L74I2wgCJ1PO-aoymk0xGhRe3VizQf3jVeVrdB-tgZinHk3yKQ", "width": 3664}], "place_id": "ChIJJYLNaPwBzoURqxQkgaXPZgw", "plus_code": {"compound_code": "8VPR+8F Mexico City", "global_code": "76F28VPR+8F"}, "rating": 4.4, "reference": "ChIJJYLNaPwBzoURqxQkgaXPZgw", "types": ["electronics_store", "point_of_interest", "store", "establishment"], "user_ratings_total": 8}, {"business_status": "OPERATIONAL", "formatted_address": "Playa Tenacatita 93, Santiago Sur, Iztacalco, 08800 Ciudad de M\u00e9xico, CDMX", "geometry": {"location": {"lat": 19.3873321, "lng": -99.12716189999999}, "viewport": {"northeast": {"lat": 19.38866192989272, "lng": -99.12571907010727}, "southwest": {"lat": 19.38596227010728, "lng": -99.12841872989272}}}, "icon": "https://maps.gstatic.com/mapfiles/place_api/icons/v1/png_71/shopping-71.png", "name": "Electronica De La Rosa. Maracasdjero", "photos": [{"height": 3264, "html_attributions": ["<a href=\"https://maps.google.com/maps/contrib/111884993554754358744\">Edmundo De la Rosa O</a>"], "photo_reference": "CmRaAAAAprtZHWZmfnxGaPVRfr3aBPsBKrFQeLVCy0vrafOful5kIqDSydkM2KwnLCN7VqyjY1Z4jnBgS3QrnfSRTrg_R3rcjdeM72dgqdZLTfwT-Al8_--0GwxEVXERg84NBx6hEhB6Hd2kji6r9FV_VGhUuq1oGhQQQ-FruWmvp-tjc7PZszkgaapnhQ", "width": 2448}], "place_id": "ChIJ913o0Bb_0YUR_BzVL6VB0jI", "plus_code": {"compound_code": "9VPF+W4 Mexico City", "global_code": "76F29VPF+W4"}, "rating": 5, "reference": "ChIJ913o0Bb_0YUR_BzVL6VB0jI", "types": ["electronics_store", "point_of_interest", "store", "establishment"], "user_ratings_total": 2}, {"business_status": "OPERATIONAL", "formatted_address": "Privada Ermita Iztapalapa 300, Casama, Iztapalapa, 09080 Ciudad de M\u00e9xico, CDMX", "geometry": {"location": {"lat": 19.3553961, "lng": -99.0968339}, "viewport": {"northeast": {"lat": 19.35674237989272, "lng": -99.09543682010728}, "southwest": {"lat": 19.35404272010728, "lng": -99.09813647989273}}}, "icon": "https://maps.gstatic.com/mapfiles/place_api/icons/v1/png_71/shopping-71.png", "name": "Vargas Barbosa Rita", "place_id": "ChIJgajjWOT90YURRDMk74fWyP4", "plus_code": {"compound_code": "9W43+57 Mexico City", "global_code": "76F29W43+57"}, "rating": 0, "reference": "ChIJgajjWOT90YURRDMk74fWyP4", "types": ["electronics_store", "point_of_interest", "store", "establishment"], "user_ratings_total": 0}, {"business_status": "OPERATIONAL", "formatted_address": "Av. Javier Rojo G\u00f3mez 5b, San Miguel, Iztapalapa, 09360 Ciudad de M\u00e9xico, CDMX", "geometry": {"location": {"lat": 19.3570192, "lng": -99.08615669999999}, "viewport": {"northeast": {"lat": 19.35839767989272, "lng": -99.08486527010727}, "southwest": {"lat": 19.35569802010728, "lng": -99.08756492989272}}}, "icon": "https://maps.gstatic.com/mapfiles/place_api/icons/v1/png_71/shopping-71.png", "name": "Hospital Celular Rojo G\u00f3mez", "opening_hours": {"open_now": true}, "photos": [{"height": 3120, "html_attributions": ["<a href=\"https://maps.google.com/maps/contrib/104574765529810744060\">crysthofer el indio</a>"], "photo_reference": "CmRaAAAAyZetWLsmZh30xV6nIrt9s4WiimVMLKseFCgR4qgfdIcx40DdDjvwsKCyCPHBJpIv6rYhv8nLhWKzapYATtSmr0HcTKlqIjp2p8zdKWXRwSEkL-8xnJ2B0e82yEgFRjXBEhAAN53YJPQ1ulWZ8xWdviZRGhQPScImJp3A34ZibQeCmbvkgi7Rpg", "width": 4160}], "place_id": "ChIJdyRaVCX90YURT8xAJrKPyRg", "plus_code": {"compound_code": "9W47+RG Mexico City", "global_code": "76F29W47+RG"}, "rating": 0, "reference": "ChIJdyRaVCX90YURT8xAJrKPyRg", "types": ["electronics_store", "point_of_interest", "store", "establishment"], "user_ratings_total": 0}, {"business_status": "OPERATIONAL", "formatted_address": "Canal de Apatlaco, Av. R\u00edo Churubusco 1635, \u00c1rea Federal Central de Abastos, Iztapalapa, 09040 CDMX", "geometry": {"location": {"lat": 19.3764898, "lng": -99.09515019999999}, "viewport": {"northeast": {"lat": 19.37782982989272, "lng": -99.09364732010727}, "southwest": {"lat": 19.37513017010728, "lng": -99.09634697989272}}}, "icon": "https://maps.gstatic.com/mapfiles/place_api/icons/v1/png_71/shopping-71.png", "name": "RadioShack", "opening_hours": {"open_now": true}, "photos": [{"height": 367, "html_attributions": ["<a href=\"https://maps.google.com/maps/contrib/103467831667089539472\">RadioShack</a>"], "photo_reference": "CmRaAAAATAn9A_Y11KfpQCYbWwsv9dUYUr8JiKtyQKSEaK3c0QENiJqmAy9DEVjqu9JU_L8BMEDGc2CYcFvTNCf6EFjHWzATUUKo9AukvFKCXvgyy8MpkuR81VgWnk3qNgaKBJpoEhAGRhPoRTgGSNUpgr-CzatiGhTR5WPnsEszY7VEVMTTYiYa6MTv1Q", "width": 489}], "place_id": "ChIJGV8uKE_50YURAMm4AfnOTx8", "plus_code": {"compound_code": "9WG3+HW \u00c1rea Federal Central de Abastos, Mexico City", "global_code": "76F29WG3+HW"}, "price_level": 2, "rating": 4.2, "reference": "ChIJGV8uKE_50YURAMm4AfnOTx8", "types": ["electronics_store", "point_of_interest", "store", "establishment"], "user_ratings_total": 114}]