[{"business_status": "OPERATIONAL", "formatted_address": "Ayuntamiento 17, San Pablo, Iztapalapa, 09000 Ciudad de M\u00e9xico, CDMX", "geometry": {"location": {"lat": 19.3587563, "lng": -99.0918452}, "viewport": {"northeast": {"lat": 19.36011462989272, "lng": -99.09052827010728}, "southwest": {"lat": 19.35741497010728, "lng": -99.09322792989272}}}, "icon": "https://maps.gstatic.com/mapfiles/place_api/icons/v1/png_71/shopping-71.png", "name": "JOYERIA MIRIAM", "opening_hours": {"open_now": false}, "place_id": "ChIJnc4P3-X90YURSrJ8PNgi5cw", "plus_code": {"compound_code": "9W55+G7 Mexico City", "global_code": "76F29W55+G7"}, "rating": 5, "reference": "ChIJnc4P3-X90YURSrJ8PNgi5cw", "types": ["jewelry_store", "point_of_interest", "store", "establishment"], "user_ratings_total": 1}, {"business_status": "OPERATIONAL", "formatted_address": "Av. Tlahuac #1, Los Cipreses, Iztapalapa, 09820 Ciudad de M\u00e9xico, CDMX", "geometry": {"location": {"lat": 19.3558755, "lng": -99.10610369999999}, "viewport": {"northeast": {"lat": 19.35720032989272, "lng": -99.10458112010728}, "southwest": {"lat": 19.35450067010728, "lng": -99.10728077989272}}}, "icon": "https://maps.gstatic.com/mapfiles/place_api/icons/v1/png_71/shopping-71.png", "name": "Charm joyer\u00edas", "place_id": "ChIJK46YoaD_0YURnQU9yFHGPe0", "plus_code": {"compound_code": "9V4V+9H Mexico City", "global_code": "76F29V4V+9H"}, "rating": 0, "reference": "ChIJK46YoaD_0YURnQU9yFHGPe0", "types": ["jewelry_store", "point_of_interest", "store", "establishment"], "user_ratings_total": 0}, {"business_status": "OPERATIONAL", "formatted_address": "Av. Tlahuac 3570, Culhuacan, Iztapalapa, 09800 Ciudad de M\u00e9xico, CDMX", "geometry": {"location": {"lat": 19.3388662, "lng": -99.10873319999999}, "viewport": {"northeast": {"lat": 19.34021692989272, "lng": -99.10743072010729}, "southwest": {"lat": 19.33751727010728, "lng": -99.11013037989272}}}, "icon": "https://maps.gstatic.com/mapfiles/place_api/icons/v1/png_71/shopping-71.png", "name": "Joyer\u00eda Raul", "opening_hours": {"open_now": true}, "photos": [{"height": 2048, "html_attributions": ["<a href=\"https://maps.google.com/maps/contrib/111698643454988731733\">A Google User</a>"], "photo_reference": "CmRaAAAAyXi4tK3u6B2V3Lg6gqLRFOpdIroZ-FXPA1tWeYcD3NcpQmlJkcWmMCI1yUju7o9lxh9LH-28dkXp5fNHpxQjjyIou97PYpiOIKcaQ4PxbEhrvRsk5NcH8uvTV1ZdVCmyEhC23m0X1G7uOKgy_35-Jsx6GhSjG3DIKwJfp4oMttjqMIOkCPGxEw", "width": 1536}], "place_id": "ChIJfYEhiosBzoURl8PQgEu5AZA", "plus_code": {"compound_code": "8VQR+GG Mexico City", "global_code": "76F28VQR+GG"}, "rating": 0, "reference": "ChIJfYEhiosBzoURl8PQgEu5AZA", "types": ["jewelry_store", "point_of_interest", "store", "establishment"], "user_ratings_total": 0}, {"business_status": "OPERATIONAL", "formatted_address": "Av. del Rosal 213, Iztapalapa, 09830 Ciudad de M\u00e9xico, CDMX", "geometry": {"location": {"lat": 19.3451164, "lng": -99.068732}, "viewport": {"northeast": {"lat": 19.34650112989272, "lng": -99.06737302010728}, "southwest": {"lat": 19.34380147010728, "lng": -99.07007267989272}}}, "icon": "https://maps.gstatic.com/mapfiles/place_api/icons/v1/png_71/shopping-71.png", "name": "Joyer\u00eda gisellen 01", "place_id": "ChIJW2z8fIj90YUR-NqmGeBQlyc", "plus_code": {"compound_code": "8WWJ+2G Mexico City", "global_code": "76F28WWJ+2G"}, "rating": 0, "reference": "ChIJW2z8fIj90YUR-NqmGeBQlyc", "types": ["jewelry_store", "point_of_interest", "store", "establishment"], "user_ratings_total": 0}, {"business_status": "OPERATIONAL", "formatted_address": "Cosechadores 18, Los Cipreses, Iztapalapa, 09810 Ciudad de M\u00e9xico, CDMX", "geometry": {"location": {"lat": 19.3553078, "lng": -99.1061793}, "viewport": {"northeast": {"lat": 19.35660197989272, "lng": -99.10483472010729}, "southwest": {"lat": 19.35390232010728, "lng": -99.10753437989273}}}, "icon": "https://maps.gstatic.com/mapfiles/place_api/icons/v1/png_71/shopping-71.png", "name": "Corporaci\u00f3n Rubyee S.A. de C.V.", "photos": [{"height": 1000, "html_attributions": ["<a href=\"https://maps.google.com/maps/contrib/106746984281463363686\">Rubyee</a>"], "photo_reference": "CmRaAAAA3d9WSaDtxPmy2RrRkZkt6SX3VwsM4syDskWZGq4zNgFzQLw9otqxfpiPzg0RHZgIbuKddfd_2d9DtRR5eNWOEQqBfAiS9l_ZBStxHqTnWzX7dIMmSiTE35ycMHZwvGidEhDW75M7TMeZ_DK5RbeQyzRFGhQDaBmQpt5FMdJH0KRNJfHP34s16g", "width": 1000}], "place_id": "ChIJVVVVFS8HzoURM1GAr-CgQGA", "plus_code": {"compound_code": "9V4V+4G Mexico City", "global_code": "76F29V4V+4G"}, "rating": 4.3, "reference": "ChIJVVVVFS8HzoURM1GAr-CgQGA", "types": ["jewelry_store", "point_of_interest", "store", "establishment"], "user_ratings_total": 6}, {"business_status": "OPERATIONAL", "formatted_address": "Calle 8 No. 215, Granjas San Antonio, Iztapalapa, 09070 Ciudad de M\u00e9xico, CDMX", "geometry": {"location": {"lat": 19.3650691, "lng": -99.1054554}, "viewport": {"northeast": {"lat": 19.36654337989272, "lng": -99.10405212010727}, "southwest": {"lat": 19.36384372010728, "lng": -99.10675177989272}}}, "icon": "https://maps.gstatic.com/mapfiles/place_api/icons/v1/png_71/shopping-71.png", "name": "Joyeria M\u00e9dica", "place_id": "ChIJAQBwx3T-0YURIpLJx-rT8gY", "plus_code": {"compound_code": "9V8V+2R Mexico City", "global_code": "76F29V8V+2R"}, "rating": 0, "reference": "ChIJAQBwx3T-0YURIpLJx-rT8gY", "types": ["jewelry_store", "point_of_interest", "store", "establishment"], "user_ratings_total": 0}, {"business_status": "OPERATIONAL", "formatted_address": "Cda. Ermita Iztapalapa 1853, Los \u00c1ngeles, Iztapalapa, 09830 Ciudad de M\u00e9xico, CDMX", "geometry": {"location": {"lat": 19.3424695, "lng": -99.04590139999999}, "viewport": {"northeast": {"lat": 19.34381572989272, "lng": -99.04460167010728}, "southwest": {"lat": 19.34111607010728, "lng": -99.04730132989273}}}, "icon": "https://maps.gstatic.com/mapfiles/place_api/icons/v1/png_71/shopping-71.png", "name": "Joyeria y Relojeria Gallegos", "place_id": "ChIJ7ZLKTJ0CzoURKel8XKR-opQ", "rating": 0, "reference": "ChIJ7ZLKTJ0CzoURKel8XKR-opQ", "types": ["jewelry_store", "point_of_interest", "store", "establishment"], "user_ratings_total": 0}, {"business_status": "OPERATIONAL", "formatted_address": "Av Canal de Tezontle 1512, Alfonso Ort\u00edz Tirado, Iztacalco, 09020 Iztapalapa, CDMX", "geometry": {"location": {"lat": 19.384747, "lng": -99.0945004}, "viewport": {"northeast": {"lat": 19.38614497989272, "lng": -99.09313907010728}, "southwest": {"lat": 19.38344532010727, "lng": -99.09583872989273}}}, "icon": "https://maps.gstatic.com/mapfiles/place_api/icons/v1/png_71/shopping-71.png", "name": "Joyeria Guvier", "place_id": "ChIJsWcXT9L90YURTD8L-IMRT5g", "rating": 0, "reference": "ChIJsWcXT9L90YURTD8L-IMRT5g", "types": ["jewelry_store", "point_of_interest", "store", "establishment"], "user_ratings_total": 0}, {"business_status": "OPERATIONAL", "formatted_address": "Local 97 Interior Mercado, La Pur\u00edsima, San Miguel, 09360 Ciudad de M\u00e9xico, CDMX", "geometry": {"location": {"lat": 19.3587832, "lng": -99.0719147}, "viewport": {"northeast": {"lat": 19.36014237989272, "lng": -99.07059677010729}, "southwest": {"lat": 19.35744272010728, "lng": -99.07329642989272}}}, "icon": "https://maps.gstatic.com/mapfiles/place_api/icons/v1/png_71/shopping-71.png", "name": "Joyer\u00eda Maevans", "opening_hours": {"open_now": false}, "photos": [{"height": 809, "html_attributions": ["<a href=\"https://maps.google.com/maps/contrib/110161728978193720991\">A Google User</a>"], "photo_reference": "CmRaAAAADuQlGTIJ3mRKmRtfaGeRhCdDlFrW2h6ZO9NIPjW4KwujX5Ysd60zcPclxqXGRlYb9gdUzMKrRosP_Qi_IF8sk9N-QysBWG9ouNpcJBhclaa65_IjwL5MwhZkBXU4aLNtEhD9JS2JbJux6KuxmT4-7L0lGhQAYA26mF-y11K1aHClag_hPWOA8w", "width": 1440}], "place_id": "ChIJG5NDDpL90YURBlropYRwI48", "plus_code": {"compound_code": "9W5H+G6 Mexico City", "global_code": "76F29W5H+G6"}, "rating": 5, "reference": "ChIJG5NDDpL90YURBlropYRwI48", "types": ["jewelry_store", "point_of_interest", "store", "establishment"], "user_ratings_total": 2}, {"business_status": "OPERATIONAL", "formatted_address": "Ermita Iztapalapa #1853, 2da Amp San Miguel, Iztapalapa, 09830 Ciudad de M\u00e9xico, CDMX", "geometry": {"location": {"lat": 19.3495277, "lng": -99.074434}, "viewport": {"northeast": {"lat": 19.35069507989272, "lng": -99.07312417010726}, "southwest": {"lat": 19.34799542010728, "lng": -99.07582382989271}}}, "icon": "https://maps.gstatic.com/mapfiles/place_api/icons/v1/png_71/shopping-71.png", "name": "Charm joyer\u00edas", "place_id": "ChIJdeMcMDT90YURxVgXimc9cWc", "plus_code": {"compound_code": "8WXG+R6 Mexico City", "global_code": "76F28WXG+R6"}, "rating": 0, "reference": "ChIJdeMcMDT90YURxVgXimc9cWc", "types": ["jewelry_store", "point_of_interest", "store", "establishment"], "user_ratings_total": 0}, {"business_status": "OPERATIONAL", "formatted_address": "Casa Blanca, calle: Hidalgo 21, 09260 Allen, CDMX", "geometry": {"location": {"lat": 19.3488, "lng": -99.05922}, "viewport": {"northeast": {"lat": 19.35022147989272, "lng": -99.05785422010727}, "southwest": {"lat": 19.34752182010728, "lng": -99.06055387989272}}}, "icon": "https://maps.gstatic.com/mapfiles/place_api/icons/v1/png_71/shopping-71.png", "name": "joyer\u00eda", "opening_hours": {"open_now": true}, "photos": [{"height": 1280, "html_attributions": ["<a href=\"https://maps.google.com/maps/contrib/100533557709143785188\">A Google User</a>"], "photo_reference": "CmRaAAAA0BUrBaaWho4srwQwxKg6aJk0OVo6N9mNeQxQYtBbtXCAA8-d2lIqhFc1Ss6CYsErz44eds271kYezFQXXH5jbkYg-ZubRvzdKE3Xnrf_f3L3nCEiVza59flV33uOUujfEhD-TOPGXE8d2NFbI97RZ_C4GhQuWjt7TiEBuX1RZmmbTi5CA7OZBQ", "width": 960}], "place_id": "ChIJR33MAGP90YURF7z1Sdv10hc", "plus_code": {"compound_code": "8WXR+G8 Mexico City", "global_code": "76F28WXR+G8"}, "rating": 0, "reference": "ChIJR33MAGP90YURF7z1Sdv10hc", "types": ["jewelry_store", "point_of_interest", "store", "establishment"], "user_ratings_total": 0}, {"business_status": "OPERATIONAL", "formatted_address": "Calle Perif\u00e9rico # 3278 local L44H, Colonia La Esperanza Delg, Iztapalapa, 09910 Ciudad de M\u00e9xico", "geometry": {"location": {"lat": 19.3143989, "lng": -99.0767034}, "viewport": {"northeast": {"lat": 19.31542342989272, "lng": -99.07559172010728}, "southwest": {"lat": 19.31272377010728, "lng": -99.07829137989273}}}, "icon": "https://maps.gstatic.com/mapfiles/place_api/icons/v1/png_71/shopping-71.png", "name": "Guvier", "place_id": "ChIJS3d81uIDzoURhBu-iTJBkng", "plus_code": {"compound_code": "8W7F+Q8 Mexico City", "global_code": "76F28W7F+Q8"}, "rating": 4.4, "reference": "ChIJS3d81uIDzoURhBu-iTJBkng", "types": ["jewelry_store", "point_of_interest", "store", "establishment"], "user_ratings_total": 9}, {"business_status": "OPERATIONAL", "formatted_address": "Plaza Central L-21 y 22, Canal R\u00edo Churubusco 1635, \u00c1rea Federal Central de Abastos, Iztapalapa, 09040 Ciudad de M\u00e9xico, CDMX", "geometry": {"location": {"lat": 19.3771941, "lng": -99.09737799999999}, "viewport": {"northeast": {"lat": 19.37852372989272, "lng": -99.09598402010728}, "southwest": {"lat": 19.37582407010728, "lng": -99.09868367989273}}}, "icon": "https://maps.gstatic.com/mapfiles/place_api/icons/v1/png_71/shopping-71.png", "name": "Joyer\u00edas Bizzarro Plaza Central", "opening_hours": {"open_now": true}, "photos": [{"height": 4160, "html_attributions": ["<a href=\"https://maps.google.com/maps/contrib/102396923553652690662\">Iris Sandoval</a>"], "photo_reference": "CmRaAAAAnsBP1q7euev6fnp3Cwk7bqLug60oQBfPFk_6kQO2oWkm54QYfYpxUriw9Bh-RrbbO2QZSwGrDRZErMq2ICdHM__WULEFRQB9TbjvcMAJ-sGOrbuEbK493rTt-2E2Z3rcEhAY26tF3xQTnDwxtMbMqvT5GhTzCe1NYntzfgse8Bimxfetckzk_w", "width": 2336}], "place_id": "ChIJp5MdRdf90YUR2uxEPPHLRfA", "plus_code": {"compound_code": "9WG3+V2 Mexico City", "global_code": "76F29WG3+V2"}, "rating": 4.5, "reference": "ChIJp5MdRdf90YUR2uxEPPHLRfA", "types": ["jewelry_store", "point_of_interest", "store", "establishment"], "user_ratings_total": 47}, {"business_status": "OPERATIONAL", "formatted_address": "65, Av Canal de Tezontle 1512, \u00c1rea Federal Central de Abastos, Iztapalapa, 09020 Ciudad de M\u00e9xico, CDMX", "geometry": {"location": {"lat": 19.384224, "lng": -99.0826503}, "viewport": {"northeast": {"lat": 19.38553782989272, "lng": -99.08163937010728}, "southwest": {"lat": 19.38283817010728, "lng": -99.08433902989272}}}, "icon": "https://maps.gstatic.com/mapfiles/place_api/icons/v1/png_71/shopping-71.png", "name": "Tous Jewelry", "opening_hours": {"open_now": false}, "photos": [{"height": 608, "html_attributions": ["<a href=\"https://maps.google.com/maps/contrib/112339279320374061152\">A Google User</a>"], "photo_reference": "CmRaAAAAt-pe9dN2Bui3Phr_EPBgK_adkWHa_Y2222opauTipucda1r5ha8eLcOnjRsQ5PuLJmj_SeT2GluPaHwSd_iDDa_J8DzzAK9b0j0ib_t1jUumISjIWbbs6dBbR-5AcYeEEhBvcQKhkM8Ky2KC1kSb7BZDGhTcTfQ5Bh_QgQj24eBs0AOlMbPIDg", "width": 1080}], "place_id": "ChIJq6p9yMv90YUReWbx5NvTjSs", "plus_code": {"compound_code": "9WM8+MW Mexico City", "global_code": "76F29WM8+MW"}, "rating": 4.5, "reference": "ChIJq6p9yMv90YUReWbx5NvTjSs", "types": ["jewelry_store", "point_of_interest", "store", "establishment"], "user_ratings_total": 56}, {"business_status": "OPERATIONAL", "formatted_address": "Anillo Perif. No. 3278, La Esperanza, Iztapalapa, 09910 Ciudad de M\u00e9xico, CDMX", "geometry": {"location": {"lat": 19.3143989, "lng": -99.0767034}, "viewport": {"northeast": {"lat": 19.31539852989272, "lng": -99.07555352010728}, "southwest": {"lat": 19.31269887010728, "lng": -99.07825317989271}}}, "icon": "https://maps.gstatic.com/mapfiles/place_api/icons/v1/png_71/shopping-71.png", "name": "Joyer\u00edas Bizzarro Parque las Antenas 1", "opening_hours": {"open_now": true}, "place_id": "ChIJ_3AFfC8DzoURnjJJYkV53jk", "plus_code": {"compound_code": "8W7F+Q8 Mexico City", "global_code": "76F28W7F+Q8"}, "rating": 4.2, "reference": "ChIJ_3AFfC8DzoURnjJJYkV53jk", "types": ["jewelry_store", "point_of_interest", "store", "establishment"], "user_ratings_total": 82}, {"business_status": "OPERATIONAL", "formatted_address": "Av. Canal de Garay 3278, La Esperanza, Iztapalapa, 09910 Ciudad de M\u00e9xico, CDMX", "geometry": {"location": {"lat": 19.3140467, "lng": -99.0768183}, "viewport": {"northeast": {"lat": 19.31522242989272, "lng": -99.07561097010728}, "southwest": {"lat": 19.31252277010728, "lng": -99.07831062989273}}}, "icon": "https://maps.gstatic.com/mapfiles/place_api/icons/v1/png_71/shopping-71.png", "name": "Tous", "opening_hours": {"open_now": true}, "photos": [{"height": 2976, "html_attributions": ["<a href=\"https://maps.google.com/maps/contrib/107002122480072490924\">Andrea Sol\u00eds</a>"], "photo_reference": "CmRaAAAA37gckZdiqaCjQReE3IuVci-uy0QkpjgSPwvWY50YGhEUjmWN41HtPhGWg6Cd8U39mIkuSyoZlJP9hSLpyusGUhRhueXmRm8MQ4nxryFsbfwXk1ARh77VJkqllDHNLH_DEhDmDWkhFglcykQI7DWgy5S2GhTGqUJr0VD_sU9VIIrPibSYGlvlhQ", "width": 3968}], "place_id": "ChIJIUbuohoDzoURIFCunfVxzKs", "plus_code": {"compound_code": "8W7F+J7 Mexico City", "global_code": "76F28W7F+J7"}, "rating": 3.3, "reference": "ChIJIUbuohoDzoURIFCunfVxzKs", "types": ["jewelry_store", "point_of_interest", "store", "establishment"], "user_ratings_total": 3}, {"business_status": "OPERATIONAL", "formatted_address": "Av. Canal de Tezontle No. 1512 Loc. 57 Col, Dr Alfonso Ortiz Tirado, Iztapalapa, 09020 CDMX", "geometry": {"location": {"lat": 19.3838245, "lng": -99.0685271}, "viewport": {"northeast": {"lat": 19.38516357989272, "lng": -99.06717987010728}, "southwest": {"lat": 19.38246392010728, "lng": -99.06987952989273}}}, "icon": "https://maps.gstatic.com/mapfiles/place_api/icons/v1/png_71/shopping-71.png", "name": "Joyer\u00edas Bizzarro Parque Tezontle", "opening_hours": {"open_now": true}, "photos": [{"height": 1200, "html_attributions": ["<a href=\"https://maps.google.com/maps/contrib/117326322651890302468\">A Google User</a>"], "photo_reference": "CmRaAAAA6NGJ26doIhT0bEpLSXd9Sgz6roNwBJ-_pKfuCKbWvHvvE9a-7QbXsR2kkIC79-_AscNEkI2I5ALvj-zn5szAlplGIiayUEFddahP1Z_1kjnzZi5GvVyYyTvMLMaUGaVzEhCEDGhvngMtYnY0cwCE54-fGhSG_I74IcVzJug__ll22c4d-DxcCg", "width": 1200}], "place_id": "ChIJexFzcbb90YURVxP1suVSKcA", "plus_code": {"compound_code": "9WMJ+GH Dr Alfonso Ortiz Tirado, Mexico City", "global_code": "76F29WMJ+GH"}, "rating": 4.3, "reference": "ChIJexFzcbb90YURVxP1suVSKcA", "types": ["jewelry_store", "point_of_interest", "store", "establishment"], "user_ratings_total": 51}, {"business_status": "OPERATIONAL", "formatted_address": "Porto Alegre 1381-13, El Reto\u00f1o, Iztapalapa, 09440 Ciudad de M\u00e9xico, CDMX", "geometry": {"location": {"lat": 19.3742722, "lng": -99.12359239999999}, "viewport": {"northeast": {"lat": 19.37557397989272, "lng": -99.12225022010726}, "southwest": {"lat": 19.37287432010728, "lng": -99.12494987989271}}}, "icon": "https://maps.gstatic.com/mapfiles/place_api/icons/v1/png_71/shopping-71.png", "name": "JOYERIA GALLEGOS", "opening_hours": {"open_now": false}, "photos": [{"height": 4608, "html_attributions": ["<a href=\"https://maps.google.com/maps/contrib/110172261759145119412\">Nerransula Reyes L.</a>"], "photo_reference": "CmRaAAAAvJHWvT1wv-K8U3lj-G4ocj8ieAxR2vdXazX6K5weAjZhQJoWTYqQqPc5Tnts8K4mcg7TpHbumN-LtuZSEsPLWvOJHj24spLT6IzSH5YF2R7Jb-2PUk3CSY1oOTjnW8W9EhAYN06U1di7w6Q-rJQwy_O-GhSzBd2XbHvIGju-QXcYfXSpnsLnRg", "width": 3456}], "place_id": "ChIJjUl2qEL-0YURwQ4g49-7HWs", "plus_code": {"compound_code": "9VFG+PH Mexico City", "global_code": "76F29VFG+PH"}, "rating": 3.7, "reference": "ChIJjUl2qEL-0YURwQ4g49-7HWs", "types": ["jewelry_store", "point_of_interest", "store", "establishment"], "user_ratings_total": 3}, {"business_status": "OPERATIONAL", "formatted_address": "Cerro de la Estrella, Iztapalapa, 09860 Mexico City", "geometry": {"location": {"lat": 19.3273394, "lng": -99.0749096}, "viewport": {"northeast": {"lat": 19.32874737989272, "lng": -99.07361707010729}, "southwest": {"lat": 19.32604772010728, "lng": -99.07631672989272}}}, "icon": "https://maps.gstatic.com/mapfiles/place_api/icons/v1/png_71/shopping-71.png", "name": "Taller de Joyer\u00eda Brenay", "place_id": "ChIJO3bVym0CzoURQ87b58JwWuU", "plus_code": {"compound_code": "8WGG+W2 Mexico City", "global_code": "76F28WGG+W2"}, "rating": 1, "reference": "ChIJO3bVym0CzoURQ87b58JwWuU", "types": ["jewelry_store", "point_of_interest", "store", "establishment"], "user_ratings_total": 1}, {"business_status": "OPERATIONAL", "formatted_address": "Av. Canal de Garay 3278, Tulyehualco Canal de Garay, Iztapalapa, 09910 Ciudad de M\u00e9xico, CDMX", "geometry": {"location": {"lat": 19.3139539, "lng": -99.0758048}, "viewport": {"northeast": {"lat": 19.31574437989272, "lng": -99.07447002010727}, "southwest": {"lat": 19.31304472010727, "lng": -99.07716967989272}}}, "icon": "https://maps.gstatic.com/mapfiles/place_api/icons/v1/png_71/shopping-71.png", "name": "Joyer\u00edas Bizzarro Las Antenas II", "opening_hours": {"open_now": true}, "place_id": "ChIJzWcBRaEDzoUR_PxWSAH6768", "plus_code": {"compound_code": "8W7F+HM Mexico City", "global_code": "76F28W7F+HM"}, "rating": 4.1, "reference": "ChIJzWcBRaEDzoUR_PxWSAH6768", "types": ["jewelry_store", "point_of_interest", "store", "establishment"], "user_ratings_total": 32}]