[{"business_status": "OPERATIONAL", "formatted_address": "Av Estrella, Estrella del Sur, Iztapalapa, 09829 Ciudad de M\u00e9xico, CDMX, Mexico", "geometry": {"location": {"lat": 19.3508151, "lng": -99.0958433}, "viewport": {"northeast": {"lat": 19.35215318029151, "lng": -99.0944646197085}, "southwest": {"lat": 19.3494552197085, "lng": -99.09716258029151}}}, "icon": "https://maps.gstatic.com/mapfiles/place_api/icons/v1/png_71/lodging-71.png", "name": "OBRA FLORES", "place_id": "ChIJoY_qZk_90YURksTbASCQNHA", "plus_code": {"compound_code": "9W23+8M Mexico City, CDMX, Mexico", "global_code": "76F29W23+8M"}, "reference": "ChIJoY_qZk_90YURksTbASCQNHA", "types": ["lodging", "point_of_interest", "establishment"]}, {"business_status": "OPERATIONAL", "formatted_address": "Amp el Santuario, Iztapalapa, 09829 Ciudad de M\u00e9xico, CDMX, Mexico", "geometry": {"location": {"lat": 19.3517355, "lng": -99.09676379999999}, "viewport": {"northeast": {"lat": 19.3530966302915, "lng": -99.09545431970848}, "southwest": {"lat": 19.3503986697085, "lng": -99.0981522802915}}}, "icon": "https://maps.gstatic.com/mapfiles/place_api/icons/v1/png_71/lodging-71.png", "name": "UNIDAD VILLA SAN DIEGO", "place_id": "ChIJexzOe5X90YUR6pBpcq0Kn04", "plus_code": {"compound_code": "9W23+M7 Mexico City, CDMX, Mexico", "global_code": "76F29W23+M7"}, "reference": "ChIJexzOe5X90YUR6pBpcq0Kn04", "types": ["lodging", "point_of_interest", "establishment"]}, {"business_status": "OPERATIONAL", "formatted_address": "San Pedro 74, Estado de Veracruz, Iztapalapa, 09856 Ciudad de M\u00e9xico, CDMX, Mexico", "geometry": {"location": {"lat": 19.34965129999999, "lng": -99.08927609999999}, "viewport": {"northeast": {"lat": 19.3509996802915, "lng": -99.0879065697085}, "southwest": {"lat": 19.3483017197085, "lng": -99.0906045302915}}}, "icon": "https://maps.gstatic.com/mapfiles/place_api/icons/v1/png_71/lodging-71.png", "name": "Iv\u00e1n el corco", "place_id": "ChIJxfbPeDH90YURKIsX1TyqBe0", "plus_code": {"compound_code": "8WX6+V7 Mexico City, CDMX, Mexico", "global_code": "76F28WX6+V7"}, "reference": "ChIJxfbPeDH90YURKIsX1TyqBe0", "types": ["lodging", "point_of_interest", "establishment"]}]