[{"business_status": "OPERATIONAL", "formatted_address": "San Lorenzo SN, El Rodeo, Iztapalapa, 09830 Ciudad de M\u00e9xico, CDMX", "geometry": {"location": {"lat": 19.3354626, "lng": -99.0747973}, "viewport": {"northeast": {"lat": 19.33682087989272, "lng": -99.07347742010728}, "southwest": {"lat": 19.33412122010728, "lng": -99.07617707989273}}}, "icon": "https://maps.gstatic.com/mapfiles/place_api/icons/v1/png_71/civic_building-71.png", "name": "DDF Oficina de Coordinaci\u00f3n", "place_id": "ChIJVaYO8nMCzoURpug--upy_t4", "rating": 3, "reference": "ChIJVaYO8nMCzoURpug--upy_t4", "types": ["local_government_office", "point_of_interest", "establishment"], "user_ratings_total": 1}, {"business_status": "OPERATIONAL", "formatted_address": "Av. Gavil\u00e1n Sn, \u00c1rea Federal Central de Abastos, Iztapalapa, 09367 Ciudad de M\u00e9xico, CDMX", "geometry": {"location": {"lat": 19.3752413, "lng": -99.08808309999999}, "viewport": {"northeast": {"lat": 19.37643527989272, "lng": -99.08673632010728}, "southwest": {"lat": 19.37373562010728, "lng": -99.08943597989273}}}, "icon": "https://maps.gstatic.com/mapfiles/place_api/icons/v1/png_71/civic_building-71.png", "name": "Gobierno", "place_id": "ChIJNzY2cpP90YURv7uKcjpKzMY", "rating": 0, "reference": "ChIJNzY2cpP90YURv7uKcjpKzMY", "types": ["local_government_office", "point_of_interest", "establishment"], "user_ratings_total": 0}, {"business_status": "OPERATIONAL", "formatted_address": "Ju\u00e1rez 404, San Lorenzo, 56180 Nezahualc\u00f3yotl, M\u00e9x.", "geometry": {"location": {"lat": 19.3746684, "lng": -99.0039438}, "viewport": {"northeast": {"lat": 19.37602832989272, "lng": -99.00258737010728}, "southwest": {"lat": 19.37332867010727, "lng": -99.00528702989273}}}, "icon": "https://maps.gstatic.com/mapfiles/place_api/icons/v1/png_71/civic_building-71.png", "name": "Gobierno del Estado", "place_id": "ChIJ4TLu0cji0YURz8P_WzCGJv0", "rating": 0, "reference": "ChIJ4TLu0cji0YURz8P_WzCGJv0", "types": ["local_government_office", "point_of_interest", "establishment"], "user_ratings_total": 0}, {"business_status": "OPERATIONAL", "formatted_address": "Ignacio Comonfort 56, San Lucas, Iztapalapa, 09000 Ciudad de M\u00e9xico, CDMX", "geometry": {"location": {"lat": 19.359075, "lng": -99.0930899}, "viewport": {"northeast": {"lat": 19.36028282989272, "lng": -99.09179392010728}, "southwest": {"lat": 19.35758317010728, "lng": -99.09449357989273}}}, "icon": "https://maps.gstatic.com/mapfiles/place_api/icons/v1/png_71/civic_building-71.png", "name": "Direccion General De Desarrollo Social", "photos": [{"height": 2322, "html_attributions": ["<a href=\"https://maps.google.com/maps/contrib/103234954754457919194\">Uriel Escudero</a>"], "photo_reference": "CmRaAAAAzqcnhxrDBARDcqyDY_N5_D1c-68Xs3dxx-pAphpQwKjI9lugJHiFaOkKpDZUCryL0beeJ2FETWAy2_UWLAacMgJaS7cahO6pvAsjpVbchLpZvYp0iFMoQjv9NMNvfP56EhB8iF2nQSl8VX1ffGdYu_vLGhTIXeiADLB_H3mqXGLdzWcqh0DmdA", "width": 4128}], "place_id": "ChIJLUKagOb90YURn_Wgu7wot8M", "plus_code": {"compound_code": "9W54+JQ Mexico City", "global_code": "76F29W54+JQ"}, "rating": 4, "reference": "ChIJLUKagOb90YURn_Wgu7wot8M", "types": ["local_government_office", "point_of_interest", "establishment"], "user_ratings_total": 1}, {"business_status": "OPERATIONAL", "formatted_address": "Mendiz\u00e1bal 1-B, San Lucas, Iztapalapa, 09000 Iztapalapa, CDMX", "geometry": {"location": {"lat": 19.3575766, "lng": -99.0938673}, "viewport": {"northeast": {"lat": 19.35892262989272, "lng": -99.09253927010728}, "southwest": {"lat": 19.35622297010728, "lng": -99.09523892989272}}}, "icon": "https://maps.gstatic.com/mapfiles/place_api/icons/v1/png_71/civic_building-71.png", "name": "morena OFICINA DE Atenci\u00f3n Ciudadana", "place_id": "ChIJn-KxOeT90YURPXY-ai8SuWM", "plus_code": {"compound_code": "9W54+2F San Lucas, Mexico City", "global_code": "76F29W54+2F"}, "rating": 4.3, "reference": "ChIJn-KxOeT90YURPXY-ai8SuWM", "types": ["local_government_office", "point_of_interest", "establishment"], "user_ratings_total": 3}, {"business_status": "OPERATIONAL", "formatted_address": "Domicilio Conocido S/n, Calica, Centro, Iztapalapa, 77710 Playa del Carmen, Q.R.", "geometry": {"location": {"lat": 19.3509003, "lng": -98.9956928}, "viewport": {"northeast": {"lat": 19.35225377989272, "lng": -98.99437542010727}, "southwest": {"lat": 19.34955412010728, "lng": -98.99707507989272}}}, "icon": "https://maps.gstatic.com/mapfiles/place_api/icons/v1/png_71/civic_building-71.png", "name": "Ayunatamiento Oficina del Desarrollo Economico", "place_id": "ChIJNboTT6Hi0YURdg9qc7F33YY", "rating": 0, "reference": "ChIJNboTT6Hi0YURdg9qc7F33YY", "types": ["local_government_office", "point_of_interest", "establishment"], "user_ratings_total": 0}, {"business_status": "OPERATIONAL", "formatted_address": "Chihuahua 44, San Sebasti\u00e1n Tecoloxtitla, Iztapalapa, 09250 Ciudad de M\u00e9xico, CDMX", "geometry": {"location": {"lat": 19.3626686, "lng": -99.01698239999999}, "viewport": {"northeast": {"lat": 19.36398562989272, "lng": -99.01564017010728}, "southwest": {"lat": 19.36128597010728, "lng": -99.01833982989271}}}, "icon": "https://maps.gstatic.com/mapfiles/place_api/icons/v1/png_71/civic_building-71.png", "name": "Asociacion Civil Filantropica y Educativa A.C.", "place_id": "ChIJYx-7ikv90YURu9o34WnTSlg", "plus_code": {"compound_code": "9X7M+36 Mexico City", "global_code": "76F29X7M+36"}, "rating": 4, "reference": "ChIJYx-7ikv90YURu9o34WnTSlg", "types": ["local_government_office", "point_of_interest", "establishment"], "user_ratings_total": 1}, {"business_status": "OPERATIONAL", "formatted_address": "Av Pante\u00f3n 80, San Juan Cerro, Iztapalapa, 09839 Ciudad de M\u00e9xico, CDMX", "geometry": {"location": {"lat": 19.343657, "lng": -99.07678489999999}, "viewport": {"northeast": {"lat": 19.34498302989272, "lng": -99.07544002010728}, "southwest": {"lat": 19.34228337010728, "lng": -99.07813967989273}}}, "icon": "https://maps.gstatic.com/mapfiles/place_api/icons/v1/png_71/civic_building-71.png", "name": "Direcci\u00f3n General de Participaci\u00f3n Ciudadana", "place_id": "ChIJBQ5FxIr90YUR5RQumFO4EGY", "plus_code": {"compound_code": "8WVF+F7 Mexico City", "global_code": "76F28WVF+F7"}, "rating": 0, "reference": "ChIJBQ5FxIr90YUR5RQumFO4EGY", "types": ["local_government_office", "point_of_interest", "establishment"], "user_ratings_total": 0}, {"business_status": "OPERATIONAL", "formatted_address": "Leyes de Reforma 3ra Secc, Iztapalapa, Mexico City", "geometry": {"location": {"lat": 19.375883, "lng": -99.0724915}, "viewport": {"northeast": {"lat": 19.37725932989272, "lng": -99.07130032010728}, "southwest": {"lat": 19.37455967010727, "lng": -99.07399997989272}}}, "icon": "https://maps.gstatic.com/mapfiles/place_api/icons/v1/png_71/civic_building-71.png", "name": "Ayuda a mujeres", "place_id": "ChIJxQWVrJP90YUR-UnrfEKQ_OQ", "plus_code": {"compound_code": "9WGH+92 Mexico City", "global_code": "76F29WGH+92"}, "rating": 0, "reference": "ChIJxQWVrJP90YUR-UnrfEKQ_OQ", "types": ["local_government_office", "point_of_interest", "establishment"], "user_ratings_total": 0}, {"business_status": "OPERATIONAL", "formatted_address": "Flores Mag\u00f3n 10, Miguel Alem\u00e1n, Iztapalapa, 83345 Sonora, CDMX", "geometry": {"location": {"lat": 19.3762431, "lng": -99.1037016}, "viewport": {"northeast": {"lat": 19.37758712989272, "lng": -99.10232772010728}, "southwest": {"lat": 19.37488747010728, "lng": -99.10502737989273}}}, "icon": "https://maps.gstatic.com/mapfiles/place_api/icons/v1/png_71/civic_building-71.png", "name": "Municipio de Hermosillo", "place_id": "ChIJQSphKXj-0YURB6IBWN1zIeY", "rating": 0, "reference": "ChIJQSphKXj-0YURB6IBWN1zIeY", "types": ["local_government_office", "point_of_interest", "establishment"], "user_ratings_total": 0}, {"business_status": "OPERATIONAL", "formatted_address": "Ayuntamiento 143, San Pedro, Iztapalapa, 09000 Ciudad de M\u00e9xico, CDMX", "geometry": {"location": {"lat": 19.3629858, "lng": -99.09052489999999}, "viewport": {"northeast": {"lat": 19.36435767989272, "lng": -99.08926157010727}, "southwest": {"lat": 19.36165802010728, "lng": -99.09196122989272}}}, "icon": "https://maps.gstatic.com/mapfiles/place_api/icons/v1/png_71/civic_building-71.png", "name": "Servicio de Salud P\u00fablica del Distrito Federal", "place_id": "ChIJKaYT0Of90YURaCyRkYhSc-g", "plus_code": {"compound_code": "9W75+5Q Mexico City", "global_code": "76F29W75+5Q"}, "rating": 0, "reference": "ChIJKaYT0Of90YURaCyRkYhSc-g", "types": ["local_government_office", "point_of_interest", "establishment"], "user_ratings_total": 0}, {"business_status": "OPERATIONAL", "formatted_address": "Gersayn Ugarte SN, Constituci\u00f3n de 1917, Iztapalapa, 54190 Ciudad de M\u00e9xico, CDMX", "geometry": {"location": {"lat": 19.3501311, "lng": -99.0612338}, "viewport": {"northeast": {"lat": 19.35149377989272, "lng": -99.05994767010726}, "southwest": {"lat": 19.34879412010728, "lng": -99.06264732989271}}}, "icon": "https://maps.gstatic.com/mapfiles/place_api/icons/v1/png_71/civic_building-71.png", "name": "Jefatura de Sector de Educaci\u00f3n Fisica", "place_id": "ChIJ____v4P90YUR0X3Cs7b_wsQ", "plus_code": {"compound_code": "9W2Q+3G Mexico City", "global_code": "76F29W2Q+3G"}, "rating": 0, "reference": "ChIJ____v4P90YUR0X3Cs7b_wsQ", "types": ["local_government_office", "point_of_interest", "establishment"], "user_ratings_total": 0}, {"business_status": "OPERATIONAL", "formatted_address": "Luis Zamora S/n, La Asunci\u00f3n, Iztapalapa, 09000 Ciudad de M\u00e9xico, CDMX", "geometry": {"location": {"lat": 19.3640218, "lng": -99.0923614}, "viewport": {"northeast": {"lat": 19.36547692989272, "lng": -99.09112007010728}, "southwest": {"lat": 19.36277727010728, "lng": -99.09381972989273}}}, "icon": "https://maps.gstatic.com/mapfiles/place_api/icons/v1/png_71/civic_building-71.png", "name": "Dependencias de Gobierno de Iztapalapa", "opening_hours": {"open_now": true}, "place_id": "ChIJVVVVhef90YURKQP-KF_aqLI", "rating": 0, "reference": "ChIJVVVVhef90YURKQP-KF_aqLI", "types": ["local_government_office", "point_of_interest", "establishment"], "user_ratings_total": 0}, {"business_status": "OPERATIONAL", "formatted_address": "Morelos 148, Los Reyes Culhuacan, Iztapalapa, 09800 Ciudad de M\u00e9xico, CDMX", "geometry": {"location": {"lat": 19.3469587, "lng": -99.10743269999999}, "viewport": {"northeast": {"lat": 19.34831687989272, "lng": -99.10611047010728}, "southwest": {"lat": 19.34561722010728, "lng": -99.10881012989273}}}, "icon": "https://maps.gstatic.com/mapfiles/place_api/icons/v1/png_71/civic_building-71.png", "name": "Secretar\u00eda de Educaci\u00f3n P\u00fablica Almac\u00e9n", "place_id": "ChIJibloBQT-0YUR29YBtlHMLpg", "plus_code": {"compound_code": "8VWV+Q2 Mexico City", "global_code": "76F28VWV+Q2"}, "rating": 4, "reference": "ChIJibloBQT-0YUR29YBtlHMLpg", "types": ["local_government_office", "point_of_interest", "establishment"], "user_ratings_total": 1}, {"business_status": "OPERATIONAL", "formatted_address": "Av. Canal de San Juan S/n, Tepalcates, Iztapalapa, 09210 Ciudad de M\u00e9xico, CDMX", "geometry": {"location": {"lat": 19.3944003, "lng": -99.05799429999999}, "viewport": {"northeast": {"lat": 19.39583622989272, "lng": -99.05705447010727}, "southwest": {"lat": 19.39313657010728, "lng": -99.05975412989272}}}, "icon": "https://maps.gstatic.com/mapfiles/place_api/icons/v1/png_71/civic_building-71.png", "name": "Ssp Gobierno", "place_id": "ChIJvXO2wFX80YURxI2bxDUqqsk", "plus_code": {"compound_code": "9WVR+QR Mexico City", "global_code": "76F29WVR+QR"}, "rating": 0, "reference": "ChIJvXO2wFX80YURxI2bxDUqqsk", "types": ["local_government_office", "point_of_interest", "establishment"], "user_ratings_total": 0}, {"business_status": "OPERATIONAL", "formatted_address": "De la Constitucion 1, Lomas de San Lorenzo, Iztapalapa, 04410 Ciudad de M\u00e9xico, CDMX", "geometry": {"location": {"lat": 19.3213037, "lng": -99.0637069}, "viewport": {"northeast": {"lat": 19.32264292989272, "lng": -99.06232507010728}, "southwest": {"lat": 19.31994327010728, "lng": -99.06502472989273}}}, "icon": "https://maps.gstatic.com/mapfiles/place_api/icons/v1/png_71/civic_building-71.png", "name": "Gobierno", "place_id": "ChIJ9wdKI2cCzoURwd2tWKZxRPo", "rating": 0, "reference": "ChIJ9wdKI2cCzoURwd2tWKZxRPo", "types": ["local_government_office", "point_of_interest", "establishment"], "user_ratings_total": 0}, {"business_status": "OPERATIONAL", "formatted_address": "Calle Enrique Contel S/n, Cabeza de Ju\u00e1rez, Iztapalapa, 09227 Ciudad de M\u00e9xico, CDMX", "geometry": {"location": {"lat": 19.3843541, "lng": -99.0410236}, "viewport": {"northeast": {"lat": 19.38574102989272, "lng": -99.03964417010728}, "southwest": {"lat": 19.38304137010728, "lng": -99.04234382989273}}}, "icon": "https://maps.gstatic.com/mapfiles/place_api/icons/v1/png_71/civic_building-71.png", "name": "Gobierno", "place_id": "ChIJC7gR-xv90YURs3pshM2tKUU", "plus_code": {"compound_code": "9XM5+PH Mexico City", "global_code": "76F29XM5+PH"}, "rating": 0, "reference": "ChIJC7gR-xv90YURs3pshM2tKUU", "types": ["local_government_office", "point_of_interest", "establishment"], "user_ratings_total": 0}, {"business_status": "OPERATIONAL", "formatted_address": "5 de Mayo 317, Sta B\u00e1rbara, Iztapalapa, 09000 Ciudad de M\u00e9xico, CDMX", "geometry": {"location": {"lat": 19.3641816, "lng": -99.1037971}, "viewport": {"northeast": {"lat": 19.36545282989272, "lng": -99.10247282010728}, "southwest": {"lat": 19.36275317010728, "lng": -99.10517247989273}}}, "icon": "https://maps.gstatic.com/mapfiles/place_api/icons/v1/png_71/civic_building-71.png", "name": "COMISION EJECUTIVA DELEGACIONAL PT", "place_id": "ChIJ8euX1Ar-0YURanha6RJXEc8", "plus_code": {"compound_code": "9V7W+MF Mexico City", "global_code": "76F29V7W+MF"}, "rating": 0, "reference": "ChIJ8euX1Ar-0YURanha6RJXEc8", "types": ["local_government_office", "point_of_interest", "establishment"], "user_ratings_total": 0}, {"business_status": "OPERATIONAL", "formatted_address": "Aldama 63 San Lucas, San Lucas, Iztapalapa, 09000 Ciudad de M\u00e9xico, CDMX", "geometry": {"location": {"lat": 19.3594331, "lng": -99.09341710000001}, "viewport": {"northeast": {"lat": 19.36073092989272, "lng": -99.09208602010729}, "southwest": {"lat": 19.35803127010728, "lng": -99.09478567989274}}}, "icon": "https://maps.gstatic.com/mapfiles/place_api/icons/v1/png_71/civic_building-71.png", "name": "Direccion Gerneral de Regulaci\u00f3n Territorial", "opening_hours": {"open_now": false}, "place_id": "ChIJ7U3Zheb90YUR1-qs43oA5Y0", "plus_code": {"compound_code": "9W54+QJ Mexico City", "global_code": "76F29W54+QJ"}, "rating": 5, "reference": "ChIJ7U3Zheb90YUR1-qs43oA5Y0", "types": ["local_government_office", "point_of_interest", "establishment"], "user_ratings_total": 1}, {"business_status": "OPERATIONAL", "formatted_address": "Cda. Ermita Iztapalapa 3399, Santa Mar\u00eda Atahuac\u00e1n, Iztapalapa, 09500 Ciudad de M\u00e9xico, CDMX", "geometry": {"location": {"lat": 19.3431842, "lng": -99.0473442}, "viewport": {"northeast": {"lat": 19.34453592989272, "lng": -99.0461032701073}, "southwest": {"lat": 19.34183627010728, "lng": -99.04880292989273}}}, "icon": "https://maps.gstatic.com/mapfiles/place_api/icons/v1/png_71/civic_building-71.png", "name": "Transporte de Agua Potable", "place_id": "ChIJ7ZLKTJ0CzoURIGKrdHNPSFE", "plus_code": {"compound_code": "8XV3+73 Mexico City", "global_code": "76F28XV3+73"}, "rating": 1, "reference": "ChIJ7ZLKTJ0CzoURIGKrdHNPSFE", "types": ["local_government_office", "point_of_interest", "establishment"], "user_ratings_total": 3}]