[{"business_status": "OPERATIONAL", "formatted_address": "Calle Euclides 25, Anzures, Miguel Hidalgo, 11590 Ciudad de M\u00e9xico, CDMX", "geometry": {"location": {"lat": 19.4353268, "lng": -99.18146899999999}, "viewport": {"northeast": {"lat": 19.43671347989272, "lng": -99.18013367010728}, "southwest": {"lat": 19.43401382010728, "lng": -99.18283332989273}}}, "icon": "https://maps.gstatic.com/mapfiles/place_api/icons/v1/png_71/worship_islam-71.png", "name": "Centro Educativo de la Comunidad Musulmana, AC (Mezquita de Polanco)", "photos": [{"height": 2322, "html_attributions": ["<a href=\"https://maps.google.com/maps/contrib/116268446806484373761\">A Google User</a>"], "photo_reference": "CmRaAAAARzX3mSjOWnw8cD6Ge57Z-Xf7NKtTPSzHwU-If2gLrSTWIeInHDJcDRkMInd7EpjW3cmk1tRYkfyRqx1mjwPlSqVvYHXQB5DzIu_LPncUROmOEfHzF7vG8gi5CBFJ2PYSEhCJwlm0JrLTezViZorLG1dYGhQQ5s_WCLY8M4lMIvxwchd26RK5iw", "width": 4128}], "place_id": "ChIJGdh8ta340YUR4edjVCZJRqU", "plus_code": {"compound_code": "CRP9+4C Mexico City", "global_code": "76F2CRP9+4C"}, "rating": 4.6, "reference": "ChIJGdh8ta340YUR4edjVCZJRqU", "types": ["mosque", "tourist_attraction", "place_of_worship", "point_of_interest", "establishment"], "user_ratings_total": 245}, {"business_status": "CLOSED_TEMPORARILY", "formatted_address": "Calle San Juan de Dios 460, Coapa, Villa L\u00e1zaro C\u00e1rdenas, Tlalpan, 14370 Ciudad de M\u00e9xico, CDMX", "geometry": {"location": {"lat": 19.2961128, "lng": -99.1341934}, "viewport": {"northeast": {"lat": 19.29712127989272, "lng": -99.13276852010728}, "southwest": {"lat": 19.29442162010728, "lng": -99.13546817989271}}}, "icon": "https://maps.gstatic.com/mapfiles/place_api/icons/v1/png_71/worship_islam-71.png", "name": "Madrasa Mahmud il Ufi \u0645\u0633\u062c\u062f", "permanently_closed": true, "photos": [{"height": 2448, "html_attributions": ["<a href=\"https://maps.google.com/maps/contrib/104699277006169460757\">Osman Salih</a>"], "photo_reference": "CmRaAAAAeyC8pyL6z6TB1RjYcWvkgi4WYFw9AfW8MY4WCYJbnE6QoSsV029YwMR0MCF9-xYdjYyJRREIbCVNtinjPnD8QtZEo4eanNlM8c2n4AAZlnoN_SdTcvcgFek0xnkNFDAcEhDpuS6sz5fAP2viwyg2sTw3GhQD8BgdoiQRdCiCI9M98eQPcTUl2A", "width": 3264}], "place_id": "ChIJV33BsIwBzoURbLmaOoE_z5c", "plus_code": {"compound_code": "7VW8+C8 Mexico City", "global_code": "76F27VW8+C8"}, "rating": 5, "reference": "ChIJV33BsIwBzoURbLmaOoE_z5c", "types": ["mosque", "place_of_worship", "point_of_interest", "establishment"], "user_ratings_total": 5}, {"business_status": "OPERATIONAL", "formatted_address": "Av. Insurgentes Nte. 650, Santa Mar\u00eda Insurgentes, Cuauht\u00e9moc, 06430 Ciudad de M\u00e9xico, CDMX", "geometry": {"location": {"lat": 19.4606996, "lng": -99.14663639999999}, "viewport": {"northeast": {"lat": 19.46202557989272, "lng": -99.14525397010726}, "southwest": {"lat": 19.45932592010728, "lng": -99.14795362989271}}}, "icon": "https://maps.gstatic.com/mapfiles/place_api/icons/v1/png_71/worship_islam-71.png", "name": "Comunidad Musalmana Ahmadia de Mexico", "photos": [{"height": 960, "html_attributions": ["<a href=\"https://maps.google.com/maps/contrib/104331158940015441609\">Azhar G</a>"], "photo_reference": "CmRaAAAATUhUzyFsXSVH6kwfrkxeEjjTzm7SpKWzmGPZrl2uMibo9AuqL3728IhD_NCDF9SoN8JelsD56bFNMRk0d426iyniV2pncW7ddDx2lhYuHxy1s4a3kYTD_Uped4u3krmwEhCF1_OfS6Uajfr26KKKA4_QGhTMDIggXo94i7A2V9BY7lKEs0QASA", "width": 1280}], "place_id": "ChIJpW6NeBcC0oURmEDYGSx2IiA", "plus_code": {"compound_code": "FV63+78 Mexico City", "global_code": "76F2FV63+78"}, "rating": 4.2, "reference": "ChIJpW6NeBcC0oURmEDYGSx2IiA", "types": ["mosque", "place_of_worship", "point_of_interest", "establishment"], "user_ratings_total": 17}, {"business_status": "OPERATIONAL", "formatted_address": "Lomas de Tonalco, Xochimilco, 16410 Mexico City, CDMX", "geometry": {"location": {"lat": 19.2464696, "lng": -99.1013498}, "viewport": {"northeast": {"lat": 19.24776247989272, "lng": -99.09993452010728}, "southwest": {"lat": 19.24506282010728, "lng": -99.10263417989272}}}, "icon": "https://maps.gstatic.com/mapfiles/place_api/icons/v1/png_71/worship_islam-71.png", "name": "Porwai Muhyitheen Mosque", "photos": [{"height": 920, "html_attributions": ["<a href=\"https://maps.google.com/maps/contrib/107208607718320900909\">A Google User</a>"], "photo_reference": "CmRaAAAAzVFH3ihywx_QCeK4qAHSf18peRBFCRkj8fE_qkEnkZgoqL5XVtXboaJkU7_zrjkWZxXQ8kknGwLjitxywU2FBwnkTP_153ZKFb1j5mc583llOXIfbOYYz4C7abNDpAoOEhAtRoTXWMGrASBSjQb510heGhT0vCL2F1EZ-mtAIGY5Aa40t15SVA", "width": 736}], "place_id": "ChIJVVVVVVUBzoURHPOe1eI6RpY", "plus_code": {"compound_code": "6VWX+HF Mexico City", "global_code": "76F26VWX+HF"}, "rating": 4.2, "reference": "ChIJVVVVVVUBzoURHPOe1eI6RpY", "types": ["mosque", "place_of_worship", "point_of_interest", "establishment"], "user_ratings_total": 5}, {"business_status": "OPERATIONAL", "formatted_address": "Calle Rumania 1004-1024, Portales Sur, Benito Ju\u00e1rez, 03300 Ciudad de M\u00e9xico, CDMX", "geometry": {"location": {"lat": 19.3599806, "lng": -99.14717999999999}, "viewport": {"northeast": {"lat": 19.36133042989273, "lng": -99.14583017010727}, "southwest": {"lat": 19.35863077010728, "lng": -99.14852982989272}}}, "icon": "https://maps.gstatic.com/mapfiles/place_api/icons/v1/png_71/worship_islam-71.png", "name": "Shekh Ahmed Painzegana Mosjid", "place_id": "ChIJpciy0XT_0YURm2GSABlV0fM", "plus_code": {"compound_code": "9V53+X4 Mexico City", "global_code": "76F29V53+X4"}, "rating": 0, "reference": "ChIJpciy0XT_0YURm2GSABlV0fM", "types": ["mosque", "place_of_worship", "point_of_interest", "establishment"], "user_ratings_total": 0}, {"business_status": "OPERATIONAL", "formatted_address": "Calle. Soledad entre Relox e, Av Independencia 51, Amecameca, 56900 M\u00e9x.", "geometry": {"location": {"lat": 19.1233332, "lng": -98.7675119}, "viewport": {"northeast": {"lat": 19.12458047989272, "lng": -98.76591307010729}, "southwest": {"lat": 19.12188082010728, "lng": -98.76861272989272}}}, "icon": "https://maps.gstatic.com/mapfiles/place_api/icons/v1/png_71/worship_islam-71.png", "name": "Mezcal Las Diablas", "opening_hours": {"open_now": true}, "place_id": "ChIJz_F8hcE9zoUR1F2nXCdb834", "plus_code": {"compound_code": "46FJ+8X Amecameca, State of Mexico", "global_code": "76F346FJ+8X"}, "rating": 0, "reference": "ChIJz_F8hcE9zoUR1F2nXCdb834", "types": ["mosque", "place_of_worship", "point_of_interest", "establishment"], "user_ratings_total": 0}, {"business_status": "OPERATIONAL", "formatted_address": "Blvrd H\u00e9roes del 5 de Mayo 3746, Anzures, 72450 Puebla, Pue.", "geometry": {"location": {"lat": 19.0265588, "lng": -98.20529400000001}, "viewport": {"northeast": {"lat": 19.02796092989272, "lng": -98.20399137010729}, "southwest": {"lat": 19.02526127010728, "lng": -98.20669102989272}}}, "icon": "https://maps.gstatic.com/mapfiles/place_api/icons/v1/png_71/worship_islam-71.png", "name": "Islamic Center of Puebla \u0645\u0633\u062c\u062f", "photos": [{"height": 1836, "html_attributions": ["<a href=\"https://maps.google.com/maps/contrib/103607185308760646885\">Rub\u00e9n Cort\u00e9s</a>"], "photo_reference": "CmRaAAAAEjOCAq_LnoRRbBLJDGPH11CEt9BVM94faXPaPhqBe9_BFr0eU8FYWebKaPy2O0dQBR3z5-z4xDhloRc4e5fF3CfniY5YBJYVYAdYxOAtgUGvDElueZC0sTjC_DEoyR3GEhBCYHWAM54Rej8TFMjtkuhVGhQRpNu-oPEzaJVmIioo7O4Z2Cpvew", "width": 3264}], "place_id": "ChIJox6V1bjAz4UR3OgKdkdzOrc", "plus_code": {"compound_code": "2QGV+JV Puebla", "global_code": "76F32QGV+JV"}, "rating": 4.7, "reference": "ChIJox6V1bjAz4UR3OgKdkdzOrc", "types": ["mosque", "place_of_worship", "point_of_interest", "establishment"], "user_ratings_total": 26}, {"business_status": "OPERATIONAL", "formatted_address": "Camino Rural, El Alto, Chiautempan, Tlax.", "geometry": {"location": {"lat": 20.002829, "lng": -98.3855524}, "viewport": {"northeast": {"lat": 20.00403422989272, "lng": -98.38412322010728}, "southwest": {"lat": 20.00133457010728, "lng": -98.38682287989273}}}, "icon": "https://maps.gstatic.com/mapfiles/place_api/icons/v1/png_71/worship_islam-71.png", "name": "Rancho los Guadalupes", "place_id": "ChIJv63gYWVR0IURiAj374dksjQ", "plus_code": {"compound_code": "2J37+4Q San Ignacio, Hidalgo", "global_code": "76G32J37+4Q"}, "rating": 5, "reference": "ChIJv63gYWVR0IURiAj374dksjQ", "types": ["mosque", "place_of_worship", "point_of_interest", "establishment"], "user_ratings_total": 1}, {"business_status": "OPERATIONAL", "formatted_address": "Calle Nicol\u00e1s Campa 88 Norte, Entre Morelos y, Mariano Escobedo, 76000 Santiago de Quer\u00e9taro, Qro.", "geometry": {"location": {"lat": 20.5943779, "lng": -100.401097}, "viewport": {"northeast": {"lat": 20.59572352989272, "lng": -100.3997582201073}, "southwest": {"lat": 20.59302387010727, "lng": -100.4024578798927}}}, "icon": "https://maps.gstatic.com/mapfiles/place_api/icons/v1/png_71/worship_islam-71.png", "name": "Comunidad Musulmana Ahmadia Mezquita Quer\u00e9taro", "place_id": "ChIJh6N0WNFa04URrslY-J6dfTY", "plus_code": {"compound_code": "HHVX+QH Santiago de Quer\u00e9taro, Quer\u00e9taro", "global_code": "75GXHHVX+QH"}, "rating": 5, "reference": "ChIJh6N0WNFa04URrslY-J6dfTY", "types": ["mosque", "place_of_worship", "point_of_interest", "establishment"], "user_ratings_total": 9}, {"business_status": "OPERATIONAL", "formatted_address": "Av Pe\u00f1uelas 61-A, Pe\u00f1uelas, 76140 Santiago de Quer\u00e9taro, Qro.", "geometry": {"location": {"lat": 20.6236752, "lng": -100.400296}, "viewport": {"northeast": {"lat": 20.62500902989272, "lng": -100.3988537701073}, "southwest": {"lat": 20.62230937010727, "lng": -100.4015534298927}}}, "icon": "https://maps.gstatic.com/mapfiles/place_api/icons/v1/png_71/worship_islam-71.png", "name": "Islamic Centre Mezquita Queretaro \u0645\u0633\u062c\u062f", "opening_hours": {"open_now": true}, "photos": [{"height": 774, "html_attributions": ["<a href=\"https://maps.google.com/maps/contrib/102444681021425853455\">A Rauf Razzak</a>"], "photo_reference": "CmRaAAAAXAf9ovtwld65Iz9zfwOKf2mSqX8kU5KQJlHFm3JwMTLqOhsb9fFwToURidGfO_Yue9tsKzPUbLco0iY8-RoxrL6mGhqttzqZfhR6dmQxlzVDxSFroL9yzD1zOEMTiE9pEhBcmNm7L0CR1_JmJd3eWKaYGhQROGXxxjgHPXesQ4R0WC50SULB0w", "width": 1032}], "place_id": "ChIJHTML7aVb04URlA_Nnjtl6fw", "plus_code": {"compound_code": "JHFX+FV Santiago de Quer\u00e9taro, Quer\u00e9taro", "global_code": "75GXJHFX+FV"}, "rating": 5, "reference": "ChIJHTML7aVb04URlA_Nnjtl6fw", "types": ["mosque", "place_of_worship", "point_of_interest", "establishment"], "user_ratings_total": 2}]