[{"business_status": "OPERATIONAL", "formatted_address": "Av. Tlahuac Km22.5-S, Santiago Centro, Tl\u00e1huac, 13300 Ciudad de M\u00e9xico", "geometry": {"location": {"lat": 19.296612, "lng": -99.0345947}, "viewport": {"northeast": {"lat": 19.29792692989272, "lng": -99.03323992010728}, "southwest": {"lat": 19.29522727010728, "lng": -99.03593957989271}}}, "icon": "https://maps.gstatic.com/mapfiles/place_api/icons/v1/png_71/lodging-71.png", "name": "Karaoke NiNa", "place_id": "ChIJD6rLngMDzoURk2nunUNM_Us", "plus_code": {"compound_code": "7XW8+J5 Mexico City", "global_code": "76F27XW8+J5"}, "rating": 0, "reference": "ChIJD6rLngMDzoURk2nunUNM_Us", "types": ["rv_park", "lodging", "point_of_interest", "establishment"], "user_ratings_total": 0}, {"business_status": "OPERATIONAL", "formatted_address": "Av. Ni\u00f1os Heroes 168, Doctores, Cuauht\u00e9moc, 06720 Ciudad de M\u00e9xico, CDMX", "geometry": {"location": {"lat": 19.4192908, "lng": -99.15019160000001}, "viewport": {"northeast": {"lat": 19.42065227989272, "lng": -99.14894952010728}, "southwest": {"lat": 19.41795262010728, "lng": -99.15164917989273}}}, "icon": "https://maps.gstatic.com/mapfiles/place_api/icons/v1/png_71/lodging-71.png", "name": "ESTACIONAMIENTO", "photos": [{"height": 3024, "html_attributions": ["<a href=\"https://maps.google.com/maps/contrib/100142383458068710567\">leonel hernandez</a>"], "photo_reference": "CmRaAAAAgIhORLlaNM1PqGudYEykEPD1oLWTrx72x8KcNs3Go1KI2_2boZw41IyxvZUrAb0DfvjikLWZAmIo_qN99dE5TBkVriLrNPPQvJXaiRPWYNvNAspuuTGHXv1t8eGvt6XjEhAfJudWbiklGus7a-GAUGeVGhTXUXrMNfNoaPGLNui5XhgSX-OdVw", "width": 4032}], "place_id": "ChIJXfJKFSb_0YURSdwMM9E4txY", "plus_code": {"compound_code": "CR9X+PW Mexico City", "global_code": "76F2CR9X+PW"}, "rating": 4.5, "reference": "ChIJXfJKFSb_0YURSdwMM9E4txY", "types": ["rv_park", "lodging", "point_of_interest", "establishment"], "user_ratings_total": 2}, {"business_status": "OPERATIONAL", "formatted_address": "esq. Calle Gral. Salvador Alvarado, Av. Jos\u00e9 Mart\u00ed 119, Escand\u00f3n I Secc, Miguel Hidalgo, 11800 Ciudad de M\u00e9xico, CDMX", "geometry": {"location": {"lat": 19.4033091, "lng": -99.18030209999999}, "viewport": {"northeast": {"lat": 19.40454932989272, "lng": -99.17898822010729}, "southwest": {"lat": 19.40184967010727, "lng": -99.18168787989272}}}, "icon": "https://maps.gstatic.com/mapfiles/place_api/icons/v1/png_71/lodging-71.png", "name": "ESTACIONAMIENTO PUBLICO", "photos": [{"height": 4608, "html_attributions": ["<a href=\"https://maps.google.com/maps/contrib/100860920776825814833\">A Google User</a>"], "photo_reference": "CmRaAAAAaif33aYFnvAQmYBT5dAI8LIF_Fn6CgVP1licddqYM1na2yAI05eKhRPvI0By74F9JuR8eHoK1GW0JjfujsrDlYkeKslfHrQ7GmxocmqI3k1igoQ9XddctOli0T4UdlK1EhCfmivTlyRjKgDRt4Egl5y_GhTMO9qF9GBkzVdUWFpwceD83m3BUw", "width": 2592}], "place_id": "ChIJQYVKQGb_0YURdO_-aesS388", "plus_code": {"compound_code": "CR39+8V Mexico City", "global_code": "76F2CR39+8V"}, "rating": 3.9, "reference": "ChIJQYVKQGb_0YURdO_-aesS388", "types": ["rv_park", "lodging", "point_of_interest", "establishment"], "user_ratings_total": 8}, {"business_status": "OPERATIONAL", "formatted_address": "Av. Morelos 45, Colonia Centro, Centro, Cuauht\u00e9moc, 06000 Ciudad de M\u00e9xico, CDMX", "geometry": {"location": {"lat": 19.4327083, "lng": -99.1500691}, "viewport": {"northeast": {"lat": 19.43396312989272, "lng": -99.14873142010728}, "southwest": {"lat": 19.43126347010728, "lng": -99.15143107989272}}}, "icon": "https://maps.gstatic.com/mapfiles/place_api/icons/v1/png_71/lodging-71.png", "name": "Estacionamiento P\u00fablico y Pensiones", "opening_hours": {"open_now": true}, "place_id": "ChIJp1uotNT40YURACn0MC1-qG0", "plus_code": {"compound_code": "CRMX+3X Mexico City", "global_code": "76F2CRMX+3X"}, "rating": 0, "reference": "ChIJp1uotNT40YURACn0MC1-qG0", "types": ["rv_park", "lodging", "point_of_interest", "establishment"], "user_ratings_total": 0}, {"business_status": "OPERATIONAL", "formatted_address": "Calle Zenzontle 29, Bellavista, \u00c1lvaro Obreg\u00f3n, 01140 Ciudad de M\u00e9xico, CDMX", "geometry": {"location": {"lat": 19.3954701, "lng": -99.1921096}, "viewport": {"northeast": {"lat": 19.39681927989272, "lng": -99.19075152010728}, "southwest": {"lat": 19.39411962010728, "lng": -99.19345117989273}}}, "icon": "https://maps.gstatic.com/mapfiles/place_api/icons/v1/png_71/lodging-71.png", "name": "PENSION AUTOMOTRIZ 24HRS", "opening_hours": {"open_now": true}, "photos": [{"height": 4160, "html_attributions": ["<a href=\"https://maps.google.com/maps/contrib/101865128970959414444\">A Google User</a>"], "photo_reference": "CmRaAAAAj6aXvJJfZWk50P-AXCGH0_9VeIHgxqyiJhWwqlOz97m2fVH7XnS4ebDkfrpq7H45lO8gY15QTsn3LiFnlfbbCR5XVx0br2Kl9v8r2AvA_hVIB_8j-ec1BRO0By3oyMq1EhCel47Y251043izb1kUSdtaGhRj-Ewfhe_7_bWvf-zjw5Xe2n_0Eg", "width": 3120}], "place_id": "ChIJiXoyL9gB0oUR6uwcF0eZ0sM", "plus_code": {"compound_code": "9RW5+55 Mexico City", "global_code": "76F29RW5+55"}, "rating": 3.3, "reference": "ChIJiXoyL9gB0oUR6uwcF0eZ0sM", "types": ["rv_park", "lodging", "point_of_interest", "establishment"], "user_ratings_total": 24}, {"business_status": "OPERATIONAL", "formatted_address": "Aguayo 2, Coyoac\u00e1n, 04000 Ciudad de M\u00e9xico, CDMX", "geometry": {"location": {"lat": 19.3505333, "lng": -99.16283059999999}, "viewport": {"northeast": {"lat": 19.35187387989272, "lng": -99.16143982010728}, "southwest": {"lat": 19.34917422010728, "lng": -99.16413947989273}}}, "icon": "https://maps.gstatic.com/mapfiles/place_api/icons/v1/png_71/lodging-71.png", "name": "Estacionamiento", "photos": [{"height": 2988, "html_attributions": ["<a href=\"https://maps.google.com/maps/contrib/105143792918166207379\">German Mora</a>"], "photo_reference": "CmRaAAAAJviVtqP6mHZTT9fsu4hLA4zYVLYsWf_FhQE_Vqye4NPLZKXVxqaztUC0V4rogYKiAhxsZHf630Xbmg03mFT3bgdL0LAe5_Qe7SvAfezJQz_Egmc_57eyELBHtlGu-vXTEhAwL8AfILQ-5830HLKwY9y9GhTMtP7gbGAr5sietDUgBDO-qWlI9Q", "width": 5312}], "place_id": "ChIJWelfW8P_0YURKdl8btemiX0", "plus_code": {"compound_code": "9R2P+6V Mexico City", "global_code": "76F29R2P+6V"}, "rating": 0, "reference": "ChIJWelfW8P_0YURKdl8btemiX0", "types": ["rv_park", "lodging", "point_of_interest", "establishment"], "user_ratings_total": 0}, {"business_status": "OPERATIONAL", "formatted_address": "Francisco P\u00e9rez 11, H\u00e9roes de Nacoz\u00e1ri, Gustavo A. Madero, 07780 Ciudad de M\u00e9xico, CDMX", "geometry": {"location": {"lat": 19.4714981, "lng": -99.1447795}, "viewport": {"northeast": {"lat": 19.47285252989272, "lng": -99.14350507010728}, "southwest": {"lat": 19.47015287010727, "lng": -99.14620472989273}}}, "icon": "https://maps.gstatic.com/mapfiles/place_api/icons/v1/png_71/lodging-71.png", "name": "BALEROS Y SUMINISTROS INDUSTRIALES, S.A. DE C.V.", "opening_hours": {"open_now": false}, "photos": [{"height": 2448, "html_attributions": ["<a href=\"https://maps.google.com/maps/contrib/114622602406884375656\">Pedro Garc\u00eda G\u00f3mez</a>"], "photo_reference": "CmRaAAAAR0c8t9VZp9OqoGj-kFVGCuGFG5KvoxtAdZ7bFo6ETQYg6JLERgSNAApronSUmMtEJQCEQUgVP5vc5eyq8n5B15fw473a3tQq4qiTOAtJCPYhzlFKysPrdsLp7ww5h3EtEhBOd2-RDB8zvb3qYSaljn6PGhTig4ICmPNUVV3TO0oKzfBRklGZQw", "width": 3264}], "place_id": "ChIJj5CnZAL50YURYRKlrhrGdjY", "plus_code": {"compound_code": "FVC4+H3 Mexico City", "global_code": "76F2FVC4+H3"}, "rating": 4.8, "reference": "ChIJj5CnZAL50YURYRKlrhrGdjY", "types": ["rv_park", "lodging", "point_of_interest", "establishment"], "user_ratings_total": 12}, {"business_status": "OPERATIONAL", "formatted_address": "Bosques de la Herradura, 52783 Naucalpan de Ju\u00e1rez, State of Mexico", "geometry": {"location": {"lat": 19.424937, "lng": -99.25775259999999}, "viewport": {"northeast": {"lat": 19.42625632989272, "lng": -99.25641302010726}, "southwest": {"lat": 19.42355667010727, "lng": -99.25911267989271}}}, "icon": "https://maps.gstatic.com/mapfiles/place_api/icons/v1/png_71/lodging-71.png", "name": "Bombastic-Caravan", "opening_hours": {"open_now": false}, "photos": [{"height": 646, "html_attributions": ["<a href=\"https://maps.google.com/maps/contrib/111432374794249785234\">A Google User</a>"], "photo_reference": "CmRaAAAAb1WePS99bZvPr6MVTVElAvqJ2Ep8xu8tlv1aKfuLYPTruwQprGpKyvMeqC7IEp8nWDRmypxGsZnHPMI_2Oy_rnpj9bhCe3KVsPgzQKd8hsztM2cRjPMWYsVzj8gqZ0yNEhDgZMZleGZ0SYEE_wOaCicdGhQn1xNKXRIMVFtoO9eLQnsR0dihTg", "width": 1138}], "place_id": "ChIJLV1NMhUB0oURIpgBV_ANhmI", "plus_code": {"compound_code": "CPFR+XV Naucalpan de Ju\u00e1rez, State of Mexico", "global_code": "76F2CPFR+XV"}, "rating": 0, "reference": "ChIJLV1NMhUB0oURIpgBV_ANhmI", "types": ["rv_park", "lodging", "point_of_interest", "establishment"], "user_ratings_total": 0}, {"business_status": "OPERATIONAL", "formatted_address": "03300 de, Calle Balboa 202, Portales Nte, Benito Ju\u00e1rez, Ciudad de M\u00e9xico, CDMX", "geometry": {"location": {"lat": 19.3708818, "lng": -99.14418859999999}, "viewport": {"northeast": {"lat": 19.37222217989272, "lng": -99.14277657010727}, "southwest": {"lat": 19.36952252010728, "lng": -99.14547622989272}}}, "icon": "https://maps.gstatic.com/mapfiles/place_api/icons/v1/png_71/lodging-71.png", "name": "Estacionamiento Balboa", "place_id": "ChIJmQdy4Ez-0YURqRvx_lUmERA", "plus_code": {"compound_code": "9VC4+98 Mexico City", "global_code": "76F29VC4+98"}, "rating": 4.3, "reference": "ChIJmQdy4Ez-0YURqRvx_lUmERA", "types": ["rv_park", "lodging", "point_of_interest", "establishment"], "user_ratings_total": 6}, {"business_status": "OPERATIONAL", "formatted_address": "Carr. Toluca-Naucalpan 5a, El Capulin, 53650 Naucalpan de Ju\u00e1rez, M\u00e9x.", "geometry": {"location": {"lat": 19.4421949, "lng": -99.2946545}, "viewport": {"northeast": {"lat": 19.44339697989273, "lng": -99.29323642010728}, "southwest": {"lat": 19.44069732010728, "lng": -99.29593607989273}}}, "icon": "https://maps.gstatic.com/mapfiles/place_api/icons/v1/png_71/lodging-71.png", "name": "Calle de la sta cruz", "place_id": "ChIJmbKb-PMF0oURowaDx9H7qXc", "plus_code": {"compound_code": "CPR4+V4 Naucalpan de Ju\u00e1rez, State of Mexico", "global_code": "76F2CPR4+V4"}, "rating": 0, "reference": "ChIJmbKb-PMF0oURowaDx9H7qXc", "types": ["rv_park", "lodging", "point_of_interest", "establishment"], "user_ratings_total": 0}, {"business_status": "OPERATIONAL", "formatted_address": "Calle Paradero 11, \u00c1rea Federal Central de Abastos, Iztapalapa, Ciudad de M\u00e9xico, CDMX", "geometry": {"location": {"lat": 19.3803192, "lng": -99.0801305}, "viewport": {"northeast": {"lat": 19.38165677989272, "lng": -99.0787145701073}, "southwest": {"lat": 19.37895712010728, "lng": -99.08141422989273}}}, "icon": "https://maps.gstatic.com/mapfiles/place_api/icons/v1/png_71/lodging-71.png", "name": "ANE Parking Solutions, Estacionamiento Y Pension", "opening_hours": {"open_now": true}, "photos": [{"height": 2322, "html_attributions": ["<a href=\"https://maps.google.com/maps/contrib/103302329817642223727\">Yure Cruz</a>"], "photo_reference": "CmRaAAAA3uQAfywU3z0B6osbvlPDwenGEIjMbvvjnjT-AiZQYNtCjWns8kke5uclzglYiPXHrjXPYE4CEUQ7qTEE0ak5riUXNHutsnUpFyG3BmI6RV_Nrbt75S4KLB__q6n9CQQgEhBzAitpYCE7qZP7DJW3yF5HGhRRNkLRjdX6TmB-XXj0XHF0GCzZMA", "width": 4128}], "place_id": "ChIJvY9QzMn90YURbLxdH7q6TFM", "plus_code": {"compound_code": "9WJ9+4W Mexico City", "global_code": "76F29WJ9+4W"}, "rating": 4.4, "reference": "ChIJvY9QzMn90YURbLxdH7q6TFM", "types": ["rv_park", "lodging", "point_of_interest", "establishment"], "user_ratings_total": 7}, {"business_status": "OPERATIONAL", "formatted_address": "Castilla 157, \u00c1lamos, Benito Ju\u00e1rez, 03400 Ciudad de M\u00e9xico, CDMX", "geometry": {"location": {"lat": 19.3965467, "lng": -99.14297649999999}, "viewport": {"northeast": {"lat": 19.39789292989272, "lng": -99.14160267010729}, "southwest": {"lat": 19.39519327010727, "lng": -99.14430232989274}}}, "icon": "https://maps.gstatic.com/mapfiles/place_api/icons/v1/png_71/lodging-71.png", "name": "Estacionamiento toledo", "opening_hours": {"open_now": true}, "place_id": "ChIJz9U8J_3-0YURE4_9nDle93M", "plus_code": {"compound_code": "9VW4+JR Mexico City", "global_code": "76F29VW4+JR"}, "rating": 0, "reference": "ChIJz9U8J_3-0YURE4_9nDle93M", "types": ["rv_park", "lodging", "point_of_interest", "establishment"], "user_ratings_total": 0}, {"business_status": "OPERATIONAL", "formatted_address": "Jajalpa, 1ra Amp Santiago Acahualtepec, Iztapalapa, 09608 Ciudad de M\u00e9xico, CDMX", "geometry": {"location": {"lat": 19.3511131, "lng": -99.0080914}, "viewport": {"northeast": {"lat": 19.35246042989272, "lng": -99.0067082701073}, "southwest": {"lat": 19.34976077010728, "lng": -99.00940792989273}}}, "icon": "https://maps.gstatic.com/mapfiles/place_api/icons/v1/png_71/lodging-71.png", "name": "La casa de me amorsss", "place_id": "ChIJ9dAoVn3j0YUR95N9QpTo0lQ", "plus_code": {"compound_code": "9X2R+CQ Mexico City", "global_code": "76F29X2R+CQ"}, "rating": 0, "reference": "ChIJ9dAoVn3j0YUR95N9QpTo0lQ", "types": ["rv_park", "lodging", "point_of_interest", "establishment"], "user_ratings_total": 0}, {"business_status": "OPERATIONAL", "formatted_address": "Vainilla 287, Granjas M\u00e9xico, Iztacalco, 08400 Ciudad de M\u00e9xico, CDMX", "geometry": {"location": {"lat": 19.400691, "lng": -99.100183}, "viewport": {"northeast": {"lat": 19.40211922989272, "lng": -99.09878717010729}, "southwest": {"lat": 19.39941957010727, "lng": -99.10148682989274}}}, "icon": "https://maps.gstatic.com/mapfiles/place_api/icons/v1/png_71/lodging-71.png", "name": "Dise\u00f1o En Deportes", "place_id": "ChIJBTqUdc_90YURXNOaHl7WzSM", "plus_code": {"compound_code": "CV2X+7W Mexico City", "global_code": "76F2CV2X+7W"}, "rating": 0, "reference": "ChIJBTqUdc_90YURXNOaHl7WzSM", "types": ["rv_park", "lodging", "point_of_interest", "establishment"], "user_ratings_total": 0}, {"business_status": "OPERATIONAL", "formatted_address": "Abasolo, Del Carmen, Coyoac\u00e1n, 04100 Ciudad de M\u00e9xico, CDMX", "geometry": {"location": {"lat": 19.3533127, "lng": -99.16057459999999}, "viewport": {"northeast": {"lat": 19.35464337989272, "lng": -99.15932657010727}, "southwest": {"lat": 19.35194372010728, "lng": -99.16202622989272}}}, "icon": "https://maps.gstatic.com/mapfiles/place_api/icons/v1/png_71/lodging-71.png", "name": "Estacionamiento P\u00fablico", "opening_hours": {"open_now": true}, "photos": [{"height": 3456, "html_attributions": ["<a href=\"https://maps.google.com/maps/contrib/115880215504510721721\">Rodrigo Miguel Cruz Parra</a>"], "photo_reference": "CmRaAAAAWqywXw6Cz1fnVtsRUGjdi-_h00sN4MTEYZVVhiNhMbUFjRVnxk0jIkO4bx7qtogREitNyudrd7NAkm73JTHGvpAU0vkJCpeBjqHJj6NQuwiNTvO2TKUvW5-LgAyvAsfrEhC_VlPzHWr36X1YuIwPtdeuGhSAm7600c3I28WOFFI0XCUpry_ODg", "width": 5184}], "place_id": "ChIJU4VD-4D_0YURyYUBYrrxMHk", "plus_code": {"compound_code": "9R3Q+8Q Mexico City", "global_code": "76F29R3Q+8Q"}, "rating": 0, "reference": "ChIJU4VD-4D_0YURyYUBYrrxMHk", "types": ["rv_park", "lodging", "point_of_interest", "establishment"], "user_ratings_total": 0}, {"business_status": "OPERATIONAL", "formatted_address": "Huatabampo 12, Roma Sur, Cuauht\u00e9moc, 06760 Ciudad de M\u00e9xico, CDMX", "geometry": {"location": {"lat": 19.407339, "lng": -99.15583149999999}, "viewport": {"northeast": {"lat": 19.40874932989272, "lng": -99.15448492010728}, "southwest": {"lat": 19.40604967010728, "lng": -99.15718457989273}}}, "icon": "https://maps.gstatic.com/mapfiles/place_api/icons/v1/png_71/lodging-71.png", "name": "Estacionamiento Publico", "photos": [{"height": 3264, "html_attributions": ["<a href=\"https://maps.google.com/maps/contrib/102114861264711284534\">Cesar Ram\u00edrez</a>"], "photo_reference": "CmRaAAAA405z9SRAKjcaNV-Yv6kO8uGipTjUw5LtuoBCm7CcOhIWrHuRmal2b7sFlTLaj6GNnk5gn30Wk6Oh1FvrLsFR9BC8-mKrl1OIRlW_JZwU1n3DvvWXPKZ6ZYNI9_z-BDmQEhDpYjOQzwJRnyXUdM62wVVSGhQxr3Nil_GyaSNJowiCs35GrJXdJg", "width": 2448}], "place_id": "ChIJe1W0Fxj_0YURmbCEm2iy5AU", "plus_code": {"compound_code": "CR4V+WM Mexico City", "global_code": "76F2CR4V+WM"}, "rating": 5, "reference": "ChIJe1W0Fxj_0YURmbCEm2iy5AU", "types": ["rv_park", "lodging", "point_of_interest", "establishment"], "user_ratings_total": 2}, {"business_status": "OPERATIONAL", "formatted_address": "Rep\u00fablica de Uruguay 137, Centro Hist\u00f3rico de la Cdad. de M\u00e9xico, Centro, Cuauht\u00e9moc, 06000 Ciudad de M\u00e9xico, CDMX", "geometry": {"location": {"lat": 19.4294389, "lng": -99.1301458}, "viewport": {"northeast": {"lat": 19.43086737989272, "lng": -99.12878307010727}, "southwest": {"lat": 19.42816772010728, "lng": -99.13148272989272}}}, "icon": "https://maps.gstatic.com/mapfiles/place_api/icons/v1/png_71/lodging-71.png", "name": "Estacionamiento", "place_id": "ChIJPYNnqOP_0YURol_TAc1GgQw", "plus_code": {"compound_code": "CVH9+QW Mexico City", "global_code": "76F2CVH9+QW"}, "rating": 1.3, "reference": "ChIJPYNnqOP_0YURol_TAc1GgQw", "types": ["rv_park", "lodging", "point_of_interest", "establishment"], "user_ratings_total": 3}, {"business_status": "OPERATIONAL", "formatted_address": "Portales Sur, Eje 7A Sur 174, Portales Nte, Benito Ju\u00e1rez, 03300 Ciudad de M\u00e9xico, CDMX", "geometry": {"location": {"lat": 19.3657957, "lng": -99.15274289999999}, "viewport": {"northeast": {"lat": 19.36715967989272, "lng": -99.15139047010729}, "southwest": {"lat": 19.36446002010728, "lng": -99.15409012989272}}}, "icon": "https://maps.gstatic.com/mapfiles/place_api/icons/v1/png_71/lodging-71.png", "name": "Estacionamiento Fuego Azul", "place_id": "ChIJV26G67b_0YURtsiE3J6qw8o", "plus_code": {"compound_code": "9R8W+8W Mexico City", "global_code": "76F29R8W+8W"}, "rating": 0, "reference": "ChIJV26G67b_0YURtsiE3J6qw8o", "types": ["rv_park", "lodging", "point_of_interest", "establishment"], "user_ratings_total": 0}, {"business_status": "OPERATIONAL", "formatted_address": "16090, Bugambilia 176, Xaltocan, Xochimilco, Ciudad de M\u00e9xico, CDMX", "geometry": {"location": {"lat": 19.2503686, "lng": -99.10111140000001}, "viewport": {"northeast": {"lat": 19.25161172989272, "lng": -99.09985577010728}, "southwest": {"lat": 19.24891207010728, "lng": -99.10255542989272}}}, "icon": "https://maps.gstatic.com/mapfiles/place_api/icons/v1/png_71/lodging-71.png", "name": "Xochimilco (Parking)", "place_id": "ChIJswP0Jv4DzoUR4gaKHog4hAI", "plus_code": {"compound_code": "7V2X+4H Mexico City", "global_code": "76F27V2X+4H"}, "rating": 4, "reference": "ChIJswP0Jv4DzoUR4gaKHog4hAI", "types": ["rv_park", "lodging", "point_of_interest", "establishment"], "user_ratings_total": 8}, {"business_status": "OPERATIONAL", "formatted_address": "Diagonal San Antonio 1320, Narvarte Poniente, Benito Ju\u00e1rez, 03020 Ciudad de M\u00e9xico, CDMX", "geometry": {"location": {"lat": 19.3966692, "lng": -99.1553881}, "viewport": {"northeast": {"lat": 19.39793477989272, "lng": -99.15399142010727}, "southwest": {"lat": 19.39523512010728, "lng": -99.15669107989272}}}, "icon": "https://maps.gstatic.com/mapfiles/place_api/icons/v1/png_71/lodging-71.png", "name": "Estacionamiento P\u00fablico", "place_id": "ChIJXeWtNwX_0YURUPDD9yikQu4", "plus_code": {"compound_code": "9RWV+MR Mexico City", "global_code": "76F29RWV+MR"}, "rating": 3, "reference": "ChIJXeWtNwX_0YURUPDD9yikQu4", "types": ["rv_park", "lodging", "point_of_interest", "establishment"], "user_ratings_total": 1}]