[{"business_status": "OPERATIONAL", "formatted_address": "San Pablo, 09000 Mexico City, CDMX", "geometry": {"location": {"lat": 19.3577211, "lng": -99.0932797}, "viewport": {"northeast": {"lat": 19.35918352989272, "lng": -99.09229032010728}, "southwest": {"lat": 19.35648387010728, "lng": -99.09498997989273}}}, "icon": "https://maps.gstatic.com/mapfiles/place_api/icons/v1/png_71/generic_business-71.png", "name": "Iztapalapa", "photos": [{"height": 4608, "html_attributions": ["<a href=\"https://maps.google.com/maps/contrib/113538788687902795808\">Ruben juarez avelar</a>"], "photo_reference": "CmRaAAAADTIP6j9rFiy_y64wgQTbH2xQZSW_zOUAFwUWZtQ9v5ffep-WxLm7lkTQ5navm0TOOxmizXFzmR1VO7rcReaG9MXp7fDymEkUPrpJTHvGnRX3xUrDvc6v80HuId1cqKjAEhDrOkilIkAqo4J73QpGfWBxGhSzqBHA6HseK0OEUro1HdihOLbflw", "width": 3456}], "place_id": "ChIJL86eNuT90YURy3O8wfG1HKw", "plus_code": {"compound_code": "9W54+3M Mexico City", "global_code": "76F29W54+3M"}, "rating": 3.9, "reference": "ChIJL86eNuT90YURy3O8wfG1HKw", "types": ["subway_station", "transit_station", "point_of_interest", "establishment"], "user_ratings_total": 63}, {"business_status": "OPERATIONAL", "formatted_address": "San Miguel, 09360 Mexico City, CDMX", "geometry": {"location": {"lat": 19.355907, "lng": -99.0855919}, "viewport": {"northeast": {"lat": 19.35721922989272, "lng": -99.08414142010729}, "southwest": {"lat": 19.35451957010728, "lng": -99.08684107989274}}}, "icon": "https://maps.gstatic.com/mapfiles/place_api/icons/v1/png_71/generic_business-71.png", "name": "Cerro de la Estrella", "photos": [{"height": 2160, "html_attributions": ["<a href=\"https://maps.google.com/maps/contrib/107441426291253023518\">Nash Rojas</a>"], "photo_reference": "CmRaAAAA7VozUPqGlH9D7dIq_JQpS9lvGdoHubZztGSCv0IuKoo8X7GdtwolmhtsFdsU278A1x2viJxScLe2gg4ndK2Pho6yDqFkrM-zGZwJ7oEkbwXM54qkPmBELReEEWb8JY5OEhDf5S5tSOq6fQOn5O6EUNIlGhSroQxNk5bsWZ-BGWZJIgkvFG3sQQ", "width": 3840}], "place_id": "ChIJG85qZu790YURh3eBgqewMpQ", "plus_code": {"compound_code": "9W47+9Q Mexico City", "global_code": "76F29W47+9Q"}, "rating": 3.4, "reference": "ChIJG85qZu790YURh3eBgqewMpQ", "types": ["subway_station", "transit_station", "point_of_interest", "establishment"], "user_ratings_total": 54}, {"business_status": "OPERATIONAL", "formatted_address": "Amp Ricardo Flores Mag\u00f3n, Iztapalapa, 09828 Mexico City", "geometry": {"location": {"lat": 19.356192, "lng": -99.1011371}, "viewport": {"northeast": {"lat": 19.35802445, "lng": -99.0984423}, "southwest": {"lat": 19.35091105, "lng": -99.1089675}}}, "icon": "https://maps.gstatic.com/mapfiles/place_api/icons/v1/png_71/generic_business-71.png", "name": "Atlalilco", "photos": [{"height": 4160, "html_attributions": ["<a href=\"https://maps.google.com/maps/contrib/113544119641433387530\">CESAR ANDRES VELANDIA PEDROZA</a>"], "photo_reference": "CmRaAAAAjNFDxwv30yYD655Ll8Ie6GTGpa2M3gKKTRIkSKRvJKdg0N3poC6Y8LfTuhwIKwq4kDSoAUlaZBFqgr5QqfnYmOQRnrVL2Rn7W8cEPvdzib7E9ZHas-kFHY_UlnQgDQlKEhB5L7rOIhydKzKl-5TF3KfrGhQr9CjhS16e-jP4KeGAK2u7VY4QoA", "width": 3120}], "place_id": "ChIJ2aBAeOL90YURXEUaKhbROYE", "plus_code": {"compound_code": "9V4X+FG Mexico City", "global_code": "76F29V4X+FG"}, "rating": 3.7, "reference": "ChIJ2aBAeOL90YURXEUaKhbROYE", "types": ["subway_station", "transit_station", "point_of_interest", "establishment"], "user_ratings_total": 80}, {"business_status": "OPERATIONAL", "formatted_address": "Santa Isabel Industrial, Iztapalapa, 09820 Mexico City", "geometry": {"location": {"lat": 19.3526227, "lng": -99.1060232}, "viewport": {"northeast": {"lat": 19.35400042989272, "lng": -99.10475862010728}, "southwest": {"lat": 19.35130077010728, "lng": -99.10745827989273}}}, "icon": "https://maps.gstatic.com/mapfiles/place_api/icons/v1/png_71/generic_business-71.png", "name": "Atlalilco", "photos": [{"height": 541, "html_attributions": ["<a href=\"https://maps.google.com/maps/contrib/104738752958739385135\">Jose David Reyes</a>"], "photo_reference": "CmRaAAAA0-dHUvsSd-VNRbjUebezsIOXbFLNvc2d-im49JUud_OwIaAJgBjhM3kyCXLKfJnOkejrrZZkEU-XCwqSEBQHzGsqQvDqHz5UtgpwYajPN-N41dkbSHutH1C24okHSMpzEhBrY8eMdVP7krlD-Gg07PSeGhQPGbHMUV7eEDI9ZfwQ_syYCYKTVw", "width": 960}], "place_id": "ChIJdbXSqAj-0YURcsiuHrm5fQY", "plus_code": {"compound_code": "9V3V+2H Mexico City", "global_code": "76F29V3V+2H"}, "rating": 3.7, "reference": "ChIJdbXSqAj-0YURcsiuHrm5fQY", "types": ["subway_station", "transit_station", "point_of_interest", "establishment"], "user_ratings_total": 61}, {"business_status": "OPERATIONAL", "formatted_address": "Los Angeles, Iztapalapa, 09837 Ciudad de M\u00e9xico", "geometry": {"location": {"lat": 19.3510285, "lng": -99.0748888}, "viewport": {"northeast": {"lat": 19.35233797989272, "lng": -99.07351427010728}, "southwest": {"lat": 19.34963832010728, "lng": -99.07621392989273}}}, "icon": "https://maps.gstatic.com/mapfiles/place_api/icons/v1/png_71/generic_business-71.png", "name": "UAM-I", "photos": [{"height": 2340, "html_attributions": ["<a href=\"https://maps.google.com/maps/contrib/106949908488710977894\">Erich M. Hern\u00e1ndez</a>"], "photo_reference": "CmRaAAAA_eo_dOflEO0muYiCkxQxea7gr3BF06pqtLB9zVA-SY0DnsN1jEfA_0n4nQLTNa6y3ALRWHM4yhwoKsfQ1mTLGlXHGwey-js9J34TkG6V9oEz5o9-SsambgpBhemlx7wbEhAytyD1w31pmByoWzuoUCFLGhThjxr22grNjKtyXKNx5lY_sOwlXA", "width": 4160}], "place_id": "ChIJDQKNNIz90YURrPHMizeorqg", "plus_code": {"compound_code": "9W2G+C2 Mexico City", "global_code": "76F29W2G+C2"}, "rating": 3.8, "reference": "ChIJDQKNNIz90YURrPHMizeorqg", "types": ["subway_station", "transit_station", "point_of_interest", "establishment"], "user_ratings_total": 1492}, {"business_status": "OPERATIONAL", "formatted_address": "Av. Tlahuac 3632, Culhuacan, Iztapalapa, 09800 Ciudad de M\u00e9xico, CDMX", "geometry": {"location": {"lat": 19.3368955, "lng": -99.1089336}, "viewport": {"northeast": {"lat": 19.33825842989272, "lng": -99.10760317010728}, "southwest": {"lat": 19.33555877010728, "lng": -99.11030282989272}}}, "icon": "https://maps.gstatic.com/mapfiles/place_api/icons/v1/png_71/generic_business-71.png", "name": "Culhuac\u00e1n", "opening_hours": {"open_now": true}, "photos": [{"height": 2340, "html_attributions": ["<a href=\"https://maps.google.com/maps/contrib/108352889259429878157\">Ingritorrinca Q</a>"], "photo_reference": "CmRaAAAAKGWNDEgIiQ1Y20xHjJdouvmY-YTxmSnStJl4W_IWvu_sWv_ybmCmGSLzhXK1Tr7Ac-sicffzWeXUPie5tYPeDyJ2YezMy-jLyD6icBTSvuVb9gMqKoZFAcEnjjOIdSkbEhDzC4ATQaf8irlTBfLRoh9hGhR_5RuaMWpCjzAiObWrlzZESiOd4Q", "width": 4160}], "place_id": "ChIJ43t_TvwBzoURWo2OJ-UPIK0", "plus_code": {"compound_code": "8VPR+QC Mexico City", "global_code": "76F28VPR+QC"}, "rating": 3.7, "reference": "ChIJ43t_TvwBzoURWo2OJ-UPIK0", "types": ["subway_station", "transit_station", "point_of_interest", "establishment"], "user_ratings_total": 120}, {"business_status": "OPERATIONAL", "formatted_address": "Granjas San Antonio, 09070 Mexico City, CDMX", "geometry": {"location": {"lat": 19.3645818, "lng": -99.10924}, "viewport": {"northeast": {"lat": 19.36602257989272, "lng": -99.10791467010729}, "southwest": {"lat": 19.36332292010728, "lng": -99.11061432989273}}}, "icon": "https://maps.gstatic.com/mapfiles/place_api/icons/v1/png_71/generic_business-71.png", "name": "Escuadr\u00f3n 201", "photos": [{"height": 4140, "html_attributions": ["<a href=\"https://maps.google.com/maps/contrib/117548538095976843674\">Faby</a>"], "photo_reference": "CmRaAAAAFFBMxjPBylmbHlNnHOut69T75u35FlshaDhhiMnhVI7a8s_uzKrxCAMZNkJ4fWqJzuN1tjt3tAaXlUJkHrOiPjN_lTtkqZuymHdfTEkD0RJDktt7CmhMMRXHyKZ7BSlVEhCsJOOtZwzJ0J7q3nx5Vx2PGhS0oDRdR1_HJ6Xfh6EdL745MovyUw", "width": 5520}], "place_id": "ChIJD8rTKHP-0YUR20VaNWl9skQ", "plus_code": {"compound_code": "9V7R+R8 Mexico City", "global_code": "76F29V7R+R8"}, "rating": 3.5, "reference": "ChIJD8rTKHP-0YUR20VaNWl9skQ", "types": ["subway_station", "transit_station", "point_of_interest", "establishment"], "user_ratings_total": 86}, {"business_status": "OPERATIONAL", "formatted_address": "Av. Tlahuac SN, San Andr\u00e9s Tomatlan, 09870 Ciudad de M\u00e9xico, CDMX", "geometry": {"location": {"lat": 19.3281456, "lng": -99.10448129999999}, "viewport": {"northeast": {"lat": 19.32951252989272, "lng": -99.10312902010729}, "southwest": {"lat": 19.32681287010728, "lng": -99.10582867989274}}}, "icon": "https://maps.gstatic.com/mapfiles/place_api/icons/v1/png_71/generic_business-71.png", "name": "San Andr\u00e9s Tomatl\u00e1n", "photos": [{"height": 2988, "html_attributions": ["<a href=\"https://maps.google.com/maps/contrib/118144075427380750984\">Leonardo RosEte</a>"], "photo_reference": "CmRaAAAACgvdVcOQKekeV9QcXK9XkgQwzLWCdVkCs5_dyh-93o8Cx2aFsGlOrWe79Y5hRO4_V5TVV2zkyiFygS4PSAl2gZ9kpGd4Q3cKFMra450oVeqj54lJE9tMKS8rAeO37C58EhC6HtNLwLRVxsDLPSAmsHJyGhSSV67qx08zDoRZqwVEf0tHF0fSiQ", "width": 5312}], "place_id": "ChIJbVvem_cBzoURa-x9K5pVwFA", "plus_code": {"compound_code": "8VHW+76 Mexico City", "global_code": "76F28VHW+76"}, "rating": 3.8, "reference": "ChIJbVvem_cBzoURa-x9K5pVwFA", "types": ["subway_station", "transit_station", "point_of_interest", "establishment"], "user_ratings_total": 88}, {"business_status": "OPERATIONAL", "formatted_address": "Aculco, 09410 Mexico City, CDMX", "geometry": {"location": {"lat": 19.3731508, "lng": -99.10769309999999}, "viewport": {"northeast": {"lat": 19.37470777989273, "lng": -99.10644072010729}, "southwest": {"lat": 19.37200812010728, "lng": -99.10914037989274}}}, "icon": "https://maps.gstatic.com/mapfiles/place_api/icons/v1/png_71/generic_business-71.png", "name": "Aculco", "photos": [{"height": 3120, "html_attributions": ["<a href=\"https://maps.google.com/maps/contrib/107770537072565303004\">Javier Hernandez</a>"], "photo_reference": "CmRaAAAAJSp43RsawUQO-ofRWf-9etRMZ38v2QT3ED4tatEYth1oyejiJZhOwz9_1iaZmcPlRr8NUhL3x9nGbT3uXFA6raLto8QaBOz9iYAL4TMSv9kHHtAnkrz9KfQmrhaK2yONEhAG1euoLgEGkN9bWBJteFRdGhSy5N7x3O3HF5ZhhE9C7CgFjcU57Q", "width": 4160}], "place_id": "ChIJuyg11nD-0YURNKYNUQ-nZBI", "plus_code": {"compound_code": "9VFR+7W Mexico City", "global_code": "76F29VFR+7W"}, "rating": 3.6, "reference": "ChIJuyg11nD-0YURNKYNUQ-nZBI", "types": ["subway_station", "transit_station", "point_of_interest", "establishment"], "user_ratings_total": 27}, {"business_status": "OPERATIONAL", "formatted_address": "Los \u00c1ngeles, 09830 Mexico City, CDMX", "geometry": {"location": {"lat": 19.3460138, "lng": -99.06392799999999}, "viewport": {"northeast": {"lat": 19.34733702989272, "lng": -99.06259747010728}, "southwest": {"lat": 19.34463737010728, "lng": -99.06529712989273}}}, "icon": "https://maps.gstatic.com/mapfiles/place_api/icons/v1/png_71/generic_business-71.png", "name": "Constituci\u00f3n de 1917", "photos": [{"height": 1536, "html_attributions": ["<a href=\"https://maps.google.com/maps/contrib/106436269602299843745\">Frederick Whilhelm Von Hohenzollerng</a>"], "photo_reference": "CmRaAAAASZADpt9zz_FUJKOx5y90qAKpbCzTf670QCeUqiNNNiiCWnvH7LMF91-ys4tFHNKe_JAs3BLvkNwiYDcefhXfB-OhpYV2XP5xR5jkafN7AgFvN7vb5tAxHKyInPwYyKrMEhAFRm3EyrVV7N41sN3-shaEGhS9CEoxqzcaV1qqSlKYoN6XRJNlrw", "width": 2048}], "place_id": "ChIJE2fyJYf90YUR9LpsK1VOar8", "plus_code": {"compound_code": "8WWP+CC Mexico City", "global_code": "76F28WWP+CC"}, "rating": 3.6, "reference": "ChIJE2fyJYf90YUR9LpsK1VOar8", "types": ["subway_station", "transit_station", "point_of_interest", "establishment"], "user_ratings_total": 244}]