[{"business_status": "OPERATIONAL", "formatted_address": "Ermita Iztapalapa 163, Amp Ricardo Flores Mag\u00f3n, Iztapalapa, 09828 Ciudad de M\u00e9xico, CDMX", "geometry": {"location": {"lat": 19.3553472, "lng": -99.09883819999999}, "viewport": {"northeast": {"lat": 19.35676867989272, "lng": -99.09748562010728}, "southwest": {"lat": 19.35406902010728, "lng": -99.10018527989271}}}, "icon": "https://maps.gstatic.com/mapfiles/place_api/icons/v1/png_71/shopping-71.png", "name": "Zapater\u00eda Sandra", "opening_hours": {"open_now": true}, "photos": [{"height": 1920, "html_attributions": ["<a href=\"https://maps.google.com/maps/contrib/113802210423557959644\">Isco Serrano</a>"], "photo_reference": "CmRaAAAA_2jrRr7lIELTbkG1cy9qouRZU0r3Q5vD-CrRXBAMHC_rBivfSVeqA0OvicNPOUbfuEQqZwjzIVKf1Y1CXMYPMGnJP2dqR3S4BQflIktvEl8AuBUQhlCZaU8tJuc36pY9EhC79Tu5x6feRQboSE4XPeqKGhQO1sPiuJghhGBZjqA9ETT5EqiKKA", "width": 1080}], "place_id": "ChIJIR2L_uL90YURYbWStJnSDvk", "plus_code": {"compound_code": "9W42+4F Mexico City", "global_code": "76F29W42+4F"}, "rating": 3.8, "reference": "ChIJIR2L_uL90YURYbWStJnSDvk", "types": ["shoe_store", "point_of_interest", "store", "establishment"], "user_ratings_total": 61}, {"business_status": "OPERATIONAL", "formatted_address": "Ermita Iztapalapa 1186, Agr\u00edcola Oriental, Iztapalapa, 09000 Iztacalco, CDMX", "geometry": {"location": {"lat": 19.3553961, "lng": -99.0968339}, "viewport": {"northeast": {"lat": 19.35684807989272, "lng": -99.09549867010728}, "southwest": {"lat": 19.35414842010728, "lng": -99.09819832989272}}}, "icon": "https://maps.gstatic.com/mapfiles/place_api/icons/v1/png_71/shopping-71.png", "name": "Zapateria Rosi", "place_id": "ChIJf4YbzeX90YUR0UfFdB33JtU", "plus_code": {"compound_code": "9W43+57 Agr\u00edcola Oriental, Mexico City", "global_code": "76F29W43+57"}, "rating": 0, "reference": "ChIJf4YbzeX90YUR0UfFdB33JtU", "types": ["shoe_store", "point_of_interest", "store", "establishment"], "user_ratings_total": 0}, {"business_status": "OPERATIONAL", "formatted_address": "Av. Javier Rojo G\u00f3mez 2, San Pablo, Iztapalapa, 09000 Ciudad de M\u00e9xico, CDMX", "geometry": {"location": {"lat": 19.3569831, "lng": -99.0864983}, "viewport": {"northeast": {"lat": 19.35832352989272, "lng": -99.08512967010728}, "southwest": {"lat": 19.35562387010728, "lng": -99.08782932989273}}}, "icon": "https://maps.gstatic.com/mapfiles/place_api/icons/v1/png_71/shopping-71.png", "name": "ZAPATERIA", "opening_hours": {"open_now": true}, "place_id": "ChIJKfgG7u790YUREeLW2MDL-XU", "plus_code": {"compound_code": "9W47+QC Mexico City", "global_code": "76F29W47+QC"}, "rating": 4, "reference": "ChIJKfgG7u790YUREeLW2MDL-XU", "types": ["shoe_store", "point_of_interest", "store", "establishment"], "user_ratings_total": 1}, {"business_status": "OPERATIONAL", "formatted_address": "Ermita Iztapalapa 1186, San Lucas, Iztapalapa, 09000 Ciudad de M\u00e9xico, CDMX", "geometry": {"location": {"lat": 19.3578703, "lng": -99.0941498}, "viewport": {"northeast": {"lat": 19.35910887989272, "lng": -99.09276457010728}, "southwest": {"lat": 19.35640922010728, "lng": -99.09546422989273}}}, "icon": "https://maps.gstatic.com/mapfiles/place_api/icons/v1/png_71/shopping-71.png", "name": "Zapater\u00edas Prado", "opening_hours": {"open_now": true}, "photos": [{"height": 2448, "html_attributions": ["<a href=\"https://maps.google.com/maps/contrib/108505631873547248084\">Zapater\u00edas Prado</a>"], "photo_reference": "CmRaAAAAE8ga0-0LA-nYqAxgX9_iCWhU1T7n1CDxoTSgp25ZwXknODSUOZIHTCebVDf7cpfvclKeV14cwRCs2sY6z7cmMbaI_tW-I32N0luoluywsQ6HwXlHxReynTdXb0m6tIkKEhBjA_P8SHfoocuYftfHf0b5GhQ2d1zIRd4dDJ2IyQutA1DPCvs53w", "width": 3264}], "place_id": "ChIJDbUcPOT90YUR8uRyOFLB4Bo", "plus_code": {"compound_code": "9W54+48 Mexico City", "global_code": "76F29W54+48"}, "rating": 4.4, "reference": "ChIJDbUcPOT90YUR8uRyOFLB4Bo", "types": ["shoe_store", "point_of_interest", "store", "establishment"], "user_ratings_total": 9}, {"business_status": "OPERATIONAL", "formatted_address": "Avenida Tl\u00e1huac 4409 Local SA05, Lomas Estrella 2da Secc, 09890 Ciudad de M\u00e9xico", "geometry": {"location": {"lat": 19.3213523, "lng": -99.094258}, "viewport": {"northeast": {"lat": 19.32290672989272, "lng": -99.09285917010729}, "southwest": {"lat": 19.32020707010728, "lng": -99.09555882989272}}}, "icon": "https://maps.gstatic.com/mapfiles/place_api/icons/v1/png_71/shopping-71.png", "name": "Zapater\u00edas Tropic", "opening_hours": {"open_now": true}, "photos": [{"height": 2448, "html_attributions": ["<a href=\"https://maps.google.com/maps/contrib/112680707476463649916\">Omar Rodr\u00edguez</a>"], "photo_reference": "CmRaAAAAuQQxcWZrjoYrcG2Xcez9MsmfDp2j63zuEW776KQHmJxorwrzoGEqjIyyNr-DEk-SVZ40Ia6dMaSgq58lNagMbhwk6nszgv-tLYZGHnUfjkEMKtBjXchWmV7Axmy2asOjEhD4T95GbTAb7ONE2xCZ1rHYGhTI_jzxc5JHxm49mghvoxAqfzJs4Q", "width": 3264}], "place_id": "ChIJO8MPFRkCzoURRryjznL3RIY", "plus_code": {"compound_code": "8WC4+G7 Mexico City", "global_code": "76F28WC4+G7"}, "rating": 4.2, "reference": "ChIJO8MPFRkCzoURRryjznL3RIY", "types": ["shoe_store", "point_of_interest", "store", "establishment"], "user_ratings_total": 89}, {"business_status": "OPERATIONAL", "formatted_address": "Mercado De Calzado Cuitl\u00e1huac, Ermita Iztapalapa 1186, San Lucas, Iztapalapa, 09000 Ciudad de M\u00e9xico, CDMX", "geometry": {"location": {"lat": 19.358199, "lng": -99.094072}, "viewport": {"northeast": {"lat": 19.35955667989272, "lng": -99.09275467010727}, "southwest": {"lat": 19.35685702010727, "lng": -99.09545432989272}}}, "icon": "https://maps.gstatic.com/mapfiles/place_api/icons/v1/png_71/shopping-71.png", "name": "Cokiz Zapateria", "opening_hours": {"open_now": true}, "place_id": "ChIJueyDJOT90YURK8Mb-nuR1lo", "plus_code": {"compound_code": "9W54+79 San Lucas, Mexico City", "global_code": "76F29W54+79"}, "rating": 0, "reference": "ChIJueyDJOT90YURK8Mb-nuR1lo", "types": ["shoe_store", "point_of_interest", "store", "establishment"], "user_ratings_total": 0}, {"business_status": "OPERATIONAL", "formatted_address": "Ayuntamiento 53, San Lucas, Iztapalapa, 09000 Ciudad de M\u00e9xico, CDMX", "geometry": {"location": {"lat": 19.36052, "lng": -99.09167}, "viewport": {"northeast": {"lat": 19.36183882989272, "lng": -99.09019927010728}, "southwest": {"lat": 19.35913917010728, "lng": -99.09289892989271}}}, "icon": "https://maps.gstatic.com/mapfiles/place_api/icons/v1/png_71/shopping-71.png", "name": "zapatos modernos", "opening_hours": {"open_now": true}, "photos": [{"height": 1280, "html_attributions": ["<a href=\"https://maps.google.com/maps/contrib/110655516713631717455\">A Google User</a>"], "photo_reference": "CmRaAAAAQX26EsnltnHl8XfeoCsapIWTrQq48FsN_17O_IlTXnwoLXGyAbYTmkTH7YRbcjrDyHngp46bMmVLwb0x-7z2G2QJZ3ZoEU_2w0o6BYriwR7sbKQk-HQAxFKA76hNyWvfEhBCXfyO_6nfsWqBHEUFliWMGhRYSWRO5cpZw-T74jp2soSzSScQhA", "width": 960}], "place_id": "ChIJG7bckT_90YURLVImxDKrpmQ", "plus_code": {"compound_code": "9W65+68 Mexico City", "global_code": "76F29W65+68"}, "rating": 0, "reference": "ChIJG7bckT_90YURLVImxDKrpmQ", "types": ["shoe_store", "point_of_interest", "store", "establishment"], "user_ratings_total": 0}, {"business_status": "OPERATIONAL", "formatted_address": "Av. Tlahuac 20, Santa Isabel Industrial, Iztapalapa, 09820 Ciudad de M\u00e9xico, CDMX", "geometry": {"location": {"lat": 19.3548668, "lng": -99.1055635}, "viewport": {"northeast": {"lat": 19.35623532989272, "lng": -99.10432532010728}, "southwest": {"lat": 19.35353567010728, "lng": -99.10702497989273}}}, "icon": "https://maps.gstatic.com/mapfiles/place_api/icons/v1/png_71/shopping-71.png", "name": "ONENA", "opening_hours": {"open_now": false}, "place_id": "ChIJQxKc3gj-0YUR9GDZjMBF7j0", "plus_code": {"compound_code": "9V3V+WQ Mexico City", "global_code": "76F29V3V+WQ"}, "rating": 4.5, "reference": "ChIJQxKc3gj-0YUR9GDZjMBF7j0", "types": ["shoe_store", "point_of_interest", "store", "establishment"], "user_ratings_total": 39}, {"business_status": "OPERATIONAL", "formatted_address": "Aldama 82, San Pablo, Iztapalapa, 09000 Ciudad de M\u00e9xico, CDMX", "geometry": {"location": {"lat": 19.3591343, "lng": -99.0910651}, "viewport": {"northeast": {"lat": 19.36045992989272, "lng": -99.08972407010727}, "southwest": {"lat": 19.35776027010727, "lng": -99.09242372989272}}}, "icon": "https://maps.gstatic.com/mapfiles/place_api/icons/v1/png_71/shopping-71.png", "name": "Zapater\u00eda Aldama", "opening_hours": {"open_now": true}, "place_id": "ChIJ8-RVCOb90YUR1hZIQ-ckAfc", "plus_code": {"compound_code": "9W55+MH Mexico City", "global_code": "76F29W55+MH"}, "rating": 0, "reference": "ChIJ8-RVCOb90YUR1hZIQ-ckAfc", "types": ["shoe_store", "point_of_interest", "store", "establishment"], "user_ratings_total": 0}, {"business_status": "OPERATIONAL", "formatted_address": "Dentro De Mercado De Calzado Cuitlahuac, Ermita Iztapalapa 1186, San Lucas, Iztapalapa, 09000 Ciudad de M\u00e9xico, CDMX", "geometry": {"location": {"lat": 19.3578644, "lng": -99.09408049999999}, "viewport": {"northeast": {"lat": 19.35920882989272, "lng": -99.09270732010727}, "southwest": {"lat": 19.35650917010728, "lng": -99.09540697989272}}}, "icon": "https://maps.gstatic.com/mapfiles/place_api/icons/v1/png_71/shopping-71.png", "name": "Zapater\u00eda Sandy", "opening_hours": {"open_now": true}, "place_id": "ChIJ6RvFO-T90YUR0uLc0LYCM_o", "plus_code": {"compound_code": "9W54+49 Mexico City", "global_code": "76F29W54+49"}, "rating": 0, "reference": "ChIJ6RvFO-T90YUR0uLc0LYCM_o", "types": ["shoe_store", "point_of_interest", "store", "establishment"], "user_ratings_total": 0}, {"business_status": "OPERATIONAL", "formatted_address": "Ermita Iztapalapa N.756-3, Granjas San Antonio, Iztapalapa, 09070 Ciudad de M\u00e9xico, CDMX", "geometry": {"location": {"lat": 19.3564875, "lng": -99.10834779999999}, "viewport": {"northeast": {"lat": 19.35779202989272, "lng": -99.10700282010728}, "southwest": {"lat": 19.35509237010728, "lng": -99.10970247989272}}}, "icon": "https://maps.gstatic.com/mapfiles/place_api/icons/v1/png_71/shopping-71.png", "name": "Onena", "opening_hours": {"open_now": true}, "photos": [{"height": 3120, "html_attributions": ["<a href=\"https://maps.google.com/maps/contrib/112792509426525858780\">ARUMA Alcazar</a>"], "photo_reference": "CmRaAAAAgr529nVr0yyx8oskf842sdUKOMS7dkA3uR5RqVk_Mgj8fj3_arSM2uAJfsslYkcR41wrCxwwE0WCJI_PKcfU3_PnpA9yQ4JOMnzYqRJSFhId9ViyZXz6fx7jCsL1JkutEhAVvN3o7IbM5GBPaH-Vv4f5GhTqQYW2_M-VguQ7eR_hHisgLtJbaQ", "width": 4160}], "place_id": "ChIJAzoywA7-0YURQXB3SFi0FuM", "plus_code": {"compound_code": "9V4R+HM Granjas San Antonio, Mexico City", "global_code": "76F29V4R+HM"}, "rating": 4.2, "reference": "ChIJAzoywA7-0YURQXB3SFi0FuM", "types": ["shoe_store", "point_of_interest", "store", "establishment"], "user_ratings_total": 92}, {"business_status": "OPERATIONAL", "formatted_address": "Bodega Comercial Mexicana San Lorenzo Av. San Lorenzo # 2171 Locales A5 y 6, San Juan Xalpa, Iztapalapa, 09850 CDMX", "geometry": {"location": {"lat": 19.3343963, "lng": -99.075338}, "viewport": {"northeast": {"lat": 19.33573427989272, "lng": -99.07376237010727}, "southwest": {"lat": 19.33303462010728, "lng": -99.07646202989272}}}, "icon": "https://maps.gstatic.com/mapfiles/place_api/icons/v1/png_71/shopping-71.png", "name": "Zapater\u00edas Tropic", "opening_hours": {"open_now": true}, "photos": [{"height": 3120, "html_attributions": ["<a href=\"https://maps.google.com/maps/contrib/114245405713875927798\">Emmanuel Aguilar</a>"], "photo_reference": "CmRaAAAAY0oSRq0chIiBhvWCHcuGh2B55SfE3ht-h8bGJcSijYwHKqXvQdgaltqhS9CnGmRv3GLufX7Gt7r4F5a0CBRp1GbeFnhr0iIOe7XqEgJMFNQuIjiOw8RT5WVgxziPhUu5EhAaq4swe3Hr_vE0hInx0AEcGhQ5PlKXSq3WHobb0NWDL55uxCJS3g", "width": 4160}], "place_id": "ChIJv81ZaGoCzoURnScqVmOW4vs", "plus_code": {"compound_code": "8WMF+QV San Juan Xalpa, Mexico City", "global_code": "76F28WMF+QV"}, "rating": 3.8, "reference": "ChIJv81ZaGoCzoURnScqVmOW4vs", "types": ["shoe_store", "point_of_interest", "store", "establishment"], "user_ratings_total": 9}, {"business_status": "OPERATIONAL", "formatted_address": "Ermita Iztapalapa 1840, Amp Ricardo Flores Mag\u00f3n, Iztapalapa, 09360 Ciudad de M\u00e9xico, CDMX", "geometry": {"location": {"lat": 19.3509735, "lng": -99.07438280000001}, "viewport": {"northeast": {"lat": 19.35228197989272, "lng": -99.07305382010729}, "southwest": {"lat": 19.34958232010728, "lng": -99.07575347989274}}}, "icon": "https://maps.gstatic.com/mapfiles/place_api/icons/v1/png_71/shopping-71.png", "name": "Flexi Iztapalapa", "opening_hours": {"open_now": true}, "place_id": "ChIJF293f-L90YURmBBGdd2y5vs", "plus_code": {"compound_code": "9W2G+96 Mexico City", "global_code": "76F29W2G+96"}, "rating": 3.9, "reference": "ChIJF293f-L90YURmBBGdd2y5vs", "types": ["shoe_store", "point_of_interest", "store", "establishment"], "user_ratings_total": 30}, {"business_status": "OPERATIONAL", "formatted_address": "Av, Ermita Iztapalapa 104 E, San Pablo, Iztapalapa, 09000 CDMX", "geometry": {"location": {"lat": 19.3569906, "lng": -99.0868586}, "viewport": {"northeast": {"lat": 19.35828797989273, "lng": -99.0855509201073}, "southwest": {"lat": 19.35558832010728, "lng": -99.08825057989273}}}, "icon": "https://maps.gstatic.com/mapfiles/place_api/icons/v1/png_71/shopping-71.png", "name": "Zapateria outlet", "opening_hours": {"open_now": true}, "photos": [{"height": 1200, "html_attributions": ["<a href=\"https://maps.google.com/maps/contrib/110023717691845035342\">A Google User</a>"], "photo_reference": "CmRaAAAAs3DA99XLmFgQql2TfbTeh3t3mmrmzTEmRycDREK3r70A7E_QkZf388Xs6_0-T2BNuuQdGPygApljUhn_ElldeVc_H0uQz0XNZxLpt4nZ3s7YPmuj3xjvgu2iO_43YDjbEhAcEkll6EnWDuTuLsvst5CeGhRWl6_Iw9eFBqG_qms-BMBULGpIWg", "width": 1600}], "place_id": "ChIJOah3Qsn90YURo2vG408xmKU", "plus_code": {"compound_code": "9W47+Q7 San Pablo, Mexico City", "global_code": "76F29W47+Q7"}, "rating": 0, "reference": "ChIJOah3Qsn90YURo2vG408xmKU", "types": ["shoe_store", "point_of_interest", "store", "establishment"], "user_ratings_total": 0}, {"business_status": "OPERATIONAL", "formatted_address": "Dentro De Mercado De Calzado Cuitlahuac, Ermita Iztapalapa 1186, San Lucas, Iztapalapa, 09000 Ciudad de M\u00e9xico, CDMX", "geometry": {"location": {"lat": 19.3578484, "lng": -99.09407370000001}, "viewport": {"northeast": {"lat": 19.35919522989272, "lng": -99.09271092010728}, "southwest": {"lat": 19.35649557010728, "lng": -99.09541057989273}}}, "icon": "https://maps.gstatic.com/mapfiles/place_api/icons/v1/png_71/shopping-71.png", "name": "Lariz Zapater\u00eda", "opening_hours": {"open_now": true}, "place_id": "ChIJ1aGBO-T90YURucqj0miBQHY", "plus_code": {"compound_code": "9W54+49 Mexico City", "global_code": "76F29W54+49"}, "rating": 0, "reference": "ChIJ1aGBO-T90YURucqj0miBQHY", "types": ["shoe_store", "point_of_interest", "store", "establishment"], "user_ratings_total": 0}, {"business_status": "OPERATIONAL", "formatted_address": "Ayuntamiento 27, San Pablo, Iztapalapa, 09000 Ciudad de M\u00e9xico, CDMX", "geometry": {"location": {"lat": 19.3589566, "lng": -99.0918116}, "viewport": {"northeast": {"lat": 19.36030932989272, "lng": -99.09047267010727}, "southwest": {"lat": 19.35760967010728, "lng": -99.09317232989272}}}, "icon": "https://maps.gstatic.com/mapfiles/place_api/icons/v1/png_71/shopping-71.png", "name": "Zapaterias Ayuntamiento", "place_id": "ChIJBUJxdeb90YUROJDqkNsrF3I", "plus_code": {"compound_code": "9W55+H7 Mexico City", "global_code": "76F29W55+H7"}, "rating": 5, "reference": "ChIJBUJxdeb90YUROJDqkNsrF3I", "types": ["shoe_store", "point_of_interest", "store", "establishment"], "user_ratings_total": 1}, {"business_status": "OPERATIONAL", "formatted_address": "Av. Luis Hidalgo Monroy 16, San Pablo, Iztapalapa, 09000 Ciudad de M\u00e9xico, CDMX", "geometry": {"location": {"lat": 19.3598561, "lng": -99.0911732}, "viewport": {"northeast": {"lat": 19.36127457989272, "lng": -99.09000872010728}, "southwest": {"lat": 19.35857492010727, "lng": -99.09270837989271}}}, "icon": "https://maps.gstatic.com/mapfiles/place_api/icons/v1/png_71/shopping-71.png", "name": "Zapater\u00eda Outlet Iztapalapa", "opening_hours": {"open_now": true}, "place_id": "ChIJTysHEeb90YURkB4C_d_dqOU", "plus_code": {"compound_code": "9W55+WG San Pablo, Mexico City", "global_code": "76F29W55+WG"}, "rating": 0, "reference": "ChIJTysHEeb90YURkB4C_d_dqOU", "types": ["shoe_store", "point_of_interest", "store", "establishment"], "user_ratings_total": 0}, {"business_status": "OPERATIONAL", "formatted_address": "Avenida Eje 8 Sur (calzada Ermita Iztapalapa) 1186, San Lucas, Iztapalapa, 09000 Iztapalapa, CDMX", "geometry": {"location": {"lat": 19.3577337, "lng": -99.09396939999999}, "viewport": {"northeast": {"lat": 19.35906347989272, "lng": -99.09261312010729}, "southwest": {"lat": 19.35636382010728, "lng": -99.09531277989272}}}, "icon": "https://maps.gstatic.com/mapfiles/place_api/icons/v1/png_71/shopping-71.png", "name": "Zapater\u00eda Jos\u00e9", "place_id": "ChIJ6RvFO-T90YURKQEJc8XtrRc", "plus_code": {"compound_code": "9W54+3C San Lucas, Mexico City", "global_code": "76F29W54+3C"}, "rating": 0, "reference": "ChIJ6RvFO-T90YURKQEJc8XtrRc", "types": ["shoe_store", "point_of_interest", "store", "establishment"], "user_ratings_total": 0}, {"business_status": "OPERATIONAL", "formatted_address": "Av. R\u00edo Soto La Marina, \u00c1rea Federal Central de Abastos, Iztapalapa, Ciudad de M\u00e9xico, CDMX", "geometry": {"location": {"lat": 19.3845114, "lng": -99.07871589999999}, "viewport": {"northeast": {"lat": 19.38571247989272, "lng": -99.07739022010729}, "southwest": {"lat": 19.38301282010727, "lng": -99.08008987989274}}}, "icon": "https://maps.gstatic.com/mapfiles/place_api/icons/v1/png_71/shopping-71.png", "name": "D&G Dorothy Gaynor", "photos": [{"height": 3072, "html_attributions": ["<a href=\"https://maps.google.com/maps/contrib/101757723201046146497\">hector trejo</a>"], "photo_reference": "CmRZAAAARERC362XWm7HgVCgqdUXRhtzGKaHkV4kFa8sBviWqGAZbUgLyWYhkZzlDPA4wcjYDI5ZTJVm0hlRbEEcX0pBrdjJMR7W6p64_qgFlZkIR8lMwguGsjN809LrouutWaFvEhB56fmtGdNBPqCrDX5o0dDtGhSuZ9bOEFlaOiygWzOb1LD2BjPPwQ", "width": 4096}], "place_id": "ChIJB1og87X90YUR1taTQgA6QuA", "plus_code": {"compound_code": "9WMC+RG Mexico City", "global_code": "76F29WMC+RG"}, "rating": 4.2, "reference": "ChIJB1og87X90YUR1taTQgA6QuA", "types": ["shoe_store", "point_of_interest", "store", "establishment"], "user_ratings_total": 67}, {"business_status": "OPERATIONAL", "formatted_address": "Silos 166, Minerva, Iztapalapa, 09810 Ciudad de M\u00e9xico, CDMX", "geometry": {"location": {"lat": 19.350454, "lng": -99.10949}, "viewport": {"northeast": {"lat": 19.35180762989272, "lng": -99.10818682010728}, "southwest": {"lat": 19.34910797010728, "lng": -99.11088647989273}}}, "icon": "https://maps.gstatic.com/mapfiles/place_api/icons/v1/png_71/shopping-71.png", "name": "Zapateria", "opening_hours": {"open_now": false}, "photos": [{"height": 1200, "html_attributions": ["<a href=\"https://maps.google.com/maps/contrib/106790854069998588752\">A Google User</a>"], "photo_reference": "CmRaAAAAU2T0IOC5fGUGuTf2M6ukaXtkN-97qR6py8TyheMfFfgsOfWHxastd-QGK_dkJNzS6NhATPAe2JxyE4GyUGt-X_xY29JIGzWeTwSul3u1YFZZIxjEWdfZkeegNk6kGj9fEhBou-oNoGxms_FGVy2K2kVKGhQLPovcikVoeYZTGD5DVk8_X3yzJQ", "width": 1600}], "place_id": "ChIJIe4A6-n_0YURBTovSj1GufM", "plus_code": {"compound_code": "9V2R+56 Mexico City", "global_code": "76F29V2R+56"}, "rating": 0, "reference": "ChIJIe4A6-n_0YURBTovSj1GufM", "types": ["shoe_store", "point_of_interest", "store", "establishment"], "user_ratings_total": 0}]