[{"business_status": "OPERATIONAL", "formatted_address": "Av Estrella 12, Iztapalapa, 09820 Ciudad de M\u00e9xico, CDMX", "geometry": {"location": {"lat": 19.352479, "lng": -99.09857319999999}, "viewport": {"northeast": {"lat": 19.35384427989272, "lng": -99.09721397010729}, "southwest": {"lat": 19.35114462010728, "lng": -99.09991362989273}}}, "icon": "https://maps.gstatic.com/mapfiles/place_api/icons/v1/png_71/shopping-71.png", "name": "Cremeria y Materias Primas \"CHAVITA\"", "opening_hours": {"open_now": true}, "place_id": "ChIJN3d_1fz90YURKo1Cz1Z0dAU", "plus_code": {"compound_code": "9W22+XH Mexico City", "global_code": "76F29W22+XH"}, "rating": 0, "reference": "ChIJN3d_1fz90YURKo1Cz1Z0dAU", "types": ["shopping_mall", "point_of_interest", "establishment"], "user_ratings_total": 0}, {"business_status": "OPERATIONAL", "formatted_address": "Ermita Iztapalapa 1441, El Molino, Iztapalapa, 09360 Ciudad de M\u00e9xico, CDMX", "geometry": {"location": {"lat": 19.355889, "lng": -99.08637999999999}, "viewport": {"northeast": {"lat": 19.35736792989272, "lng": -99.08497652010728}, "southwest": {"lat": 19.35466827010728, "lng": -99.08767617989272}}}, "icon": "https://maps.gstatic.com/mapfiles/place_api/icons/v1/png_71/shopping-71.png", "name": "Plaza Ermita", "opening_hours": {"open_now": true}, "photos": [{"height": 4160, "html_attributions": ["<a href=\"https://maps.google.com/maps/contrib/114754192754465811330\">A Google User</a>"], "photo_reference": "CmRaAAAAYw_h2auQ2Qlrmquqk6aPzHP0fZywxulpS8uBYOoui7iy6Md4F7YiliJmaa4x-7_daerp8DELKUssvASlSa7s-DGVb8DqisDirCFML6C6kZcJMT4919nUwQFcx1JI4vODEhAMJCUh7XpTzffTew8zLMNNGhRej9YAxoaUy8HLI_FE8JxYmIuN0Q", "width": 3120}], "place_id": "ChIJiWbfXu790YUR9NimQ5Bur5c", "plus_code": {"compound_code": "9W47+9C Mexico City", "global_code": "76F29W47+9C"}, "rating": 4.1, "reference": "ChIJiWbfXu790YUR9NimQ5Bur5c", "types": ["shopping_mall", "point_of_interest", "establishment"], "user_ratings_total": 182}, {"business_status": "OPERATIONAL", "formatted_address": "Av. Luis Hidalgo Monroy 148A, San Pablo, Iztapalapa, 09000 Ciudad de M\u00e9xico, CDMX", "geometry": {"location": {"lat": 19.3586653, "lng": -99.08647409999999}, "viewport": {"northeast": {"lat": 19.35997257989272, "lng": -99.08513797010728}, "southwest": {"lat": 19.35727292010728, "lng": -99.08783762989273}}}, "icon": "https://maps.gstatic.com/mapfiles/place_api/icons/v1/png_71/shopping-71.png", "name": "El Tapat\u00edo Cremer\u00eda", "opening_hours": {"open_now": true}, "place_id": "ChIJAQAzye790YURMoqHp5j57-E", "plus_code": {"compound_code": "9W57+FC Mexico City", "global_code": "76F29W57+FC"}, "rating": 0, "reference": "ChIJAQAzye790YURMoqHp5j57-E", "types": ["shopping_mall", "point_of_interest", "establishment"], "user_ratings_total": 0}, {"business_status": "OPERATIONAL", "formatted_address": "Ermita Iztapalapa 2955, 2da Amp San Miguel, Iztapalapa, 09360 Ciudad de M\u00e9xico, CDMX", "geometry": {"location": {"lat": 19.3504629, "lng": -99.071865}, "viewport": {"northeast": {"lat": 19.35170032989272, "lng": -99.07059867010729}, "southwest": {"lat": 19.34900067010728, "lng": -99.07329832989272}}}, "icon": "https://maps.gstatic.com/mapfiles/place_api/icons/v1/png_71/shopping-71.png", "name": "Centro Comercial Iztapalapa", "opening_hours": {"open_now": true}, "photos": [{"height": 540, "html_attributions": ["<a href=\"https://maps.google.com/maps/contrib/100136800568380008299\">A Google User</a>"], "photo_reference": "CmRaAAAAaQb9jm85vJBRPaNAc-HcK6PmkK9l61O0ZMdxFZvOCtz-XQ5m-LlLPclsfXV1-ihG75D8kBnr3-Z7ERISgjy9wyX1CXRamOJMusyZithPJj8j7VlZWsr8yXb7WQxJhNP1EhAq6iFfWOOSJhggoMUDNIykGhRlqwtgZ2LNtIrt0eEAihjyAFAlwA", "width": 720}], "place_id": "ChIJNZ-R8Y790YUR7cBQ9blSIZ4", "plus_code": {"compound_code": "9W2H+57 Mexico City", "global_code": "76F29W2H+57"}, "rating": 3.9, "reference": "ChIJNZ-R8Y790YUR7cBQ9blSIZ4", "types": ["shopping_mall", "point_of_interest", "establishment"], "user_ratings_total": 2096}, {"business_status": "OPERATIONAL", "formatted_address": "col. ampliacion, Calle 2, Granjas San Antonio", "geometry": {"location": {"lat": 19.3577787, "lng": -99.1089882}, "viewport": {"northeast": {"lat": 19.35916047989272, "lng": -99.10763512010728}, "southwest": {"lat": 19.35646082010728, "lng": -99.11033477989272}}}, "icon": "https://maps.gstatic.com/mapfiles/place_api/icons/v1/png_71/shopping-71.png", "name": "plaza comercial ermita", "opening_hours": {"open_now": true}, "photos": [{"height": 2592, "html_attributions": ["<a href=\"https://maps.google.com/maps/contrib/116666644688299247316\">Mantenimiento El punto</a>"], "photo_reference": "CmRaAAAAVBuViTZc67zIPY7bNgLk_eaiAnLpBtiXcmhTboJ8-EyeDdXDLbOEsavK09vRYp60WtZ01yKIxMGtNWQrXu8Me3dLfBMDa4R8MjG2Qzkp6tFrqHa1-9zsSPaZSLq1r1DqEhA2IB8Zz6z4lKK9iqGDk-LwGhS8kbNqo5YIoGCa_FPNJX1Se2Xfhg", "width": 4608}], "place_id": "ChIJodU2gw7-0YURmhCfTB91O8c", "plus_code": {"compound_code": "9V5R+4C Granjas San Antonio, Mexico City", "global_code": "76F29V5R+4C"}, "rating": 3.9, "reference": "ChIJodU2gw7-0YURmhCfTB91O8c", "types": ["shopping_mall", "point_of_interest", "establishment"], "user_ratings_total": 72}, {"business_status": "OPERATIONAL", "formatted_address": "manzana 6 #1281 lote 17, Iztapalapa, 09830 CDMX", "geometry": {"location": {"lat": 19.356735, "lng": -99.088235}, "viewport": {"northeast": {"lat": 19.35806467989272, "lng": -99.08688402010728}, "southwest": {"lat": 19.35536502010727, "lng": -99.08958367989273}}}, "icon": "https://maps.gstatic.com/mapfiles/place_api/icons/v1/png_71/shopping-71.png", "name": "Abel Moreno", "place_id": "ChIJt7H_buP90YURbH_2K_zsN8Y", "plus_code": {"compound_code": "9W46+MP Mexico City", "global_code": "76F29W46+MP"}, "rating": 0, "reference": "ChIJt7H_buP90YURbH_2K_zsN8Y", "types": ["shopping_mall", "point_of_interest", "establishment"], "user_ratings_total": 0}, {"business_status": "OPERATIONAL", "formatted_address": "Ermita Iztapalapa 1186, San Lucas, Iztapalapa, 09000 Ciudad de M\u00e9xico, CDMX", "geometry": {"location": {"lat": 19.3579022, "lng": -99.094133}, "viewport": {"northeast": {"lat": 19.35912832989272, "lng": -99.09274377010729}, "southwest": {"lat": 19.35642867010728, "lng": -99.09544342989273}}}, "icon": "https://maps.gstatic.com/mapfiles/place_api/icons/v1/png_71/shopping-71.png", "name": "Zapater\u00eda La Joyita", "place_id": "ChIJ943vKDH90YURJnzIkyLo5GM", "plus_code": {"compound_code": "9W54+58 Mexico City", "global_code": "76F29W54+58"}, "rating": 0, "reference": "ChIJ943vKDH90YURJnzIkyLo5GM", "types": ["shopping_mall", "point_of_interest", "establishment"], "user_ratings_total": 0}, {"business_status": "OPERATIONAL", "formatted_address": "Avenida Luis Hidalgo Monroy, Cuauht\u00e9moc Esquina, San Pablo, Iztapalapa, 09000 CDMX", "geometry": {"location": {"lat": 19.359797, "lng": -99.0904918}, "viewport": {"northeast": {"lat": 19.36116842989272, "lng": -99.08921652010727}, "southwest": {"lat": 19.35846877010728, "lng": -99.09191617989272}}}, "icon": "https://maps.gstatic.com/mapfiles/place_api/icons/v1/png_71/shopping-71.png", "name": "Plaza Hidalgo", "opening_hours": {"open_now": true}, "photos": [{"height": 1836, "html_attributions": ["<a href=\"https://maps.google.com/maps/contrib/112062786074748504007\">cesar mora</a>"], "photo_reference": "CmRaAAAAFXx6oJOU6yiPRQGA0-mMULEyOvB1CnoPPl06kai-3hrMYTKU0PUNFseMsxITbKbPPCBHlKgHDdg7DniWv1J2Y4SXbyAnhahqTyM7R6TjXnyd8fNll-RtfcndQOxEaBE4EhDdHp8Kw-4pstekf-FaRm5fGhRVuzEggnRJq9jfXl9vowh04UUq7A", "width": 3264}], "place_id": "ChIJUTnYHOb90YURcH193hmAEO4", "plus_code": {"compound_code": "9W55+WR San Pablo, Mexico City", "global_code": "76F29W55+WR"}, "rating": 3.5, "reference": "ChIJUTnYHOb90YURcH193hmAEO4", "types": ["shopping_mall", "point_of_interest", "establishment"], "user_ratings_total": 46}, {"business_status": "OPERATIONAL", "formatted_address": "Cebollana, Plan de Iguala, Iztapalapa, 09838 Ciudad de M\u00e9xico, CDMX", "geometry": {"location": {"lat": 19.3505566, "lng": -99.0851313}, "viewport": {"northeast": {"lat": 19.35190712989272, "lng": -99.08377742010727}, "southwest": {"lat": 19.34920747010728, "lng": -99.08647707989272}}}, "icon": "https://maps.gstatic.com/mapfiles/place_api/icons/v1/png_71/shopping-71.png", "name": "Est\u00e9tica canina \"TINAA\"", "opening_hours": {"open_now": false}, "photos": [{"height": 3264, "html_attributions": ["<a href=\"https://maps.google.com/maps/contrib/108311376116692833359\">A Google User</a>"], "photo_reference": "CmRaAAAA4LRZIj0HHFCppjIONFfh5Sh4unlhOmHSUywP2MJTu7ZlzbuRTMhUp7O8rU7i8gPWZ2NUENVDqPA3LZ62ey3IbNzQKVAobx203FDne0tXn83YMFOWGvJRs-l9F6PF9j0pEhDVp5fEb686XLXmKL_nng_iGhQVwbixbEInRbf6g7SggoCecS3JBQ", "width": 2448}], "place_id": "ChIJ00UsgvH90YURjSIaTOqdKNE", "plus_code": {"compound_code": "9W27+6W Mexico City", "global_code": "76F29W27+6W"}, "rating": 2.7, "reference": "ChIJ00UsgvH90YURjSIaTOqdKNE", "types": ["shopping_mall", "point_of_interest", "establishment"], "user_ratings_total": 6}, {"business_status": "OPERATIONAL", "formatted_address": "Ayuntamiento 39, San Pablo, Iztapalapa, 09000 Ciudad de M\u00e9xico, CDMX", "geometry": {"location": {"lat": 19.3599626, "lng": -99.0915038}, "viewport": {"northeast": {"lat": 19.36131982989273, "lng": -99.09018397010728}, "southwest": {"lat": 19.35862017010728, "lng": -99.09288362989271}}}, "icon": "https://maps.gstatic.com/mapfiles/place_api/icons/v1/png_71/shopping-71.png", "name": "G_sport iztapalapa", "opening_hours": {"open_now": true}, "photos": [{"height": 3120, "html_attributions": ["<a href=\"https://maps.google.com/maps/contrib/116034620482094143826\">CHINO DELPIERO</a>"], "photo_reference": "CmRaAAAAfF-nRRBMS0DY_j5ICQwptS3m8Qj_Jjax_6gJtCQ4GAh8538eWN6ctyiBC1k_6ECpq3Ts3oUrO3gT7eBrGOnTMQix5VmmrSpeC-5mWcgjVn2I6rVaFGDm1DzIf2jO_BZlEhBoh52F-pUSAKmVZ2PPDGKgGhQEWbmVcLtF6Szse8XQl_-C5X8I0g", "width": 4160}], "place_id": "ChIJG1PMFOb90YURoRuldTx--xs", "plus_code": {"compound_code": "9W55+X9 Mexico City", "global_code": "76F29W55+X9"}, "rating": 5, "reference": "ChIJG1PMFOb90YURoRuldTx--xs", "types": ["shopping_mall", "point_of_interest", "establishment"], "user_ratings_total": 1}, {"business_status": "OPERATIONAL", "formatted_address": "Aldama 72, San Pablo, Iztapalapa, 09000 Ciudad de M\u00e9xico, CDMX", "geometry": {"location": {"lat": 19.3592457, "lng": -99.0914117}, "viewport": {"northeast": {"lat": 19.36057502989272, "lng": -99.09006957010727}, "southwest": {"lat": 19.35787537010728, "lng": -99.09276922989272}}}, "icon": "https://maps.gstatic.com/mapfiles/place_api/icons/v1/png_71/shopping-71.png", "name": "Plaza San Pablo", "opening_hours": {"open_now": true}, "photos": [{"height": 2304, "html_attributions": ["<a href=\"https://maps.google.com/maps/contrib/105058228031699720265\">Frank Garcia</a>"], "photo_reference": "CmRaAAAAm4oMHybHO48350DLfI5rQGV89AWc3-TwzWdihushyv1JPYZQ-1hqfXo6xxIENn0N84QsB2gNZekCFE9c5JJrVVUbjI6tjAbvk5RVA9cNl64uhkbMbVoPKtby7VsI_kxSEhBmDMWk1TgrV0WZBLv-RgBLGhRuBqS4oSjEkCnvHxiakly7HRoKUg", "width": 4096}], "place_id": "ChIJ34Vdc-b90YUR56BPusre56g", "plus_code": {"compound_code": "9W55+MC Mexico City", "global_code": "76F29W55+MC"}, "rating": 4.1, "reference": "ChIJ34Vdc-b90YUR56BPusre56g", "types": ["shopping_mall", "point_of_interest", "establishment"], "user_ratings_total": 19}, {"business_status": "OPERATIONAL", "formatted_address": "Ermita Iztapalapa 941, Amp Ricardo Flores Mag\u00f3n, Iztapalapa, 09820 Ciudad de M\u00e9xico, CDMX", "geometry": {"location": {"lat": 19.3552799, "lng": -99.10204549999999}, "viewport": {"northeast": {"lat": 19.35686427989272, "lng": -99.10067662010727}, "southwest": {"lat": 19.35416462010728, "lng": -99.10337627989271}}}, "icon": "https://maps.gstatic.com/mapfiles/place_api/icons/v1/png_71/shopping-71.png", "name": "Plaza Aristeum", "opening_hours": {"open_now": true}, "photos": [{"height": 4032, "html_attributions": ["<a href=\"https://maps.google.com/maps/contrib/112247864765757879549\">Edder Agustin Reyes</a>"], "photo_reference": "CmRaAAAAanetGdPxfWdcAjp2IItCRvMWDZfg08DIM-6ZxdRGEkKmc-fIXhkWwuNWLHGIlqQ2LHannyssyPslnpjiz6xhATUkGRrfvGxwWpCgJDZiu7Q7662ladKJgeNm-UDPzjLEEhDM_wC0jBvbdv6BRdlyvMD5GhTEF1NUN7NFhJqRD3wjlWc7rBMSig", "width": 3024}], "place_id": "ChIJw1X11Qn-0YURRD0QgPnH7MY", "plus_code": {"compound_code": "9V4X+45 Mexico City", "global_code": "76F29V4X+45"}, "rating": 3.9, "reference": "ChIJw1X11Qn-0YURRD0QgPnH7MY", "types": ["shopping_mall", "point_of_interest", "establishment"], "user_ratings_total": 2550}, {"business_status": "OPERATIONAL", "formatted_address": "Calle 6 Sur 166-148, \u00c1rea Federal Central de Abastos, Iztapalapa, Ciudad de M\u00e9xico, CDMX", "geometry": {"location": {"lat": 19.3674949, "lng": -99.0948628}, "viewport": {"northeast": {"lat": 19.36882987989272, "lng": -99.09356092010727}, "southwest": {"lat": 19.36613022010728, "lng": -99.09626057989271}}}, "icon": "https://maps.gstatic.com/mapfiles/place_api/icons/v1/png_71/shopping-71.png", "name": "Central", "place_id": "ChIJReAoF8z90YURdKJRGwR6-4k", "plus_code": {"compound_code": "9W84+X3 Mexico City", "global_code": "76F29W84+X3"}, "rating": 4, "reference": "ChIJReAoF8z90YURdKJRGwR6-4k", "types": ["shopping_mall", "point_of_interest", "establishment"], "user_ratings_total": 1}, {"business_status": "OPERATIONAL", "formatted_address": "Ermita Iztapalapa 941, Santa Isabel Industrial, Iztapalapa, 09820 Ciudad de M\u00e9xico, CDMX", "geometry": {"location": {"lat": 19.3553417, "lng": -99.1018399}, "viewport": {"northeast": {"lat": 19.35688797989272, "lng": -99.10047412010728}, "southwest": {"lat": 19.35418832010728, "lng": -99.10317377989273}}}, "icon": "https://maps.gstatic.com/mapfiles/place_api/icons/v1/png_71/shopping-71.png", "name": "Banco Forjadores Iztapalapa CI", "opening_hours": {"open_now": false}, "place_id": "ChIJo9tWywn-0YUR3TKrTNPkdmk", "plus_code": {"compound_code": "9V4X+47 Mexico City", "global_code": "76F29V4X+47"}, "rating": 2.7, "reference": "ChIJo9tWywn-0YUR3TKrTNPkdmk", "types": ["shopping_mall", "point_of_interest", "establishment"], "user_ratings_total": 9}, {"business_status": "OPERATIONAL", "formatted_address": "Jacobo Watt 128, San Sim\u00f3n Culhuacan, Iztapalapa, 09800 Ciudad de M\u00e9xico, CDMX", "geometry": {"location": {"lat": 19.3338887, "lng": -99.1019654}, "viewport": {"northeast": {"lat": 19.33519092989272, "lng": -99.10061247010728}, "southwest": {"lat": 19.33249127010728, "lng": -99.10331212989271}}}, "icon": "https://maps.gstatic.com/mapfiles/place_api/icons/v1/png_71/shopping-71.png", "name": "Plaza Triana", "opening_hours": {"open_now": true}, "photos": [{"height": 3024, "html_attributions": ["<a href=\"https://maps.google.com/maps/contrib/109014481024977972196\">Rafa Maya</a>"], "photo_reference": "CmRaAAAAw4ovpOM69OTjamXZsQC4Fp-lb4n65rE_omU6R7n7qWOB99ffY4JuM6Goqz0RNzxZVjyBGlL_14d1i_rzfB-OzTvM_B3LJJFEDJwIVK8NE3zbaLewdaSbdsjG3GPeuPXQEhB9nQU0iysiqmOFynpSBF_EGhT521fIilpKFa2DzdYhzwJPUPkfMQ", "width": 4032}], "place_id": "ChIJU8UVpfgBzoURDYUD4OChGj8", "plus_code": {"compound_code": "8VMX+H6 Mexico City", "global_code": "76F28VMX+H6"}, "rating": 3.6, "reference": "ChIJU8UVpfgBzoURDYUD4OChGj8", "types": ["shopping_mall", "point_of_interest", "establishment"], "user_ratings_total": 93}, {"business_status": "OPERATIONAL", "formatted_address": "Ayuntamiento 121, San Pedro, Iztapalapa, 09000 Ciudad de M\u00e9xico, CDMX", "geometry": {"location": {"lat": 19.3624406, "lng": -99.0908362}, "viewport": {"northeast": {"lat": 19.36378912989272, "lng": -99.08948122010729}, "southwest": {"lat": 19.36108947010728, "lng": -99.09218087989274}}}, "icon": "https://maps.gstatic.com/mapfiles/place_api/icons/v1/png_71/shopping-71.png", "name": "Est\u00e9tica De Adriana", "place_id": "ChIJ77K5cLL90YURSTKZauVMYxc", "plus_code": {"compound_code": "9W65+XM Mexico City", "global_code": "76F29W65+XM"}, "rating": 5, "reference": "ChIJ77K5cLL90YURSTKZauVMYxc", "types": ["shopping_mall", "point_of_interest", "establishment"], "user_ratings_total": 1}, {"business_status": "OPERATIONAL", "formatted_address": "Minerva, Iztapalapa, 09810 Mexico City, CDMX", "geometry": {"location": {"lat": 19.3551801, "lng": -99.1107244}, "viewport": {"northeast": {"lat": 19.35652992989272, "lng": -99.10937457010728}, "southwest": {"lat": 19.35383027010728, "lng": -99.11207422989271}}}, "icon": "https://maps.gstatic.com/mapfiles/place_api/icons/v1/png_71/shopping-71.png", "name": "Plaza Ermita", "opening_hours": {"open_now": true}, "photos": [{"height": 2592, "html_attributions": ["<a href=\"https://maps.google.com/maps/contrib/105143792918166207379\">German Mora</a>"], "photo_reference": "CmRaAAAAhawXPPWseIO-fbrxtP0PPuh6HNYHXA2QsBymq-K6KN7W65bkx61e65uSMMUQ3R6RH_ojNL_LCHv11UBiYwGgDXXnd6Du9M4gX0TZybvu619z6V9Vp_1y-JooThq1dPDqEhCWflox0UOoRLDQ_YsBHmWRGhQpwOIqi1RjvpBpHXoslEJ_OCIO2Q", "width": 4608}], "place_id": "ChIJYZ4uOA7-0YUR64aF_Z39tWQ", "plus_code": {"compound_code": "9V4Q+3P Mexico City", "global_code": "76F29V4Q+3P"}, "rating": 4, "reference": "ChIJYZ4uOA7-0YUR64aF_Z39tWQ", "types": ["shopping_mall", "point_of_interest", "establishment"], "user_ratings_total": 400}, {"business_status": "OPERATIONAL", "formatted_address": "09000, Lerdo de Tejada 55, San Pablo, Iztapalapa, Ciudad de M\u00e9xico, CDMX", "geometry": {"location": {"lat": 19.3606748, "lng": -99.09078889999999}, "viewport": {"northeast": {"lat": 19.36201967989272, "lng": -99.0894397201073}, "southwest": {"lat": 19.35932002010728, "lng": -99.09213937989273}}}, "icon": "https://maps.gstatic.com/mapfiles/place_api/icons/v1/png_71/shopping-71.png", "name": "MAUMA", "opening_hours": {"open_now": true}, "photos": [{"height": 540, "html_attributions": ["<a href=\"https://maps.google.com/maps/contrib/110237674701536870128\">Margarita Mej\u00eda</a>"], "photo_reference": "CmRaAAAAeJAumOyH9HT-VdeladEoMosqnM8arljlXufMFIlnc7Ed2HFbAUvRCbLDSsCztR68DFbdToDRye8AlNcSwGC5Jtt886sSh4UI2A7TAJoQnx1bxAmmr1Eb4RxomtLisNmJEhCjZ9qhNc98ziaVZahFkKpjGhQZrQ_UQhS1mBqfjBdsx0VOtpT6XA", "width": 720}], "place_id": "ChIJga28Qub90YUR_PDRjpQpmdw", "plus_code": {"compound_code": "9W65+7M Mexico City", "global_code": "76F29W65+7M"}, "rating": 4.5, "reference": "ChIJga28Qub90YUR_PDRjpQpmdw", "types": ["shopping_mall", "point_of_interest", "establishment"], "user_ratings_total": 4}, {"business_status": "OPERATIONAL", "formatted_address": "Centella 15, Valle de Luces 1ra Secc, Iztapalapa, 09420 Ciudad de M\u00e9xico, CDMX", "geometry": {"location": {"lat": 19.3398912, "lng": -99.0988188}, "viewport": {"northeast": {"lat": 19.34122997989272, "lng": -99.09743517010729}, "southwest": {"lat": 19.33853032010728, "lng": -99.10013482989274}}}, "icon": "https://maps.gstatic.com/mapfiles/place_api/icons/v1/png_71/shopping-71.png", "name": "SPA IVI\u2019S NAILS", "opening_hours": {"open_now": true}, "photos": [{"height": 1280, "html_attributions": ["<a href=\"https://maps.google.com/maps/contrib/100568229626661987332\">A Google User</a>"], "photo_reference": "CmRaAAAAyQQNDyEXHhyYsxH3CWGRnxwdKD54tH61nzs2MgA56Xh2IoAj8E87LUDTnMOs72Mf0LJbKTYmm9Uv1WOAobCw3Nm5c7p2fTvnJEjO8NShCHtv7FmEl_XlHB2_1xjDkN8REhBcYVrddUgSfta3no8qzUM6GhQW72Nqt9c4M4rdj6tER9gPNe-yyw", "width": 720}], "place_id": "ChIJhXcWrbgDzoURck2RoptzzS4", "plus_code": {"compound_code": "8WQ2+XF Mexico City", "global_code": "76F28WQ2+XF"}, "rating": 5, "reference": "ChIJhXcWrbgDzoURck2RoptzzS4", "types": ["shopping_mall", "point_of_interest", "establishment"], "user_ratings_total": 2}, {"business_status": "OPERATIONAL", "formatted_address": "Canal R\u00edo Churubusco 1635, \u00c1rea Federal Central de Abastos, Iztapalapa, 09040 Ciudad de M\u00e9xico, CDMX", "geometry": {"location": {"lat": 19.3778946, "lng": -99.0952176}, "viewport": {"northeast": {"lat": 19.3793297, "lng": -99.0944967}, "southwest": {"lat": 19.3766257, "lng": -99.09738029999998}}}, "icon": "https://maps.gstatic.com/mapfiles/place_api/icons/v1/png_71/shopping-71.png", "name": "Virgin Mobile Plaza Central Iztapalapa", "opening_hours": {"open_now": true}, "photos": [{"height": 2976, "html_attributions": ["<a href=\"https://maps.google.com/maps/contrib/116755705467843780444\">diana sarai romero duran</a>"], "photo_reference": "CmRaAAAApyRQw5xawsOUSIZAmm7Q4hrFqpKH_BGV1EhevQWzicbTXA16XZlXEh_XeJYZ1WSOJi-PUvXnkRMliAYhnhmq61RQuGJ5xJrtUFk5BkozXgsoB9TjWBgm2ieUv58c05o2EhAOXYAla4VTmlVXgGP774tYGhRf-Y7MV5u_1_3NcECnXWWtHIJL-g", "width": 3968}], "place_id": "ChIJgfHRUtf90YUR9FhKXhrDZ-o", "plus_code": {"compound_code": "9WH3+5W Mexico City", "global_code": "76F29WH3+5W"}, "rating": 4.2, "reference": "ChIJgfHRUtf90YUR9FhKXhrDZ-o", "types": ["shopping_mall", "point_of_interest", "establishment"], "user_ratings_total": 25747}]