[{"business_status": "OPERATIONAL", "formatted_address": "Calle Quer\u00e9taro 110, Roma Nte., Cuauht\u00e9moc, 06700 Ciudad de M\u00e9xico, CDMX", "geometry": {"location": {"lat": 19.4147846, "lng": -99.1596215}, "viewport": {"northeast": {"lat": 19.41621412989272, "lng": -99.15828922010728}, "southwest": {"lat": 19.41351447010728, "lng": -99.16098887989273}}}, "icon": "https://maps.gstatic.com/mapfiles/place_api/icons/v1/png_71/worship_jewish-71.png", "name": "Monte Sinai", "photos": [{"height": 3456, "html_attributions": ["<a href=\"https://maps.google.com/maps/contrib/109759923892835877475\">Caracol Natiroots</a>"], "photo_reference": "CmRaAAAAuoAGJ-urkL7JgfH1343NMdjE3e6BS7-D-xdLCPwk7r4JvjYNbWOhRizv-HY4D-o-_cBihXdM5jK86Ror2f-scLpeUqyB8WWgcsuizRJXu59Jdu2WfCD0Zn5-Vbi4pcpcEhCNccUglKKxVH44elgqJUFYGhRcexivYyV0J1lnjpYq1ilT4i1CIQ", "width": 5184}], "place_id": "ChIJBRDpgzv_0YURCPBqMYYQKQY", "plus_code": {"compound_code": "CR7R+W5 Mexico City", "global_code": "76F2CR7R+W5"}, "rating": 4.3, "reference": "ChIJBRDpgzv_0YURCPBqMYYQKQY", "types": ["synagogue", "place_of_worship", "point_of_interest", "establishment"], "user_ratings_total": 20}, {"business_status": "CLOSED_TEMPORARILY", "formatted_address": "Justo Sierra 71, Centro Hist\u00f3rico de la Cdad. de M\u00e9xico, Centro, Cuauht\u00e9moc, 06020 Ejido del, CDMX", "geometry": {"location": {"lat": 19.4351573, "lng": -99.1282234}, "viewport": {"northeast": {"lat": 19.43655317989272, "lng": -99.12686657010727}, "southwest": {"lat": 19.43385352010727, "lng": -99.12956622989272}}}, "icon": "https://maps.gstatic.com/mapfiles/place_api/icons/v1/png_71/worship_jewish-71.png", "name": "Historic Synagogue Justo Sierra 71", "permanently_closed": true, "photos": [{"height": 5184, "html_attributions": ["<a href=\"https://maps.google.com/maps/contrib/108921026350500139780\">oscar</a>"], "photo_reference": "CmRaAAAAE0sanXT-MVz9AJLhtZhSvkdE6fpKKQGH5YhAvM5m0c5rQH5A8oLxLwuGADrr_CxtSxHxk4SuluaCQsvG8UPlRlo8t1YfjYhBoDg2xzn0sTk-o4ntOyDxiMqGsoWCZuSAEhDckGsS8k8Yn3CGBS2j-ElyGhQxpBAoO7SOFIJ1krynQiBkg_GHMA", "width": 3456}], "place_id": "ChIJOQDflzT50YURLDp8Gi33zio", "plus_code": {"compound_code": "CVPC+3P Centro, Mexico City", "global_code": "76F2CVPC+3P"}, "rating": 4.9, "reference": "ChIJOQDflzT50YURLDp8Gi33zio", "types": ["synagogue", "place_of_worship", "point_of_interest", "establishment"], "user_ratings_total": 13}, {"business_status": "CLOSED_TEMPORARILY", "formatted_address": "Eje 2 Pte 363, Roma Sur, Cuauht\u00e9moc, 06760 Ciudad de M\u00e9xico, CDMX", "geometry": {"location": {"lat": 19.4047448, "lng": -99.1610877}, "viewport": {"northeast": {"lat": 19.40612367989272, "lng": -99.15960647010728}, "southwest": {"lat": 19.40342402010728, "lng": -99.16230612989271}}}, "icon": "https://maps.gstatic.com/mapfiles/place_api/icons/v1/png_71/worship_jewish-71.png", "name": "Sinagoga", "permanently_closed": true, "photos": [{"height": 4032, "html_attributions": ["<a href=\"https://maps.google.com/maps/contrib/113692437531660690137\">Carlos Mejia</a>"], "photo_reference": "CmRaAAAAV6I7cXcQ153FgpiY_Zoz53HtRLSFE5p9a_GdLzm3Oq63-3iqebbQ4vQ437FMQzN1c0gViSyfbv4jf88qO_bmBUe7bQtR-kFzDxctFWAYupQplv2NyHJBJ_fCqYe8L-pbEhBLslDkTBHzDr0dBcNgOLtTGhT77kfY8HS9fLJp3UB6HVPj-VXlzg", "width": 3024}], "place_id": "ChIJ7_B0khb_0YUR9Rt0rgQm5Bo", "plus_code": {"compound_code": "CR3Q+VH Mexico City", "global_code": "76F2CR3Q+VH"}, "rating": 4.8, "reference": "ChIJ7_B0khb_0YUR9Rt0rgQm5Bo", "types": ["synagogue", "place_of_worship", "point_of_interest", "establishment"], "user_ratings_total": 12}, {"business_status": "CLOSED_TEMPORARILY", "formatted_address": "Fernando Montes de Oca 32, Colonia Condesa, Cuauht\u00e9moc, 06140 Ciudad de M\u00e9xico, CDMX", "geometry": {"location": {"lat": 19.4124592, "lng": -99.1740506}, "viewport": {"northeast": {"lat": 19.41388482989272, "lng": -99.17265852010728}, "southwest": {"lat": 19.41118517010728, "lng": -99.17535817989273}}}, "icon": "https://maps.gstatic.com/mapfiles/place_api/icons/v1/png_71/worship_jewish-71.png", "name": "Jewish Community Center Condesa", "permanently_closed": true, "photos": [{"height": 595, "html_attributions": ["<a href=\"https://maps.google.com/maps/contrib/117702853685846034803\">No\u00e9 Hern\u00e1ndez Pe\u00f1a</a>"], "photo_reference": "CmRaAAAAIkS-OoEUy_Arjhqcy60vfk9ik7PpWlLKByXYJ_SyrxWY_k5OSpQ-gb90YYKhzi2ZNWd_qdfmdER2Rhm3vxRBZ8K76fuybzZSdCA7cO90gwD7vTRo8LaxfxOaXwrYC4Q1EhBtoSOeAzk78NKu--GDkETEGhQT2OcwlKABtT4Ca7ZTiVqOuP5oWg", "width": 394}], "place_id": "ChIJ73WQ6EP_0YUR4l4bC-rgvZk", "plus_code": {"compound_code": "CR6G+X9 Mexico City", "global_code": "76F2CR6G+X9"}, "rating": 4.5, "reference": "ChIJ73WQ6EP_0YUR4l4bC-rgvZk", "types": ["synagogue", "place_of_worship", "point_of_interest", "establishment"], "user_ratings_total": 29}, {"business_status": "CLOSED_TEMPORARILY", "formatted_address": "Calle S\u00f3crates 371, Polanco, Polanco II Secc, Miguel Hidalgo, 11550 Ciudad de M\u00e9xico, CDMX", "geometry": {"location": {"lat": 19.4319976, "lng": -99.20405369999999}, "viewport": {"northeast": {"lat": 19.43331797989272, "lng": -99.20260552010728}, "southwest": {"lat": 19.43061832010728, "lng": -99.20530517989273}}}, "icon": "https://maps.gstatic.com/mapfiles/place_api/icons/v1/png_71/worship_jewish-71.png", "name": "Sinagoga Magu\u00e9n David", "permanently_closed": true, "photos": [{"height": 4096, "html_attributions": ["<a href=\"https://maps.google.com/maps/contrib/100289534035202124841\">Juan Uribe</a>"], "photo_reference": "CmRaAAAAkGJGpSQ_l8-JVSWFChvOwZfRl2xunAY69ifQRawTwwJxD7IuBFc6Ed1Qvj9mb9s6YlLNq4XC2RKBgdbyLkZsLiqvyiIDcgL7e7YtfY8IZKKuH_9M8dZPfnXsduiFhAZbEhCmSju7dvv-DevVOXKUlrS5GhR6gGW8mU6fTfB4O6sx4rPqG4BP1Q", "width": 3072}], "place_id": "ChIJk5JWrx0C0oURgIYfGh5Y6bc", "plus_code": {"compound_code": "CQJW+Q9 Mexico City", "global_code": "76F2CQJW+Q9"}, "rating": 4.7, "reference": "ChIJk5JWrx0C0oURgIYfGh5Y6bc", "types": ["synagogue", "place_of_worship", "point_of_interest", "establishment"], "user_ratings_total": 97}, {"business_status": "OPERATIONAL", "formatted_address": "Polanco, Polanco III Secc, Miguel Hidalgo, 11550 Mexico City", "geometry": {"location": {"lat": 19.4339335, "lng": -99.1960242}, "viewport": {"northeast": {"lat": 19.43528332989272, "lng": -99.19467437010728}, "southwest": {"lat": 19.43258367010727, "lng": -99.19737402989271}}}, "icon": "https://maps.gstatic.com/mapfiles/place_api/icons/v1/png_71/worship_jewish-71.png", "name": "Sinagoga Brit Braja", "place_id": "ChIJKxrCmBAD0oURM3sdQY7WbLo", "plus_code": {"compound_code": "CRM3+HH Mexico City", "global_code": "76F2CRM3+HH"}, "rating": 5, "reference": "ChIJKxrCmBAD0oURM3sdQY7WbLo", "types": ["synagogue", "place_of_worship", "point_of_interest", "establishment"], "user_ratings_total": 6}, {"business_status": "CLOSED_TEMPORARILY", "formatted_address": "1140, Lomas de Chapultepec, Miguel Hidalgo, 11000 Ciudad de M\u00e9xico, CDMX", "geometry": {"location": {"lat": 19.412998, "lng": -99.21767419999999}, "viewport": {"northeast": {"lat": 19.41439097989272, "lng": -99.21637247010727}, "southwest": {"lat": 19.41169132010728, "lng": -99.21907212989271}}}, "icon": "https://maps.gstatic.com/mapfiles/place_api/icons/v1/png_71/worship_jewish-71.png", "name": "Beth Israel", "permanently_closed": true, "photos": [{"height": 854, "html_attributions": ["<a href=\"https://maps.google.com/maps/contrib/115328775701386830404\">Javier Brenes</a>"], "photo_reference": "CmRaAAAASzy6su8hks7BVuEhh2mJ2eGgiUpGl-9Kt5yvne_-HC-wVzXYBVyViQosZfdMnOAeJTv36oh0Wgs7q93QW4Z_lUxY70IEO74r3B65LLt0yWhcGA8GogMl78bw9lMONhFrEhCOYewuUQrU2xIOnx4WVhO0GhTA7KNIMHgPnl6MybOuH3ylq_rMKg", "width": 640}], "place_id": "ChIJf1BqYJEB0oUR2Ks8RBGXLAQ", "plus_code": {"compound_code": "CQ7J+5W Mexico City", "global_code": "76F2CQ7J+5W"}, "rating": 4.7, "reference": "ChIJf1BqYJEB0oUR2Ks8RBGXLAQ", "types": ["synagogue", "place_of_worship", "point_of_interest", "establishment"], "user_ratings_total": 19}, {"business_status": "OPERATIONAL", "formatted_address": "Eugenio Sue 20, Polanco, Polanco IV Secc, Miguel Hidalgo, 11550 Ciudad de M\u00e9xico, CDMX", "geometry": {"location": {"lat": 19.4282992, "lng": -99.1948273}, "viewport": {"northeast": {"lat": 19.42964742989272, "lng": -99.19346562010728}, "southwest": {"lat": 19.42694777010728, "lng": -99.19616527989272}}}, "icon": "https://maps.gstatic.com/mapfiles/place_api/icons/v1/png_71/worship_jewish-71.png", "name": "Beth Itzjak", "photos": [{"height": 3024, "html_attributions": ["<a href=\"https://maps.google.com/maps/contrib/107775554161122371406\">A Google User</a>"], "photo_reference": "CmRaAAAA9r9sR-AGEOlA5t1ibd7YDEGm9d6zdWS4V8MDdgcl3ZsBLjxP4GnUtp6DpvIP6ST8yOIgKR2sb8mrEfdJKvlRI4t75wRjv58m8aj3aBX5STsiRl_H-OwGbhICUsaQVHKVEhB-TExsF7ZwJEJgrZ0dzNw_GhRF9E-Q7jndAp0K7Iw9AJVMFgHcCQ", "width": 4032}], "place_id": "ChIJiz_KMP8B0oURGBTx3jaPAdk", "plus_code": {"compound_code": "CRH4+83 Mexico City", "global_code": "76F2CRH4+83"}, "rating": 4.4, "reference": "ChIJiz_KMP8B0oURGBTx3jaPAdk", "types": ["synagogue", "place_of_worship", "point_of_interest", "establishment"], "user_ratings_total": 28}, {"business_status": "CLOSED_TEMPORARILY", "formatted_address": "Amsterdam, Hip\u00f3dromo, Cuauht\u00e9moc, 06100 Ciudad de M\u00e9xico, CDMX", "geometry": {"location": {"lat": 19.4130698, "lng": -99.170645}, "viewport": {"northeast": {"lat": 19.41443237989272, "lng": -99.16932572010728}, "southwest": {"lat": 19.41173272010728, "lng": -99.17202537989272}}}, "icon": "https://maps.gstatic.com/mapfiles/place_api/icons/v1/png_71/worship_jewish-71.png", "name": "Beit Kneset Etz Haim", "permanently_closed": true, "place_id": "ChIJQYsZbuD_0YUR8zadmE5roMk", "plus_code": {"compound_code": "CR7H+6P Mexico City", "global_code": "76F2CR7H+6P"}, "rating": 2, "reference": "ChIJQYsZbuD_0YUR8zadmE5roMk", "types": ["synagogue", "place_of_worship", "point_of_interest", "establishment"], "user_ratings_total": 1}, {"business_status": "CLOSED_TEMPORARILY", "formatted_address": "Av. Horacio 1722, Polanco, Polanco I Secc, Miguel Hidalgo, 10000 Ciudad de M\u00e9xico, CDMX", "geometry": {"location": {"lat": 19.4350523, "lng": -99.20915989999999}, "viewport": {"northeast": {"lat": 19.43657857989272, "lng": -99.20779802010728}, "southwest": {"lat": 19.43387892010728, "lng": -99.21049767989271}}}, "icon": "https://maps.gstatic.com/mapfiles/place_api/icons/v1/png_71/worship_jewish-71.png", "name": "Comunidad Bet-El", "permanently_closed": true, "place_id": "ChIJydCXLB8C0oURcfeyew_nSXg", "plus_code": {"compound_code": "CQPR+28 Mexico City", "global_code": "76F2CQPR+28"}, "rating": 4.9, "reference": "ChIJydCXLB8C0oURcfeyew_nSXg", "types": ["synagogue", "place_of_worship", "point_of_interest", "establishment"], "user_ratings_total": 22}, {"business_status": "OPERATIONAL", "formatted_address": "Calle Calder\u00f3n de la Barca 339, Polanco, Polanco II Secc, Miguel Hidalgo, 11550 Ciudad de M\u00e9xico, CDMX", "geometry": {"location": {"lat": 19.4373251, "lng": -99.198702}, "viewport": {"northeast": {"lat": 19.43867802989272, "lng": -99.19742467010728}, "southwest": {"lat": 19.43597837010728, "lng": -99.20012432989272}}}, "icon": "https://maps.gstatic.com/mapfiles/place_api/icons/v1/png_71/worship_jewish-71.png", "name": "Chabad Mexico", "photos": [{"height": 2160, "html_attributions": ["<a href=\"https://maps.google.com/maps/contrib/103628495717910063747\">\u05ea\u05d3\u05d4\u05e8 \u05e7\u05d0\u05e8\u05d5</a>"], "photo_reference": "CmRZAAAAnqW_3OArX6bKrpZZWa9q2g4iS7HmTM4WTBvZ1dK-Jz4goiZi6Cfp_itA59IrL4UukO5ITcCXzAXs8PNhbCofVmZYvkMIefU1oIhY16RWuy3GIbbmXBz20HMhouA7ktCSEhDzxndz5VeZWsj2KbnzHLqpGhQZL5BzxDuQsIelYatcfjlrQnug8Q", "width": 3840}], "place_id": "ChIJC11pjQQC0oUR0cOtTc5jV_Q", "plus_code": {"compound_code": "CRP2+WG Mexico City", "global_code": "76F2CRP2+WG"}, "rating": 4.8, "reference": "ChIJC11pjQQC0oUR0cOtTc5jV_Q", "types": ["synagogue", "place_of_worship", "point_of_interest", "establishment"], "user_ratings_total": 47}, {"business_status": "OPERATIONAL", "formatted_address": "Calle, Fuente del Pescador 35, Lomas de Tecamachalco, 53950 Naucalpan de Ju\u00e1rez, M\u00e9x.", "geometry": {"location": {"lat": 19.4116328, "lng": -99.242673}, "viewport": {"northeast": {"lat": 19.41304832989272, "lng": -99.2413820201073}, "southwest": {"lat": 19.41034867010728, "lng": -99.24408167989273}}}, "icon": "https://maps.gstatic.com/mapfiles/place_api/icons/v1/png_71/worship_jewish-71.png", "name": "Ramat Shalom Synagogue", "photos": [{"height": 3264, "html_attributions": ["<a href=\"https://maps.google.com/maps/contrib/108642646937430257681\">A Google User</a>"], "photo_reference": "CmRaAAAA9cSugDltOblI7iZAbHyOLweSlSMeyXmuFtjcmFIUWHYAMrBnKCI5bt9YUaDsmYUE7kHWqipBxHXnzLJoAmuTrNKZFDQ_Pw4Lf5X0GApaW7iEbDkt5dDO29OK7knRVf0IEhB3hiZs5KffMZuW8JI3MYy9GhROqJLmTIM7o4Fj21Dy3c9S-Hs4Gw", "width": 2448}], "place_id": "ChIJo5eLo3EB0oUR4hGdZJe5xBY", "plus_code": {"compound_code": "CQ64+MW Naucalpan de Ju\u00e1rez, State of Mexico", "global_code": "76F2CQ64+MW"}, "rating": 4.6, "reference": "ChIJo5eLo3EB0oUR4hGdZJe5xBY", "types": ["synagogue", "place_of_worship", "point_of_interest", "establishment"], "user_ratings_total": 136}, {"business_status": "CLOSED_TEMPORARILY", "formatted_address": "Av. Horacio 1722, Polanco, Polanco I Secc, Miguel Hidalgo, 11550 Ciudad de M\u00e9xico, CDMX", "geometry": {"location": {"lat": 19.4350927, "lng": -99.209136}, "viewport": {"northeast": {"lat": 19.43659817989272, "lng": -99.20777557010727}, "southwest": {"lat": 19.43389852010728, "lng": -99.21047522989271}}}, "icon": "https://maps.gstatic.com/mapfiles/place_api/icons/v1/png_71/worship_jewish-71.png", "name": "Beth El", "permanently_closed": true, "photos": [{"height": 4160, "html_attributions": ["<a href=\"https://maps.google.com/maps/contrib/116092427302593002931\">A Google User</a>"], "photo_reference": "CmRaAAAAP4rvHV28eSlqp3JPSkfueZg7dJS3VQR-vXw7NiXHrwAVbK5v9cxSEh4ymUQTf5lOCchbkFs7EWKYGnt1VC-3FLra7A8zPimm2rCDyROdIDPoq244M3_-Zrc5d50KhnZxEhDATN1Z5Y-KuUGLQZlEh1XMGhSoqMjxaDpP6lhVqECyyjjswIxYdA", "width": 2340}], "place_id": "ChIJ1XwS1R4C0oURViGwKXks1kg", "plus_code": {"compound_code": "CQPR+28 Mexico City", "global_code": "76F2CQPR+28"}, "rating": 4.1, "reference": "ChIJ1XwS1R4C0oURViGwKXks1kg", "types": ["synagogue", "place_of_worship", "point_of_interest", "establishment"], "user_ratings_total": 11}, {"business_status": "CLOSED_TEMPORARILY", "formatted_address": "Av. loma de la Palma 133, Lomas de Vista Hermosa, Cuajimalpa de Morelos, 05100 Ciudad de M\u00e9xico, CDMX", "geometry": {"location": {"lat": 19.383055, "lng": -99.2735457}, "viewport": {"northeast": {"lat": 19.38467777989272, "lng": -99.27221322010729}, "southwest": {"lat": 19.38197812010728, "lng": -99.27491287989274}}}, "icon": "https://maps.gstatic.com/mapfiles/place_api/icons/v1/png_71/worship_jewish-71.png", "name": "SINAGOGA", "permanently_closed": true, "place_id": "ChIJSyCXvisB0oURgY1l3QAtB8Y", "plus_code": {"compound_code": "9PMG+6H Mexico City", "global_code": "76F29PMG+6H"}, "rating": 4.6, "reference": "ChIJSyCXvisB0oURgY1l3QAtB8Y", "types": ["synagogue", "place_of_worship", "point_of_interest", "establishment"], "user_ratings_total": 10}, {"business_status": "CLOSED_TEMPORARILY", "formatted_address": "Av. Horacio 1220, Polanco, Polanco III Secc, Miguel Hidalgo, 11550 Ciudad de M\u00e9xico, CDMX", "geometry": {"location": {"lat": 19.4341227, "lng": -99.2011792}, "viewport": {"northeast": {"lat": 19.43550627989272, "lng": -99.19982457010727}, "southwest": {"lat": 19.43280662010728, "lng": -99.20252422989272}}}, "icon": "https://maps.gstatic.com/mapfiles/place_api/icons/v1/png_71/worship_jewish-71.png", "name": "Kolel Dirshu", "permanently_closed": true, "photos": [{"height": 585, "html_attributions": ["<a href=\"https://maps.google.com/maps/contrib/102879326221939623434\">A Google User</a>"], "photo_reference": "CmRaAAAAeN5XYA0sTgFDt1pr8tM3sycX47UjpoeUTqAzLAFQ9V4HeHQChe0vdi7jVVEYg6FdIWFvcBx6169Zx2SLVdHVPPOqeZl6TIvB3zQmo6igDwAS1NnLNA_0yEqj1dcJz9-EEhC-0aJc6yWeX9clrsAzQFxjGhRc799Qxqkm-oEWVB93cstiF2SFng", "width": 1040}], "place_id": "ChIJo8dCvJ8D0oUReIKvEaZF028", "plus_code": {"compound_code": "CQMX+JG Mexico City", "global_code": "76F2CQMX+JG"}, "rating": 4.4, "reference": "ChIJo8dCvJ8D0oUReIKvEaZF028", "types": ["synagogue", "place_of_worship", "point_of_interest", "establishment"], "user_ratings_total": 7}, {"business_status": "CLOSED_TEMPORARILY", "formatted_address": "53950, Fuente de San Sulpicio 16, Lomas de Tecamachalco, Naucalpan de Ju\u00e1rez, M\u00e9x.", "geometry": {"location": {"lat": 19.4235131, "lng": -99.2381963}, "viewport": {"northeast": {"lat": 19.42486337989272, "lng": -99.23688202010729}, "southwest": {"lat": 19.42216372010728, "lng": -99.23958167989272}}}, "icon": "https://maps.gstatic.com/mapfiles/place_api/icons/v1/png_71/worship_jewish-71.png", "name": "Sinagoga Beth Yehoshua Monte Sinai", "permanently_closed": true, "place_id": "ChIJp2erwX4B0oURs-mXf59S88A", "plus_code": {"compound_code": "CQF6+CP Naucalpan de Ju\u00e1rez, State of Mexico", "global_code": "76F2CQF6+CP"}, "rating": 4.9, "reference": "ChIJp2erwX4B0oURs-mXf59S88A", "types": ["synagogue", "place_of_worship", "point_of_interest", "establishment"], "user_ratings_total": 8}, {"business_status": "CLOSED_TEMPORARILY", "formatted_address": "Bosque de Sabinos 180, Bosque de las Lomas, Miguel Hidalgo, 11700 Ciudad de M\u00e9xico, CDMX", "geometry": {"location": {"lat": 19.4003511, "lng": -99.2424028}, "viewport": {"northeast": {"lat": 19.40177337989272, "lng": -99.24102917010727}, "southwest": {"lat": 19.39907372010728, "lng": -99.24372882989272}}}, "icon": "https://maps.gstatic.com/mapfiles/place_api/icons/v1/png_71/worship_jewish-71.png", "name": "Templo sabinos Maguen David", "permanently_closed": true, "photos": [{"height": 3456, "html_attributions": ["<a href=\"https://maps.google.com/maps/contrib/105020488801673945690\">rodrigo barreiro</a>"], "photo_reference": "CmRaAAAAEkX8g1cR2MaJbpcOnKN0yEOM-kwWXOliTqU4nE_j3WokFsLz6dokArIO7svXYBA8YsZn-fiaar3zAf4cX2Km8MKt6VxA-ifLJy5K3LASYLzGBDablvF_dNWw0n6BUmkJEhD5OI4GaJ8bWFfTetxl70nMGhQ3gRXQGoJIS0kISRpkNGaNklTXDA", "width": 4608}], "place_id": "ChIJ26OSTAwB0oURn9tV-MTzSXI", "plus_code": {"compound_code": "CQ25+42 Mexico City", "global_code": "76F2CQ25+42"}, "rating": 4.8, "reference": "ChIJ26OSTAwB0oURn9tV-MTzSXI", "types": ["synagogue", "place_of_worship", "point_of_interest", "establishment"], "user_ratings_total": 34}, {"business_status": "CLOSED_TEMPORARILY", "formatted_address": "\u00c1guilas, 01710 Mexico City, CDMX", "geometry": {"location": {"lat": 19.3626441, "lng": -99.20004139999999}, "viewport": {"northeast": {"lat": 19.36402647989273, "lng": -99.19869047010728}, "southwest": {"lat": 19.36132682010728, "lng": -99.20139012989272}}}, "icon": "https://maps.gstatic.com/mapfiles/place_api/icons/v1/png_71/worship_jewish-71.png", "name": "RE-CREO", "permanently_closed": true, "place_id": "ChIJt5RzLCMA0oUROMUXS5CRu7k", "plus_code": {"compound_code": "9Q7X+3X Mexico City", "global_code": "76F29Q7X+3X"}, "rating": 0, "reference": "ChIJt5RzLCMA0oUROMUXS5CRu7k", "types": ["synagogue", "place_of_worship", "gym", "health", "point_of_interest", "establishment"], "user_ratings_total": 0}, {"business_status": "CLOSED_TEMPORARILY", "formatted_address": "Cedro 44, Los Olivos, 56343 Chimalhuac\u00e1n, M\u00e9x.", "geometry": {"location": {"lat": 19.39256, "lng": -98.97345}, "viewport": {"northeast": {"lat": 19.39385537989272, "lng": -98.97193842010728}, "southwest": {"lat": 19.39115572010728, "lng": -98.97463807989273}}}, "icon": "https://maps.gstatic.com/mapfiles/place_api/icons/v1/png_71/worship_jewish-71.png", "name": "Iglesia Adventista del S\u00e9ptimo D\u00eda \"Los Olivos\"", "permanently_closed": true, "photos": [{"height": 3456, "html_attributions": ["<a href=\"https://maps.google.com/maps/contrib/115734079051961445008\">A Google User</a>"], "photo_reference": "CmRaAAAAzXYnqiArig8OFVs2f4_RJSy6Z3v7Zlc7adsawo7fT1rtlE6C0G8R5lQw8fuzJQGSc1M7Zo-IyXfBFIWezfOuBQslYdUBTcWdpwtZqfV3ltkVbT-XQjcKTPC50O5cyEr_EhB2SYoO_BlO89bw-KphMM8TGhSwEb-4MIqbutBQ_FxYvvTGnNvrag", "width": 4608}], "place_id": "ChIJbY-Ybf7i0YURppEz4_ndogA", "plus_code": {"compound_code": "92VG+2J Chimalhuacan, State of Mexico", "global_code": "76F392VG+2J"}, "rating": 4.3, "reference": "ChIJbY-Ybf7i0YURppEz4_ndogA", "types": ["synagogue", "place_of_worship", "point_of_interest", "establishment"], "user_ratings_total": 22}, {"business_status": "CLOSED_TEMPORARILY", "formatted_address": "Av. Secretar\u00eda de Marina 580, Lomas del Chamizal, Cuajimalpa de Morelos, 05129 Ciudad de M\u00e9xico, CDMX", "geometry": {"location": {"lat": 19.3933562, "lng": -99.26522460000001}, "viewport": {"northeast": {"lat": 19.39470632989272, "lng": -99.26381262010729}, "southwest": {"lat": 19.39200667010727, "lng": -99.26651227989272}}}, "icon": "https://maps.gstatic.com/mapfiles/place_api/icons/v1/png_71/worship_jewish-71.png", "name": "Birkat Itzhak", "permanently_closed": true, "place_id": "ChIJ8yGt5ToB0oURpmLvab5inA8", "plus_code": {"compound_code": "9PVM+8W Mexico City", "global_code": "76F29PVM+8W"}, "rating": 4.3, "reference": "ChIJ8yGt5ToB0oURpmLvab5inA8", "types": ["synagogue", "place_of_worship", "point_of_interest", "establishment"], "user_ratings_total": 6}]