[{"business_status": "OPERATIONAL", "formatted_address": "Ermita Iztapalapa 179, Ricardo Flores Mag\u00f3n, Iztapalapa, 09820 Ciudad de M\u00e9xico, CDMX", "geometry": {"location": {"lat": 19.3554661, "lng": -99.0965854}, "viewport": {"northeast": {"lat": 19.35689922989271, "lng": -99.09524687010727}, "southwest": {"lat": 19.35419957010727, "lng": -99.09794652989271}}}, "icon": "https://maps.gstatic.com/mapfiles/place_api/icons/v1/png_71/generic_business-71.png", "name": "Viajes Paraiso", "opening_hours": {"open_now": false}, "photos": [{"height": 3024, "html_attributions": ["<a href=\"https://maps.google.com/maps/contrib/112308515959831543725\">A Google User</a>"], "photo_reference": "CmRaAAAA86FwDr7-EKtmwOvPKRksUqdTV6xhVxRB_qW3m90AFjuHs_LSu35CP1AzQbrMntxs5xGPUq7or03YOAPjjbsGyDgBMP2R8SJknBrhmZOyjZhj65A5ZH_XflvldkGqDY0bEhDKEt1-dczj14M5pWoYqcWzGhRXQYfPHdKejNN0MxD930oTdCtW_A", "width": 4032}], "place_id": "ChIJSS_AfSr90YURtT8fauITxyo", "plus_code": {"compound_code": "9W43+59 Mexico City", "global_code": "76F29W43+59"}, "rating": 5, "reference": "ChIJSS_AfSr90YURtT8fauITxyo", "types": ["travel_agency", "point_of_interest", "establishment"], "user_ratings_total": 2}, {"business_status": "OPERATIONAL", "formatted_address": "Puentetitla No.42, Ricardo Flores Mag\u00f3n, Iztapalapa, 09820 Ciudad de M\u00e9xico, CDMX", "geometry": {"location": {"lat": 19.3538328, "lng": -99.0991332}, "viewport": {"northeast": {"lat": 19.35520037989272, "lng": -99.09783047010728}, "southwest": {"lat": 19.35250072010728, "lng": -99.10053012989272}}}, "icon": "https://maps.gstatic.com/mapfiles/place_api/icons/v1/png_71/generic_business-71.png", "name": "Turismo Breton", "place_id": "ChIJ7y7z3OL90YUR8CoXHb9kbTc", "plus_code": {"compound_code": "9W32+G8 Mexico City", "global_code": "76F29W32+G8"}, "rating": 0, "reference": "ChIJ7y7z3OL90YUR8CoXHb9kbTc", "types": ["travel_agency", "point_of_interest", "establishment"], "user_ratings_total": 0}, {"business_status": "OPERATIONAL", "formatted_address": "Ermita Iztapalapa 1330, San Pablo, Iztapalapa, 09000 Ciudad de M\u00e9xico, CDMX", "geometry": {"location": {"lat": 19.3586108, "lng": -99.0893979}, "viewport": {"northeast": {"lat": 19.35991692989272, "lng": -99.08806057010729}, "southwest": {"lat": 19.35721727010728, "lng": -99.09076022989272}}}, "icon": "https://maps.gstatic.com/mapfiles/place_api/icons/v1/png_71/generic_business-71.png", "name": "Viajes Ermita", "opening_hours": {"open_now": false}, "photos": [{"height": 1463, "html_attributions": ["<a href=\"https://maps.google.com/maps/contrib/103797533680189224748\">Viajes ermita</a>"], "photo_reference": "CmRaAAAA5LDyG3goBFa-stzTf2IW-bnIquGithcOppZ58LMyhOcVRaVPt1VQf1hJOHT6mCojC97dCEXUD9xHERM_DSa1zzrXVUbEFAeLt0xZgp7Wicf1CLARe6LqsPzhRdxQ5Lo4EhDIN9Hb36IqxtK1ZN5KfZ1aGhSLpt5spz0A3LBqH6ACkNYIwr66fg", "width": 2048}], "place_id": "ChIJ73u0Se_90YUR13bM0VJY1fI", "plus_code": {"compound_code": "9W56+C6 Mexico City", "global_code": "76F29W56+C6"}, "rating": 4.9, "reference": "ChIJ73u0Se_90YUR13bM0VJY1fI", "types": ["travel_agency", "point_of_interest", "establishment"], "user_ratings_total": 39}, {"business_status": "OPERATIONAL", "formatted_address": "Ermita Iztapalapa 964, Sta B\u00e1rbara, Iztapalapa, 09060 Ciudad de M\u00e9xico, CDMX", "geometry": {"location": {"lat": 19.3562532, "lng": -99.1008234}, "viewport": {"northeast": {"lat": 19.35754737989273, "lng": -99.09946612010728}, "southwest": {"lat": 19.35484772010728, "lng": -99.10216577989273}}}, "icon": "https://maps.gstatic.com/mapfiles/place_api/icons/v1/png_71/generic_business-71.png", "name": "Servicios Tur\u00edsticos Cervantes", "opening_hours": {"open_now": false}, "photos": [{"height": 498, "html_attributions": ["<a href=\"https://maps.google.com/maps/contrib/101171798532783971959\">A Google User</a>"], "photo_reference": "CmRaAAAAPGw7iKDMh7zaeF4MX0fQkK9np0793L2u2hNYFVl3DCRxkdnBz4RBmZ3qVmodRwHBmB1oG9mcSgJZwuUvhthRPAzbnMMz_VUD1Q1srSbYe9xJZGwh9QktuKyVwLpciRyrEhCpQhZAm54aBGjB6AZJBdpRGhTiLqyK_IjkrxCr7rQMNGAKcuIobg", "width": 888}], "place_id": "ChIJra5obD_90YURR2onV-RpbSM", "plus_code": {"compound_code": "9V4X+GM Mexico City", "global_code": "76F29V4X+GM"}, "rating": 0, "reference": "ChIJra5obD_90YURR2onV-RpbSM", "types": ["travel_agency", "point_of_interest", "establishment"], "user_ratings_total": 0}, {"business_status": "OPERATIONAL", "formatted_address": "09000, La Asunci\u00f3n, 09000 Ciudad de M\u00e9xico, CDMX", "geometry": {"location": {"lat": 19.3612858, "lng": -99.0937371}, "viewport": {"northeast": {"lat": 19.36258937989273, "lng": -99.09240217010728}, "southwest": {"lat": 19.35988972010728, "lng": -99.09510182989271}}}, "icon": "https://maps.gstatic.com/mapfiles/place_api/icons/v1/png_71/generic_business-71.png", "name": "DENYFF TOURS", "opening_hours": {"open_now": true}, "photos": [{"height": 720, "html_attributions": ["<a href=\"https://maps.google.com/maps/contrib/100094106119592465844\">A Google User</a>"], "photo_reference": "CmRaAAAA6dPlT1A6_z2Tgw9Tgxyfvu1R0Cf3t4gsLLpP9Yo-IQ8D1mxHs6i2W9FcC6JjmtD67U5-Cmc6R5GoDUkKmtSp5dxT4uH5UgoNcFjZm8VLGWDN6rQMaonMNWd__6xzV1_LEhDQSFEV1AKZQQ3yiBPlzLRvGhSujut7shc7wP1IJnWKxr8LFDfPoQ", "width": 1280}], "place_id": "ChIJz8BoknH90YURdEffkoTX3eI", "plus_code": {"compound_code": "9W64+GG Mexico City", "global_code": "76F29W64+GG"}, "rating": 0, "reference": "ChIJz8BoknH90YURdEffkoTX3eI", "types": ["travel_agency", "point_of_interest", "establishment"], "user_ratings_total": 0}, {"business_status": "OPERATIONAL", "formatted_address": "Sta B\u00e1rbara, Iztapalapa, 09000 Mexico City", "geometry": {"location": {"lat": 19.3579188, "lng": -99.1020753}, "viewport": {"northeast": {"lat": 19.35926862989272, "lng": -99.10072547010729}, "southwest": {"lat": 19.35656897010728, "lng": -99.10342512989273}}}, "icon": "https://maps.gstatic.com/mapfiles/place_api/icons/v1/png_71/generic_business-71.png", "name": "Expedici\u00f3n Servicios Turisticos", "place_id": "ChIJ0fckbxn_0YURy5BQFD4-6p8", "plus_code": {"compound_code": "9V5X+55 Mexico City", "global_code": "76F29V5X+55"}, "rating": 0, "reference": "ChIJ0fckbxn_0YURy5BQFD4-6p8", "types": ["travel_agency", "point_of_interest", "establishment"], "user_ratings_total": 0}, {"business_status": "OPERATIONAL", "formatted_address": "Calle Cuauht\u00e9moc Mz 50, Los Reyes Culhuacan, Iztapalapa, 09849 Ciudad de M\u00e9xico, CDMX", "geometry": {"location": {"lat": 19.344623, "lng": -99.10061019999999}, "viewport": {"northeast": {"lat": 19.34599632989272, "lng": -99.09925402010728}, "southwest": {"lat": 19.34329667010728, "lng": -99.10195367989273}}}, "icon": "https://maps.gstatic.com/mapfiles/place_api/icons/v1/png_71/generic_business-71.png", "name": "Centro de Operaciones Camiorenta", "opening_hours": {"open_now": false}, "photos": [{"height": 1280, "html_attributions": ["<a href=\"https://maps.google.com/maps/contrib/114587475739299036290\">A Google User</a>"], "photo_reference": "CmRaAAAAbF_6vpAFE8-6OUrFDGX1GVQ9dgjxQALMWDutqes3twWfejq3Pb-tXUVv3x6RFn7WmjmHm9S7u8TNaXt3SPSd3Ud0Eup4nIVdfuBNkWS5FLlihlLj2Q0qljKfcFZJdcEfEhBZnlhTC_L6xOGhUlU3Dz9yGhRO7aRXEluEyCWojg5TMGFea4x29w", "width": 982}], "place_id": "ChIJkwXWOv790YUR49lpd7VZ-vA", "plus_code": {"compound_code": "8VVX+RQ Mexico City", "global_code": "76F28VVX+RQ"}, "rating": 4.7, "reference": "ChIJkwXWOv790YUR49lpd7VZ-vA", "types": ["travel_agency", "point_of_interest", "establishment"], "user_ratings_total": 11}, {"business_status": "OPERATIONAL", "formatted_address": "Ermita Iztapalapa 2955, Amp San Miguel, Iztapalapa, 09360 Ciudad de M\u00e9xico, CDMX", "geometry": {"location": {"lat": 19.3503892, "lng": -99.07173929999999}, "viewport": {"northeast": {"lat": 19.35164197989272, "lng": -99.07043017010727}, "southwest": {"lat": 19.34894232010728, "lng": -99.07312982989272}}}, "icon": "https://maps.gstatic.com/mapfiles/place_api/icons/v1/png_71/generic_business-71.png", "name": "AVC Travel", "opening_hours": {"open_now": false}, "photos": [{"height": 3264, "html_attributions": ["<a href=\"https://maps.google.com/maps/contrib/105875338908793419944\">Edgar Garcia</a>"], "photo_reference": "CmRaAAAA2B8Fn2N_X84-dc7e9iy95Ohpbg13tri5ulXKQfwLpqq5xDOLxcwmswJKSt8P5RDVsf4vkYClyZkLPaBaoCeS5ptJJFeJRInpWqaMz4Y3SXLyp_2q1tgZ_zV4cUyNeUI8EhCAjZ_OFFVuPYzheQFU165vGhT-gRfpnBx5uK0XzUZ3MGSRl4vZPA", "width": 1836}], "place_id": "ChIJUVXl7Y790YURW3On9ZclK5s", "plus_code": {"compound_code": "9W2H+58 Mexico City", "global_code": "76F29W2H+58"}, "rating": 3.9, "reference": "ChIJUVXl7Y790YURW3On9ZclK5s", "types": ["travel_agency", "point_of_interest", "establishment"], "user_ratings_total": 12}, {"business_status": "OPERATIONAL", "formatted_address": "Av. Toltecas 119-A, Sta B\u00e1rbara, Iztapalapa, 09000 Ciudad de M\u00e9xico, CDMX", "geometry": {"location": {"lat": 19.3599463, "lng": -99.1041049}, "viewport": {"northeast": {"lat": 19.36131222989272, "lng": -99.10280157010727}, "southwest": {"lat": 19.35861257010728, "lng": -99.10550122989272}}}, "icon": "https://maps.gstatic.com/mapfiles/place_api/icons/v1/png_71/generic_business-71.png", "name": "EdKa Viajes y Eventos", "opening_hours": {"open_now": false}, "photos": [{"height": 674, "html_attributions": ["<a href=\"https://maps.google.com/maps/contrib/117548060684285232539\">A Google User</a>"], "photo_reference": "CmRaAAAAinjWAU87bz_N5MjKVpJR8_s7vytSqGZ1vMqK3xjyP9MxJeu-CU1rmtkwh6C1ih1_Vd2SMcIERmUYYeZDByCmFMEJeyu8YsM1s9-wZrQ3S_Q8R838kQ10_QVlIIJGoBVKEhAP8DAqvmsEHa_MvFsFzTsDGhQX0MX3o5V1UjosefSHIlSPR4ZybA", "width": 1200}], "place_id": "ChIJzzcDzXr_0YURPH8GLyVs-uw", "plus_code": {"compound_code": "9V5W+X9 Mexico City", "global_code": "76F29V5W+X9"}, "rating": 0, "reference": "ChIJzzcDzXr_0YURPH8GLyVs-uw", "types": ["travel_agency", "point_of_interest", "establishment"], "user_ratings_total": 0}, {"business_status": "OPERATIONAL", "formatted_address": "Calle Toltecas No 115 Local 1 entre 5 de Mayo y, Cobos, Sta B\u00e1rbara, 09000 Ciudad de M\u00e9xico, CDMX", "geometry": {"location": {"lat": 19.3621622, "lng": -99.10331680000002}, "viewport": {"northeast": {"lat": 19.36351247989272, "lng": -99.10196842010728}, "southwest": {"lat": 19.36081282010728, "lng": -99.10466807989272}}}, "icon": "https://maps.gstatic.com/mapfiles/place_api/icons/v1/png_71/generic_business-71.png", "name": "EDKA Viajes y Eventos", "opening_hours": {"open_now": false}, "place_id": "ChIJy_8TzVL_0YURTuTwfhWBg7k", "plus_code": {"compound_code": "9V6W+VM Mexico City", "global_code": "76F29V6W+VM"}, "rating": 0, "reference": "ChIJy_8TzVL_0YURTuTwfhWBg7k", "types": ["travel_agency", "point_of_interest", "establishment"], "user_ratings_total": 0}, {"business_status": "OPERATIONAL", "formatted_address": "Tercer Cerrada De Agustin De Iturbide 15, Culhuacan, Iztapalapa, 09800 Ciudad de M\u00e9xico, CDMX", "geometry": {"location": {"lat": 19.3383639, "lng": -99.10589630000001}, "viewport": {"northeast": {"lat": 19.33972467989273, "lng": -99.10456947010728}, "southwest": {"lat": 19.33702502010728, "lng": -99.10726912989271}}}, "icon": "https://maps.gstatic.com/mapfiles/place_api/icons/v1/png_71/generic_business-71.png", "name": "Trans-Tur-Vela", "place_id": "ChIJ36keZf4BzoURzzbsmbT9fAs", "rating": 0, "reference": "ChIJ36keZf4BzoURzzbsmbT9fAs", "types": ["travel_agency", "point_of_interest", "establishment"], "user_ratings_total": 0}, {"business_status": "OPERATIONAL", "formatted_address": "Secci\u00f3n C M\u00f3dulo I 104 09850 D.F., C. Nautla 3, San Juan Xalpa, Iztapalapa, Ciudad de M\u00e9xico, CDMX", "geometry": {"location": {"lat": 19.3348111, "lng": -99.08613849999999}, "viewport": {"northeast": {"lat": 19.33617167989272, "lng": -99.08484752010727}, "southwest": {"lat": 19.33347202010728, "lng": -99.08754717989272}}}, "icon": "https://maps.gstatic.com/mapfiles/place_api/icons/v1/png_71/generic_business-71.png", "name": "LocoTravels", "opening_hours": {"open_now": false}, "photos": [{"height": 2048, "html_attributions": ["<a href=\"https://maps.google.com/maps/contrib/102202288923579675794\">Francisco Mu\u00f1oz S\u00e1nchez</a>"], "photo_reference": "CmRZAAAAymYv80baIKLDDRa2nKqo_aCJ61VSrmkXHNowvkfeY_bQPxE7QJ0_VreOB-vn6E4es0Zp79idOLk3Tx1gyqFOX7UjOvL0PhHKVWwS9XeS5C9F0mX4Tt7WmZAfdotu5qDfEhCcfDIK22oMJOr-o8PONHrkGhSraFsqV1OVXVuraXmrzUahVI3EfQ", "width": 1530}], "place_id": "ChIJlSl2J1cCzoURAx9IwvgBPrg", "plus_code": {"compound_code": "8WM7+WG Mexico City", "global_code": "76F28WM7+WG"}, "rating": 5, "reference": "ChIJlSl2J1cCzoURAx9IwvgBPrg", "types": ["travel_agency", "point_of_interest", "establishment"], "user_ratings_total": 3}, {"business_status": "OPERATIONAL", "formatted_address": "Avenida Santa Ana, San Francisco Culhuacan, Culhuacan CTM V, Coyoac\u00e1n, 04480 Ciudad de M\u00e9xico, CDMX", "geometry": {"location": {"lat": 19.328509, "lng": -99.113087}, "viewport": {"northeast": {"lat": 19.32989002989272, "lng": -99.11173452010728}, "southwest": {"lat": 19.32719037010728, "lng": -99.11443417989273}}}, "icon": "https://maps.gstatic.com/mapfiles/place_api/icons/v1/png_71/generic_business-71.png", "name": "Viaje Experiencias Travel", "opening_hours": {"open_now": true}, "place_id": "ChIJ8RKGV-UBzoURyFUiV8FcLj0", "plus_code": {"compound_code": "8VHP+CQ Mexico City", "global_code": "76F28VHP+CQ"}, "rating": 0, "reference": "ChIJ8RKGV-UBzoURyFUiV8FcLj0", "types": ["travel_agency", "point_of_interest", "establishment"], "user_ratings_total": 0}, {"business_status": "OPERATIONAL", "formatted_address": "Rodolfo Usigli 1762, Escuadr\u00f3n 201, Iztapalapa, 09060 Ciudad de M\u00e9xico, CDMX", "geometry": {"location": {"lat": 19.3631961, "lng": -99.11214179999999}, "viewport": {"northeast": {"lat": 19.36449767989272, "lng": -99.11079732010727}, "southwest": {"lat": 19.36179802010728, "lng": -99.11349697989272}}}, "icon": "https://maps.gstatic.com/mapfiles/place_api/icons/v1/png_71/generic_business-71.png", "name": "Roal Travel Operadora Mayorista S.A de C.V", "opening_hours": {"open_now": false}, "photos": [{"height": 2322, "html_attributions": ["<a href=\"https://maps.google.com/maps/contrib/117387829697890633267\">A Google User</a>"], "photo_reference": "CmRaAAAAvyLeh8ONqsn-NxAEJapN4QWwGOqv60Q2hTFlN88j7mn9bN5qi62g9z6yMx-UNtynuGikRdpVNZ82uhxWHmb5QVYS2XWpwANuLuYimwcS8e8_veeb3J8cr7PDJmbytOnuEhBMEzIDVCqb9kKxv7XGp9acGhQOCNpdTcb9ekQ_Nmv_cz5zTQe0Mg", "width": 4128}], "place_id": "ChIJwXW_Vw3-0YURM19uB9yKXlQ", "plus_code": {"compound_code": "9V7Q+74 Mexico City", "global_code": "76F29V7Q+74"}, "rating": 4.4, "reference": "ChIJwXW_Vw3-0YURM19uB9yKXlQ", "types": ["travel_agency", "point_of_interest", "establishment"], "user_ratings_total": 11}, {"business_status": "OPERATIONAL", "formatted_address": "Canal R\u00edo Churubusco 1635, \u00c1rea Federal Central de Abastos, Iztapalapa, 09040 Ciudad de M\u00e9xico, CDMX", "geometry": {"location": {"lat": 19.3781957, "lng": -99.0952715}, "viewport": {"northeast": {"lat": 19.37953042989272, "lng": -99.09415817010728}, "southwest": {"lat": 19.37683077010728, "lng": -99.09685782989273}}}, "icon": "https://maps.gstatic.com/mapfiles/place_api/icons/v1/png_71/generic_business-71.png", "name": "BestDay", "opening_hours": {"open_now": true}, "photos": [{"height": 450, "html_attributions": ["<a href=\"https://maps.google.com/maps/contrib/113556690148314891699\">BestDay Plaza Central</a>"], "photo_reference": "CmRaAAAAzd-UMjJ8kH4Mm-Q-HTIwLFT01tG9nQ7UQ6UM0af47vkDDslLxSp7v_NNcjkhQEJZh1oUa8g_zYioN0PyJT7tNYUWAptsHtXz3s7XRCLKqu2ZAUZEZFpvrJUjdggW_AwjEhBHADPSqGCTyx0aPK6tWckKGhSbl6NLOuWAUfjrg-JJ_2FOWUT3wg", "width": 800}], "place_id": "ChIJcaQR_Nn90YURw2sOsT3DD-c", "plus_code": {"compound_code": "9WH3+7V Mexico City", "global_code": "76F29WH3+7V"}, "rating": 3.5, "reference": "ChIJcaQR_Nn90YURw2sOsT3DD-c", "types": ["travel_agency", "point_of_interest", "establishment"], "user_ratings_total": 15}, {"business_status": "OPERATIONAL", "formatted_address": "Zentralia Churubusco AV. RIO CHURUBUSCO Exterior: 1072 Local: LA -36, Cda. 2 Tierra Nueva, Rosita, 09420 Ciudad de M\u00e9xico", "geometry": {"location": {"lat": 19.379068, "lng": -99.10189059999999}, "viewport": {"northeast": {"lat": 19.38040637989272, "lng": -99.10045177010728}, "southwest": {"lat": 19.37770672010728, "lng": -99.10315142989272}}}, "icon": "https://maps.gstatic.com/mapfiles/place_api/icons/v1/png_71/generic_business-71.png", "name": "BestDay Zentralia Churubusco", "opening_hours": {"open_now": true}, "photos": [{"height": 3456, "html_attributions": ["<a href=\"https://maps.google.com/maps/contrib/105143792918166207379\">German Mora</a>"], "photo_reference": "CmRaAAAAlbegGWuUThxQ2ttX_6e7F7R-HvgarNPIYmFd5X9TIzg7eHZZ5fX6i5lTib6O6Id7sUG7UC80tBBd1Pyt_vlW2IJRo7SxNtzhCMiKPlDlxvrL1SWL5f88A9G0Tu5meUcEEhBRnxHTKsl_Jw59dNML5v0FGhTw4awu6lEwuN01snGLnKgor8pCWg", "width": 4608}], "place_id": "ChIJHY2QZHj-0YURHpQEzS7W40o", "plus_code": {"compound_code": "9VHX+J6 Mexico City", "global_code": "76F29VHX+J6"}, "rating": 4, "reference": "ChIJHY2QZHj-0YURHpQEzS7W40o", "types": ["travel_agency", "point_of_interest", "establishment"], "user_ratings_total": 39}, {"business_status": "OPERATIONAL", "formatted_address": "Ampliaci\u00f3n San Miguel, Ermita Iztapalapa 2955, 2da Amp San Miguel, Iztapalapa, 09360 Ciudad de M\u00e9xico, CDMX", "geometry": {"location": {"lat": 19.3503892, "lng": -99.07173929999999}, "viewport": {"northeast": {"lat": 19.35164197989272, "lng": -99.07043017010727}, "southwest": {"lat": 19.34894232010728, "lng": -99.07312982989272}}}, "icon": "https://maps.gstatic.com/mapfiles/place_api/icons/v1/png_71/generic_business-71.png", "name": "Vive tu Fin", "opening_hours": {"open_now": true}, "place_id": "ChIJudc78I790YURbY3m9kQ7iQA", "plus_code": {"compound_code": "9W2H+58 Mexico City", "global_code": "76F29W2H+58"}, "rating": 5, "reference": "ChIJudc78I790YURbY3m9kQ7iQA", "types": ["travel_agency", "point_of_interest", "establishment"], "user_ratings_total": 2}, {"business_status": "OPERATIONAL", "formatted_address": "Margaritas Mz35 Lt19 Local 2, Los Angeles, 09830 Iztapalapa, CDMX", "geometry": {"location": {"lat": 19.3456238, "lng": -99.0684452}, "viewport": {"northeast": {"lat": 19.34698152989272, "lng": -99.06712597010728}, "southwest": {"lat": 19.34428187010728, "lng": -99.06982562989272}}}, "icon": "https://maps.gstatic.com/mapfiles/place_api/icons/v1/png_71/generic_business-71.png", "name": "MGA Travel S.A de C.V", "opening_hours": {"open_now": false}, "place_id": "ChIJ32ImgYj90YURi9RL_B8_k1Q", "plus_code": {"compound_code": "8WWJ+6J Mexico City", "global_code": "76F28WWJ+6J"}, "rating": 4, "reference": "ChIJ32ImgYj90YURi9RL_B8_k1Q", "types": ["travel_agency", "point_of_interest", "establishment"], "user_ratings_total": 1}, {"business_status": "OPERATIONAL", "formatted_address": "Av. Paseo de los Jardines 17, Paseos de Taxque\u00f1a, Coyoac\u00e1n, 04250 Ciudad de M\u00e9xico, CDMX", "geometry": {"location": {"lat": 19.3503043, "lng": -99.1272096}, "viewport": {"northeast": {"lat": 19.35166117989272, "lng": -99.1257609701073}, "southwest": {"lat": 19.34896152010728, "lng": -99.12846062989273}}}, "icon": "https://maps.gstatic.com/mapfiles/place_api/icons/v1/png_71/generic_business-71.png", "name": "Pachbe. Agencia de viajes", "opening_hours": {"open_now": false}, "photos": [{"height": 1073, "html_attributions": ["<a href=\"https://maps.google.com/maps/contrib/101798499838573314373\">Pachbe. Agencia de viajes</a>"], "photo_reference": "CmRaAAAAcw8GRUZWTITMq3YtqJ6nidGQ38oXTxjHRHXEdXmOvNDfQhsbktR_vfEIyPUZ3WMVIgqJ8TWRKCA_pdsinFCdFvN2BYFcJZM0b-z4qk6_21yoY2dv57keffPVy3vuRXkeEhAzdRXM7RnIbS8V8W8f3--1GhTtNn61ugrE01PXBmem1XncDhpmxQ", "width": 2930}], "place_id": "ChIJqco2ggwBzoURMeaW_1ySfXQ", "plus_code": {"compound_code": "9V2F+44 Mexico City", "global_code": "76F29V2F+44"}, "rating": 4.7, "reference": "ChIJqco2ggwBzoURMeaW_1ySfXQ", "types": ["travel_agency", "point_of_interest", "establishment"], "user_ratings_total": 18}, {"business_status": "OPERATIONAL", "formatted_address": "Retorno 509 # 4 - 102, Modelo, Iztapalapa, 09089 Ciudad de M\u00e9xico, CDMX", "geometry": {"location": {"lat": 19.3607601, "lng": -99.12251529999999}, "viewport": {"northeast": {"lat": 19.36214427989272, "lng": -99.12115977010728}, "southwest": {"lat": 19.35944462010728, "lng": -99.12385942989272}}}, "icon": "https://maps.gstatic.com/mapfiles/place_api/icons/v1/png_71/generic_business-71.png", "name": "MUNDO MARAVILLOSO - WONDERFUL WORLD", "opening_hours": {"open_now": false}, "photos": [{"height": 667, "html_attributions": ["<a href=\"https://maps.google.com/maps/contrib/115934878756402660513\">MUNDO MARAVILLOSO - WONDERFUL WORLD</a>"], "photo_reference": "CmRaAAAAY_xyV3IMUSFfvzh6SaEtc3Pwqpl96Amc2RVT1H6Z2ZmIl0tZ196EEIy4Yi5CIfPU_m32khQ44D8s5vzfCQXOE5Vv474hidnOkJjhXEX9zxXRjTnNlxkaj7Er6AkHYR-AEhDAtivdtmPBwtIFwBgI4QN3GhTtq0Va9xxqrJdrSjSINhW-ROYTCQ", "width": 760}], "place_id": "ChIJfWEpcRX-0YURMnQCD-NOe18", "plus_code": {"compound_code": "9V6G+8X Mexico City", "global_code": "76F29V6G+8X"}, "rating": 4, "reference": "ChIJfWEpcRX-0YURMnQCD-NOe18", "types": ["travel_agency", "point_of_interest", "establishment"], "user_ratings_total": 21}]