[{"business_status": "CLOSED_TEMPORARILY", "formatted_address": "Calle 10 203, Leyes de Reforma 1ra Secc, Iztapalapa, Ciudad de M\u00e9xico, CDMX", "geometry": {"location": {"lat": 19.3620616, "lng": -99.07219719999999}, "viewport": {"northeast": {"lat": 19.36347317989272, "lng": -99.07080667010727}, "southwest": {"lat": 19.36077352010728, "lng": -99.07350632989272}}}, "icon": "https://maps.gstatic.com/mapfiles/place_api/icons/v1/png_71/school-71.png", "name": "U.A.M. Iztapalapa.", "permanently_closed": true, "photos": [{"height": 1944, "html_attributions": ["<a href=\"https://maps.google.com/maps/contrib/105925518645932360545\">Juan Jose</a>"], "photo_reference": "CmRaAAAA6S7eGACzarRS2ykiA49Eh7wDb83vSraATUUdajMoI6sONoH-dBBQ-YnLnbSI-mDr-5tlWEgkwLIO9k2JoDzzXpYr78m85JsJDhRkKMSd9dbbj9tbgTurT5cACAvyJAlJEhCTLk-gicdAq3NrbMwKSR8dGhQjpzI0_AgGUXxXbY79-SzWti5WVQ", "width": 2592}], "place_id": "ChIJ2SMojJb90YURWaAJZ0lZTEQ", "plus_code": {"compound_code": "9W6H+R4 Mexico City", "global_code": "76F29W6H+R4"}, "rating": 4.8, "reference": "ChIJ2SMojJb90YURWaAJZ0lZTEQ", "types": ["university", "point_of_interest", "establishment"], "user_ratings_total": 14}, {"business_status": "CLOSED_TEMPORARILY", "formatted_address": "Coordinaci\u00f3n de Recursos Materiales, Av. San Rafael Atlixco No. 186, Colonia Vicentina, Iztapalapa, 09340 Ciudad de M\u00e9xico, CDMX", "geometry": {"location": {"lat": 19.3596327, "lng": -99.07296939999999}, "viewport": {"northeast": {"lat": 19.36107792989272, "lng": -99.07158742010729}, "southwest": {"lat": 19.35837827010728, "lng": -99.07428707989274}}}, "icon": "https://maps.gstatic.com/mapfiles/place_api/icons/v1/png_71/school-71.png", "name": "CRM (Coordinacion de Recursos Materiales Edif Q)", "permanently_closed": true, "place_id": "ChIJGy4GjEX90YUReNMMtvL99J8", "plus_code": {"compound_code": "9W5G+VR Mexico City", "global_code": "76F29W5G+VR"}, "rating": 0, "reference": "ChIJGy4GjEX90YUReNMMtvL99J8", "types": ["university", "point_of_interest", "establishment"], "user_ratings_total": 0}, {"business_status": "OPERATIONAL", "formatted_address": "Eje 8 Sur (Calz. Ermita Iztapalapa) Esquina, Fundici\u00f3n 1693, 8va Amp San Miguel, 09360 Ciudad de M\u00e9xico", "geometry": {"location": {"lat": 19.3525526, "lng": -99.0788027}, "viewport": {"northeast": {"lat": 19.35384107989272, "lng": -99.07732967010728}, "southwest": {"lat": 19.35114142010728, "lng": -99.08002932989272}}}, "icon": "https://maps.gstatic.com/mapfiles/place_api/icons/v1/png_71/school-71.png", "name": "UIN - Universidad Insurgentes", "opening_hours": {"open_now": false}, "photos": [{"height": 3096, "html_attributions": ["<a href=\"https://maps.google.com/maps/contrib/116034620482094143826\">CHINO DELPIERO</a>"], "photo_reference": "CmRaAAAAnzj2hccht_90Drs9N6fJmWu7Qn8KpRoN-n8nIcExssYp-AW4bFtUMVGmZDxBR44TyY9s-fBploSiWYCHgiQPV-mmoB9n3qbzpoCGw_YLgOsEt0sfte8dkuZ0TvUI5Aq3EhBR6mQDX945LO1tNl8RwmMTGhQt-0Sr--oMby_g7c-3TiAurdN_qA", "width": 4128}], "place_id": "ChIJ9XPDSI390YURq4dAmgV9uKk", "plus_code": {"compound_code": "9W3C+2F Mexico City", "global_code": "76F29W3C+2F"}, "rating": 4.4, "reference": "ChIJ9XPDSI390YURq4dAmgV9uKk", "types": ["university", "point_of_interest", "establishment"], "user_ratings_total": 48}, {"business_status": "OPERATIONAL", "formatted_address": "5 de Mayo No.122, San Lucas, Iztapalapa, 09000 Ciudad de M\u00e9xico, CDMX", "geometry": {"location": {"lat": 19.3620152, "lng": -99.0974469}, "viewport": {"northeast": {"lat": 19.36346487989272, "lng": -99.09606547010728}, "southwest": {"lat": 19.36076522010728, "lng": -99.09876512989271}}}, "icon": "https://maps.gstatic.com/mapfiles/place_api/icons/v1/png_71/school-71.png", "name": "Centro Universitario C\u00faspide de M\u00e9xico", "opening_hours": {"open_now": false}, "photos": [{"height": 960, "html_attributions": ["<a href=\"https://maps.google.com/maps/contrib/109288346460595390204\">Fernando Cordero</a>"], "photo_reference": "CmRaAAAAZDB1e853Yku19WvoHFAtQ_rWjhoqdur_-dKrmNh4uywYF6gFk3gb-5MRsIW_teV7fYWcskGB4zItV2g4ZHlYMeeBUJjc_Ju72t-WJmz-faEZfz1Wj2erJwb0OldkLO9UEhAUFR2cWw0pLq9ANbMVqD43GhTOQMRIsiCOONcBYN9sPzem_RjWgA", "width": 1280}], "place_id": "ChIJ6cxwvFv90YURhJZnxX-OMa4", "plus_code": {"compound_code": "9W63+R2 Mexico City", "global_code": "76F29W63+R2"}, "rating": 4.2, "reference": "ChIJ6cxwvFv90YURhJZnxX-OMa4", "types": ["university", "school", "point_of_interest", "establishment"], "user_ratings_total": 6}, {"business_status": "OPERATIONAL", "formatted_address": "San Lorenzo Tezonco 429-A, San Juan Xalpa, 09850 Ciudad de M\u00e9xico, CDMX", "geometry": {"location": {"lat": 19.3331428, "lng": -99.07526419999999}, "viewport": {"northeast": {"lat": 19.33456717989272, "lng": -99.07371387010728}, "southwest": {"lat": 19.33186752010728, "lng": -99.07641352989272}}}, "icon": "https://maps.gstatic.com/mapfiles/place_api/icons/v1/png_71/school-71.png", "name": "EUROPEAN UNIVERSITY CAMPUS IZTAPALAPA", "opening_hours": {"open_now": false}, "place_id": "ChIJzbRiuHMCzoURGdUkfhGiiq0", "plus_code": {"compound_code": "8WMF+7V Mexico City", "global_code": "76F28WMF+7V"}, "rating": 3.9, "reference": "ChIJzbRiuHMCzoURGdUkfhGiiq0", "types": ["university", "point_of_interest", "establishment"], "user_ratings_total": 15}, {"business_status": "CLOSED_TEMPORARILY", "formatted_address": "Av. San Rafael Atlixco 186, Leyes de Reforma 1ra Secc, Iztapalapa, 09340 Ciudad de M\u00e9xico, CDMX", "geometry": {"location": {"lat": 19.3611703, "lng": -99.07357750000001}, "viewport": {"northeast": {"lat": 19.36252012989272, "lng": -99.0722276701073}, "southwest": {"lat": 19.35982047010728, "lng": -99.07492732989274}}}, "icon": "https://maps.gstatic.com/mapfiles/place_api/icons/v1/png_71/school-71.png", "name": "Posgrado en Estudios Sociales (Procesos Pol\u00edticos) UAM-I", "permanently_closed": true, "place_id": "ChIJeflaQ5X90YUR3BHKv-VArB0", "plus_code": {"compound_code": "9W6G+FH Mexico City", "global_code": "76F29W6G+FH"}, "rating": 5, "reference": "ChIJeflaQ5X90YUR3BHKv-VArB0", "types": ["university", "point_of_interest", "establishment"], "user_ratings_total": 2}, {"business_status": "OPERATIONAL", "formatted_address": "Prol. San Isidro 151, San Lorenzo Tezonco, Iztapalapa, 09790 Ciudad de M\u00e9xico, CDMX", "geometry": {"location": {"lat": 19.3131119, "lng": -99.0581023}, "viewport": {"northeast": {"lat": 19.31450992989272, "lng": -99.05662177010728}, "southwest": {"lat": 19.31181027010728, "lng": -99.05932142989272}}}, "icon": "https://maps.gstatic.com/mapfiles/place_api/icons/v1/png_71/school-71.png", "name": "UACM San Lorenzo Tezonco", "photos": [{"height": 1920, "html_attributions": ["<a href=\"https://maps.google.com/maps/contrib/110393573240307179124\">Laura Benaduci</a>"], "photo_reference": "CmRaAAAAFBVvwcBv8yZDLlleG-t6gCOoMv6RfZHH-abET9GL6z8VeHWKwaFVwsA6g8OSgtbqCO4MxEdWhjnvmixvN3flWkgN5wDKOSVQim5btJdu5iTdefYZkHFrfh-9r2dQ8wohEhCDoPaOtpnOAZ_rlxOA3lu3GhQDF75sGBO8U7mO0I7psGCZ4oLVfA", "width": 2560}], "place_id": "ChIJN9gZ-V4CzoUR42SQ9mWndok", "plus_code": {"compound_code": "8W7R+6Q Mexico City", "global_code": "76F28W7R+6Q"}, "rating": 4.5, "reference": "ChIJN9gZ-V4CzoUR42SQ9mWndok", "types": ["university", "point_of_interest", "establishment"], "user_ratings_total": 212}, {"business_status": "CLOSED_TEMPORARILY", "formatted_address": "Coapa, Ex-Ejido de San Pablo Tepetlapa, Coyoac\u00e1n, 04800 Mexico City", "geometry": {"location": {"lat": 19.3200099, "lng": -99.1156415}, "viewport": {"northeast": {"lat": 19.32144502989272, "lng": -99.11430462010729}, "southwest": {"lat": 19.31874537010728, "lng": -99.11700427989274}}}, "icon": "https://maps.gstatic.com/mapfiles/place_api/icons/v1/png_71/school-71.png", "name": "Centro De Estudios Navales En Ciencias De La Salud", "permanently_closed": true, "photos": [{"height": 3120, "html_attributions": ["<a href=\"https://maps.google.com/maps/contrib/100596126158359879080\">ALEJANDRO PE\u00d1A</a>"], "photo_reference": "CmRaAAAA_XeszBYVMAYXoeIydd6rog1C-1BZy0AzaR94vHhI4IQkwT6tZm10STa0aJQnC__YjyCyJp7dwmjuVUHEZM08K7Yr_0KcE5i519kxoIkmUkVoLnVAoMwCVE1t5Wv3-VoDEhAKBstLl1fMGpOZ5kF9GZ5xGhSpv_8gTwkUbQIjwFlDpyZ1sf6ZmQ", "width": 4160}], "place_id": "ChIJk3mGpD0BzoUR-s380j2KAWI", "plus_code": {"compound_code": "8VCM+2P Mexico City", "global_code": "76F28VCM+2P"}, "rating": 5, "reference": "ChIJk3mGpD0BzoUR-s380j2KAWI", "types": ["university", "point_of_interest", "establishment"], "user_ratings_total": 4}, {"business_status": "CLOSED_TEMPORARILY", "formatted_address": "Canal de Miramontes 2053, Coapa, Girasoles III, Coyoac\u00e1n, 04920 Ciudad de M\u00e9xico, CDMX", "geometry": {"location": {"lat": 19.3099339, "lng": -99.12457889999999}, "viewport": {"northeast": {"lat": 19.31126587989272, "lng": -99.12300842010728}, "southwest": {"lat": 19.30856622010728, "lng": -99.12570807989273}}}, "icon": "https://maps.gstatic.com/mapfiles/place_api/icons/v1/png_71/school-71.png", "name": "Universidad Latinoamericana Coapa", "permanently_closed": true, "photos": [{"height": 338, "html_attributions": ["<a href=\"https://maps.google.com/maps/contrib/107936424241480397494\">Universidad Latinoamericana</a>"], "photo_reference": "CmRaAAAAQUAnVTBKU-U_2oZ5qdVfMYLB2MJeEjvAibdVVnaH8v0JEXs8Ju1PGPvO_xTq2GNxBPoPS_X6OXFYeDA4LH8oTL7qL2ysxx4_NUU41OX2SSGV8lGciVyH5g-5QgMcaPDbEhCZi5baLoZImXBYq9dAajYCGhT4Thwdg5SjONLS-AB-Z4X4YBwa9g", "width": 600}], "place_id": "ChIJz1s17r0BzoURgrXEOlG805k", "plus_code": {"compound_code": "8V5G+X5 Mexico City", "global_code": "76F28V5G+X5"}, "rating": 4.2, "reference": "ChIJz1s17r0BzoURgrXEOlG805k", "types": ["university", "point_of_interest", "establishment"], "user_ratings_total": 6}, {"business_status": "CLOSED_TEMPORARILY", "formatted_address": "Taxque\u00f1a, Coyoac\u00e1n, 04280 Mexico City", "geometry": {"location": {"lat": 19.3391475, "lng": -99.1252153}, "viewport": {"northeast": {"lat": 19.34044382989272, "lng": -99.12364567010728}, "southwest": {"lat": 19.33774417010728, "lng": -99.12634532989271}}}, "icon": "https://maps.gstatic.com/mapfiles/place_api/icons/v1/png_71/school-71.png", "name": "Instituto de Comunicacion y Filosofia A.C.", "permanently_closed": true, "photos": [{"height": 1920, "html_attributions": ["<a href=\"https://maps.google.com/maps/contrib/106886942707954502497\">Manuel Ayala Lozano</a>"], "photo_reference": "CmRaAAAA8yCop8V2MQrESDjVIGZcC4Wh0RzCKu4K1k2plOXnwlpcbhqutZYgm_cHTmbqeouG-DpIN6YnelHKJrB9hYq4fpy96O9iK2j4GD3N6U56CHlcqhvGbbrCe4bm9pS8biE0EhAc00nLlHywUrSnRYtMme0XGhRAVnnRQeFhwhZkkp_84BR88ODDFA", "width": 1080}], "place_id": "ChIJPf1Rl98BzoURf8Nds-L1HN0", "plus_code": {"compound_code": "8VQF+MW Mexico City", "global_code": "76F28VQF+MW"}, "rating": 4.4, "reference": "ChIJPf1Rl98BzoURf8Nds-L1HN0", "types": ["university", "point_of_interest", "establishment"], "user_ratings_total": 5}, {"business_status": "OPERATIONAL", "formatted_address": "Ermita Iztapalapa 557, Granjas Esmeralda, Iztapalapa, 09810 Ciudad de M\u00e9xico, CDMX", "geometry": {"location": {"lat": 19.3571714, "lng": -99.11759350000001}, "viewport": {"northeast": {"lat": 19.3581384, "lng": -99.11596795}, "southwest": {"lat": 19.354746, "lng": -99.11986495}}}, "icon": "https://maps.gstatic.com/mapfiles/place_api/icons/v1/png_71/school-71.png", "name": "UNITEC Sur - Universidad Tecnol\u00f3gica de M\u00e9xico", "opening_hours": {"open_now": false}, "photos": [{"height": 525, "html_attributions": ["<a href=\"https://maps.google.com/maps/contrib/114567017953357112577\">UNITEC Sur</a>"], "photo_reference": "CmRaAAAAt6L0NJrVnwJxftRIhlngshuw8ak_qLJInB8CK1Qsv1NYye5_LdIr07fDaIGE-ZaflITCxVc8wtQmhOgX7lMijuBCZzJKbaa19N4AM_kJ8KcM9VDvlFPdJu0dhEVk3FIvEhC984gOiq3uzCFtx-VbsrZpGhSW5YkzCtBGYygp2ook6SkKUbjrGw", "width": 787}], "place_id": "ChIJtQB_rhb-0YURbqSWVyVLFSY", "plus_code": {"compound_code": "9V4J+VX Mexico City", "global_code": "76F29V4J+VX"}, "rating": 4.2, "reference": "ChIJtQB_rhb-0YURbqSWVyVLFSY", "types": ["university", "school", "point_of_interest", "establishment"], "user_ratings_total": 540}, {"business_status": "CLOSED_TEMPORARILY", "formatted_address": "Av Cuatro, \u00c1rea Federal Pante\u00f3n San Lorenzo Tezonco, Iztapalapa, Ciudad de M\u00e9xico, CDMX", "geometry": {"location": {"lat": 19.3142597, "lng": -99.0590292}, "viewport": {"northeast": {"lat": 19.31560267989272, "lng": -99.05766812010727}, "southwest": {"lat": 19.31290302010728, "lng": -99.06036777989272}}}, "icon": "https://maps.gstatic.com/mapfiles/place_api/icons/v1/png_71/school-71.png", "name": "UACM San Lorenzo Tezonco (main entrance)", "permanently_closed": true, "photos": [{"height": 1080, "html_attributions": ["<a href=\"https://maps.google.com/maps/contrib/112166781100091361386\">aaron carre\u00f1o</a>"], "photo_reference": "CmRaAAAACWA9PefN_S1ZOXV1ET_3Kn6nFrNp3AlM8PxMNkFd6_OlacjxB3W4EEnd_mh2sF2hN4-TOo8XepN98umZS0R8u4prUpbmpJPF2qYAI75p_ocmslfNb_OJjCtFDeYoYOU8EhA_hTGaqY8mDyEM9syufWoJGhQ70oTup7KCFp--SUVhD_4MBDIOWQ", "width": 1920}], "place_id": "ChIJJU73Ol8CzoUR3EU8Y0ZpvLw", "plus_code": {"compound_code": "8W7R+P9 Mexico City", "global_code": "76F28W7R+P9"}, "rating": 4.7, "reference": "ChIJJU73Ol8CzoUR3EU8Y0ZpvLw", "types": ["university", "point_of_interest", "establishment"], "user_ratings_total": 15}, {"business_status": "OPERATIONAL", "formatted_address": "Av. San Rafael Atlixco 186, Leyes de Reforma 1ra Secc, Iztapalapa, 09340 Ciudad de M\u00e9xico, CDMX", "geometry": {"location": {"lat": 19.3623565, "lng": -99.0728515}, "viewport": {"northeast": {"lat": 19.3662263, "lng": -99.07204404999999}, "southwest": {"lat": 19.3582735, "lng": -99.07527385000002}}}, "icon": "https://maps.gstatic.com/mapfiles/place_api/icons/v1/png_71/school-71.png", "name": "Universidad Aut\u00f3noma Metropolitana Unidad Iztapalapa", "photos": [{"height": 960, "html_attributions": ["<a href=\"https://maps.google.com/maps/contrib/110607437299286801331\">Juan Albino</a>"], "photo_reference": "CmRaAAAAouoZlqNtzFMRzwoXA94DtUIYDp8WMq5ggKot5d0fTWypjjBy1-2ag0SlJCIg7doLBBx1aHH3t-ye9Z5povHfZRq_TQUt5SXMAu7XjPKhysrMom3qewnyWOnYEuZsJjTJEhCxAZ2cDE6vbEWdcQq9WsWDGhTcWaZs1twox_Zb0LSM78Sr5Nivfw", "width": 1304}], "place_id": "ChIJEzemmpb90YUR9P2PFQl39lA", "plus_code": {"compound_code": "9W6G+WV Mexico City", "global_code": "76F29W6G+WV"}, "rating": 4.7, "reference": "ChIJEzemmpb90YUR9P2PFQl39lA", "types": ["university", "point_of_interest", "establishment"], "user_ratings_total": 610}, {"business_status": "CLOSED_TEMPORARILY", "formatted_address": "Calz de la Virgen 1800, Coapa, Ex-Ejido de San Pablo Tepetlapa, Coyoac\u00e1n, 04800 Ciudad de M\u00e9xico, CDMX", "geometry": {"location": {"lat": 19.3188482, "lng": -99.1175099}, "viewport": {"northeast": {"lat": 19.32072112989272, "lng": -99.11619992010728}, "southwest": {"lat": 19.31802147010728, "lng": -99.11889957989273}}}, "icon": "https://maps.gstatic.com/mapfiles/place_api/icons/v1/png_71/school-71.png", "name": "Universidad naval", "permanently_closed": true, "place_id": "ChIJU3HrhGsBzoURuNm9Qmb_6Ts", "plus_code": {"compound_code": "8V9J+GX Mexico City", "global_code": "76F28V9J+GX"}, "rating": 0, "reference": "ChIJU3HrhGsBzoURuNm9Qmb_6Ts", "types": ["university", "point_of_interest", "establishment"], "user_ratings_total": 0}, {"business_status": "CLOSED_TEMPORARILY", "formatted_address": "Sur 16 581, Agr\u00edcola Oriental, Iztacalco, 08500 Ciudad de M\u00e9xico, CDMX", "geometry": {"location": {"lat": 19.3925838, "lng": -99.0622169}, "viewport": {"northeast": {"lat": 19.39402217989272, "lng": -99.06084957010728}, "southwest": {"lat": 19.39132252010728, "lng": -99.06354922989273}}}, "icon": "https://maps.gstatic.com/mapfiles/place_api/icons/v1/png_71/school-71.png", "name": "Universidad Latinoamericana Suroriente", "permanently_closed": true, "photos": [{"height": 689, "html_attributions": ["<a href=\"https://maps.google.com/maps/contrib/117394177517892655461\">Universidad Latinoamericana</a>"], "photo_reference": "CmRaAAAAn-cOYCXpfApShGsCLenj_7rM5CJvgPMMh22N_Ka0JdBYqlASpLhDAyfw6RHStBD-hYI193CIkx-dSu6kMPjuQu-ME1vt4L4ZGM24e3GXSFsGIwtXPdZdvRWLFpHYurTyEhD9mU1UqCpZ5suQj72Cnn2DGhS4TfDv8ASDHO0vfodO-DQjUYkudQ", "width": 906}], "place_id": "ChIJlWcvgVT80YURpylO_F388Vs", "plus_code": {"compound_code": "9WVQ+24 Mexico City", "global_code": "76F29WVQ+24"}, "rating": 4.1, "reference": "ChIJlWcvgVT80YURpylO_F388Vs", "types": ["university", "point_of_interest", "establishment"], "user_ratings_total": 13}, {"business_status": "CLOSED_TEMPORARILY", "formatted_address": "Granjas M\u00e9xico, Iztacalco, 08400 Mexico City", "geometry": {"location": {"lat": 19.3969515, "lng": -99.09334869999999}, "viewport": {"northeast": {"lat": 19.39842332989272, "lng": -99.09197927010727}, "southwest": {"lat": 19.39572367010728, "lng": -99.09467892989272}}}, "icon": "https://maps.gstatic.com/mapfiles/place_api/icons/v1/png_71/school-71.png", "name": "Edificio De Ciencias Sociales Upiicsa", "permanently_closed": true, "place_id": "ChIJxRZj_i780YURzVJtiZQaTBA", "plus_code": {"compound_code": "9WW4+QM Mexico City", "global_code": "76F29WW4+QM"}, "rating": 0, "reference": "ChIJxRZj_i780YURzVJtiZQaTBA", "types": ["university", "point_of_interest", "establishment"], "user_ratings_total": 0}, {"business_status": "OPERATIONAL", "formatted_address": "Ermita Iztapalapa 1907, Los \u00c1ngeles, Iztapalapa, 09710 Ciudad de M\u00e9xico, CDMX", "geometry": {"location": {"lat": 19.3493232, "lng": -99.0717391}, "viewport": {"northeast": {"lat": 19.35074052989273, "lng": -99.07035457010728}, "southwest": {"lat": 19.34804087010728, "lng": -99.07305422989273}}}, "icon": "https://maps.gstatic.com/mapfiles/place_api/icons/v1/png_71/school-71.png", "name": "ICEL University - Campus Ermita", "photos": [{"height": 1365, "html_attributions": ["<a href=\"https://maps.google.com/maps/contrib/114132864236747530249\">Universidad ICEL - Campus Ermita</a>"], "photo_reference": "CmRaAAAArZkD5BEb1pad_yTsPgUPQqKJq2MbmKGYfv-LG94Q95DuG3lXoD884uRNtHtCnbNMB7WtFV-cRnzw9IWfU1uJlrNGvscqigSWC5L04j9gdmefkAdFPsn7JdGO2tQ33tZdEhBh9zJQxnvRO2yWv5eiojWBGhQEIAV_A8DC_nrUG-LaxlLXVgJQog", "width": 2048}], "place_id": "ChIJ9U_ApY390YURQEJ_SBcR69w", "plus_code": {"compound_code": "8WXH+P8 Mexico City", "global_code": "76F28WXH+P8"}, "rating": 3.4, "reference": "ChIJ9U_ApY390YURQEJ_SBcR69w", "types": ["university", "point_of_interest", "establishment"], "user_ratings_total": 75}, {"business_status": "OPERATIONAL", "formatted_address": "Calle Miguel Laurent 719, Col del Valle Sur, Benito Ju\u00e1rez, 03104 Ciudad de M\u00e9xico, CDMX", "geometry": {"location": {"lat": 19.3464253, "lng": -99.05547729999999}, "viewport": {"northeast": {"lat": 19.34778382989272, "lng": -99.05416942010729}, "southwest": {"lat": 19.34508417010728, "lng": -99.05686907989273}}}, "icon": "https://maps.gstatic.com/mapfiles/place_api/icons/v1/png_71/school-71.png", "name": "Universidad Del Desarrollo Empresarial y Pedag\u00f3gico", "place_id": "ChIJQa4d7jn90YURnwKw42wJgDM", "plus_code": {"compound_code": "8WWV+HR Col del Valle Sur, Mexico City", "global_code": "76F28WWV+HR"}, "rating": 0, "reference": "ChIJQa4d7jn90YURnwKw42wJgDM", "types": ["university", "point_of_interest", "establishment"], "user_ratings_total": 0}, {"business_status": "OPERATIONAL", "formatted_address": "Ermita Iztapalapa 1729, El Manto, Iztapalapa, 09830 Ciudad de M\u00e9xico, CDMX", "geometry": {"location": {"lat": 19.3518818, "lng": -99.07773270000001}, "viewport": {"northeast": {"lat": 19.35335902989272, "lng": -99.07631617010728}, "southwest": {"lat": 19.35065937010727, "lng": -99.07901582989273}}}, "icon": "https://maps.gstatic.com/mapfiles/place_api/icons/v1/png_71/school-71.png", "name": "Universidad Tres Culturas | Iztapalapa | UTC", "opening_hours": {"open_now": false}, "photos": [{"height": 2280, "html_attributions": ["<a href=\"https://maps.google.com/maps/contrib/108337788461192725618\">A Google User</a>"], "photo_reference": "CmRaAAAAWcm5FsO9w3vmoVoM9yySPY0Q-0Sqy0rxunqBNgokuQVRhdbqpP_Rk6TpYjnK5CHkIqfWg51o2e-9Lc7N2dj_V4__0kqqRxC42ZcP5LYABAS2KdEB_dtO7quNSkVbR8aIEhCdrJL0PRsiDqylQkJLyJrdGhSRdlNow0tVxQIIQLKzxKb1tABJRw", "width": 4056}], "place_id": "ChIJW5S6Fdn90YURWVklPDK4qMc", "plus_code": {"compound_code": "9W2C+QW Mexico City", "global_code": "76F29W2C+QW"}, "rating": 4.4, "reference": "ChIJW5S6Fdn90YURWVklPDK4qMc", "types": ["university", "point_of_interest", "establishment"], "user_ratings_total": 8}, {"business_status": "CLOSED_TEMPORARILY", "formatted_address": "Orinoco 26, Carmen, Benito Ju\u00e1rez, 03540 Ciudad de M\u00e9xico, CDMX", "geometry": {"location": {"lat": 19.3750593, "lng": -99.13934569999999}, "viewport": {"northeast": {"lat": 19.37643977989273, "lng": -99.13815902010728}, "southwest": {"lat": 19.37374012010728, "lng": -99.14085867989272}}}, "icon": "https://maps.gstatic.com/mapfiles/place_api/icons/v1/png_71/school-71.png", "name": "Centro Universitario Emmanuel Kant", "permanently_closed": true, "photos": [{"height": 384, "html_attributions": ["<a href=\"https://maps.google.com/maps/contrib/102029252920364306352\">A Google User</a>"], "photo_reference": "CmRaAAAAPjsKNaRWG5JMu5XGjXLCvsFiYvYzI1X0Sa_6cXX2FDoea-pvEOsX2s42e9gvzTJaL8EE7P4ED5pc-NDJloleuKrbVRS6Fi-wltDVRh-B5roCIQYhrstCunHjAWhNwKLKEhDmnUWIQ6F1F2dUZeztx55RGhSyTelFXeU-Y_vB-PalUDwYdZye_g", "width": 750}], "place_id": "ChIJ_____7D_0YURfvwWJSJ1YLU", "plus_code": {"compound_code": "9VG6+27 Mexico City", "global_code": "76F29VG6+27"}, "rating": 4.9, "reference": "ChIJ_____7D_0YURfvwWJSJ1YLU", "types": ["university", "point_of_interest", "establishment"], "user_ratings_total": 55}]