[{"business_status": "OPERATIONAL", "formatted_address": "Av. H. Escuela Naval Militar S/N, Coapa, Ex-Ejido de San Pablo Tepetlapa, Coyoac\u00e1n, 04900 Coyoac\u00e1n, CDMX", "geometry": {"location": {"lat": 19.319074, "lng": -99.1217271}, "viewport": {"northeast": {"lat": 19.32103502989272, "lng": -99.11662215000001}, "southwest": {"lat": 19.31833537010728, "lng": -99.12713075}}}, "icon": "https://maps.gstatic.com/mapfiles/place_api/icons/v1/png_71/generic_business-71.png", "name": "Zool\u00f3gico Los Coyotes", "opening_hours": {"open_now": false}, "photos": [{"height": 1836, "html_attributions": ["<a href=\"https://maps.google.com/maps/contrib/102048273155234033318\">A Google User</a>"], "photo_reference": "CmRaAAAAufyZ15-9D2zt8qvpm5XRjsCvlmccSB05Tf8m6SD4MzTDj2ffrDhdR9Di1s0U5WdDQTWJs0lwECfI1wk-IPoyTJ6PsvxTuqBHOQol84kzw4aNevpr2KVG7APZaamISsyXEhA1Xq6cOKSZsSbQ6FemXO_1GhRFVfSfxw1d0E9kexFA3WjjoUEecg", "width": 3264}], "place_id": "ChIJQ8Am9uoBzoURbb9JdFtzXxc", "plus_code": {"compound_code": "8V9H+J8 Ex-Ejido de San Pablo Tepetlapa, Mexico City", "global_code": "76F28V9H+J8"}, "rating": 4.4, "reference": "ChIJQ8Am9uoBzoURbb9JdFtzXxc", "types": ["zoo", "tourist_attraction", "point_of_interest", "establishment"], "user_ratings_total": 13469}, {"business_status": "CLOSED_TEMPORARILY", "formatted_address": "Calz. Chivatito s/n, Bosque de Chapultepec I Secc, Miguel Hidalgo, 11850 Cdad. de Mexico, CDMX", "geometry": {"location": {"lat": 19.4232085, "lng": -99.1895256}, "viewport": {"northeast": {"lat": 19.42612119999999, "lng": -99.18616260000002}, "southwest": {"lat": 19.4218352, "lng": -99.19064659999998}}}, "icon": "https://maps.gstatic.com/mapfiles/place_api/icons/v1/png_71/generic_business-71.png", "name": "Zool\u00f3gico de Chapultepec", "permanently_closed": true, "photos": [{"height": 2160, "html_attributions": ["<a href=\"https://maps.google.com/maps/contrib/112013207076081565433\">Josue Mendoza</a>"], "photo_reference": "CmRaAAAANtwg9EICYTITRGGWL37tRN60BIDgrHNjzIsmzx3XPs0f2u9TJkGG9HdtkN2NPbanfB1EVbV8IVo5-DLN6nw8-Q0U1BwaIVkyr_SSGwjkBNnDXgxpSNfEwcNqi5dW00OgEhChSoiJqYDDZQuBl2MPZBbbGhQTFmB2np_Qk_f04VdJ9Q8GD_CCxQ", "width": 3840}], "place_id": "ChIJwXColAIC0oURBKBWFzsqhkI", "plus_code": {"compound_code": "CRF6+75 Cdad. de Mexico, Mexico City", "global_code": "76F2CRF6+75"}, "rating": 4.1, "reference": "ChIJwXColAIC0oURBKBWFzsqhkI", "types": ["zoo", "tourist_attraction", "point_of_interest", "establishment"], "user_ratings_total": 46009}, {"business_status": "CLOSED_TEMPORARILY", "formatted_address": "Av. Jos\u00e9 Loreto Fabela S/N, Pueblo de San Juan de Arag\u00f3n, Gustavo A. Madero, 07969 Ciudad de M\u00e9xico, CDMX", "geometry": {"location": {"lat": 19.4611421, "lng": -99.0811449}, "viewport": {"northeast": {"lat": 19.46234657989272, "lng": -99.07975132010728}, "southwest": {"lat": 19.45964692010728, "lng": -99.08245097989273}}}, "icon": "https://maps.gstatic.com/mapfiles/place_api/icons/v1/png_71/generic_business-71.png", "name": "Zoo San Juan De Aragon", "permanently_closed": true, "photos": [{"height": 3024, "html_attributions": ["<a href=\"https://maps.google.com/maps/contrib/115935929928578684667\">Ang\u00e9lica Guevara Gonz\u00e1lez</a>"], "photo_reference": "CmRaAAAAMahJ4KWKrHOFGWS8AluwyRJFeeoqs5yy8GkGE0cJ1sQYoPH-HIv7tG3tXRrUKNSOj-tCVLbdPBp1UJ17T5doXZ-ID9PqU4TYtuie-3trLXYepFObe1jqjOR3G7l-z2mtEhCkoWH4XRdGM4HMWNk83cBlGhTDDu6uDuyt4ljsUJjz2z6eX8Nx6A", "width": 4032}], "place_id": "ChIJG_ytk8H70YUR_gOGciXfVZQ", "plus_code": {"compound_code": "FW69+FG San Juan de Arag\u00f3n, Mexico City", "global_code": "76F2FW69+FG"}, "rating": 4.1, "reference": "ChIJG_ytk8H70YUR_gOGciXfVZQ", "types": ["zoo", "tourist_attraction", "point_of_interest", "establishment"], "user_ratings_total": 12680}, {"business_status": "OPERATIONAL", "formatted_address": "Calle Glorieta de Colon 391, Villada, 57710 Nezahualc\u00f3yotl, M\u00e9x.", "geometry": {"location": {"lat": 19.3942584, "lng": -99.0053734}, "viewport": {"northeast": {"lat": 19.3974249, "lng": -99.00073669999999}, "southwest": {"lat": 19.3915841, "lng": -99.0094483}}}, "icon": "https://maps.gstatic.com/mapfiles/place_api/icons/v1/png_71/generic_business-71.png", "name": "Parque Del Pueblo Zoologico", "opening_hours": {"open_now": false}, "photos": [{"height": 4160, "html_attributions": ["<a href=\"https://maps.google.com/maps/contrib/111150993519554997392\">Julio Cesar Perez</a>"], "photo_reference": "CmRaAAAAcU3-D9SSG4h6zh2s6qf3VSSE5hMcaqXkVDkPH33htkoP8FpNJwh9qyHm_oGkkroMua-exwBMDWKEUhtRyloyKIKh7FMUJvYG6x0VS-EghF64iaXXpHJMb6IrMPNZD7dAEhBxPDjyULXZOBq684PrS8xrGhRn17CiR0zchofoKoaD5KC-G4MUfQ", "width": 2340}], "place_id": "ChIJVe15uynj0YURsfqpINLIGw4", "plus_code": {"compound_code": "9XVV+PV Ciudad Nezahualc\u00f3yotl, State of Mexico", "global_code": "76F29XVV+PV"}, "rating": 4.2, "reference": "ChIJVe15uynj0YURsfqpINLIGw4", "types": ["zoo", "tourist_attraction", "point_of_interest", "establishment"], "user_ratings_total": 12130}, {"business_status": "OPERATIONAL", "formatted_address": "Av. Adolfo L\u00f3pez Mateos 57, Metropolitana 2da Secc, 57740 Nezahualc\u00f3yotl, M\u00e9x.", "geometry": {"location": {"lat": 19.3919572, "lng": -99.03311939999999}, "viewport": {"northeast": {"lat": 19.39335492989272, "lng": -99.03186102010729}, "southwest": {"lat": 19.39065527010728, "lng": -99.03456067989273}}}, "icon": "https://maps.gstatic.com/mapfiles/place_api/icons/v1/png_71/generic_business-71.png", "name": "Zool\u00f3gico p3 (gorilas)", "place_id": "ChIJxbpX7B_90YURuknKol1-QgY", "plus_code": {"compound_code": "9XR8+QQ Ciudad Nezahualc\u00f3yotl, State of Mexico", "global_code": "76F29XR8+QQ"}, "rating": 5, "reference": "ChIJxbpX7B_90YURuknKol1-QgY", "types": ["zoo", "point_of_interest", "establishment"], "user_ratings_total": 1}, {"business_status": "CLOSED_TEMPORARILY", "formatted_address": "Bosque de Chapultepec, Av Acuario S/N, I, Miguel Hidalgo, 11580 Ciudad de M\u00e9xico, CDMX", "geometry": {"location": {"lat": 19.4230677, "lng": -99.1881155}, "viewport": {"northeast": {"lat": 19.42457697989272, "lng": -99.18658727010727}, "southwest": {"lat": 19.42187732010728, "lng": -99.18928692989272}}}, "icon": "https://maps.gstatic.com/mapfiles/place_api/icons/v1/png_71/generic_business-71.png", "name": "Tras las Huellas del Jaguar", "permanently_closed": true, "photos": [{"height": 2448, "html_attributions": ["<a href=\"https://maps.google.com/maps/contrib/112540408765720662603\">Gerardo L\u00f3pez</a>"], "photo_reference": "CmRaAAAAg5X1jotRyy8YxPSINNOJiT57O5CXY9-jD4K8p_81r0BmGHtzrZs9irML2c0UsoW3N482yy6iFHe5cXQWLNz4SoYNV6imfBGhuZSZyTT-rro_bQXyjdmYXJR114OrWYY-EhDrmxZ6HmPWa8Zce4GUAEifGhT5VhoMBS7Uh676xvs9RSsk1eWdQQ", "width": 3106}], "place_id": "ChIJ7ZfOQ1b_0YUR-kuqiQE8IPw", "plus_code": {"compound_code": "CRF6+6Q Mexico City", "global_code": "76F2CRF6+6Q"}, "rating": 3.6, "reference": "ChIJ7ZfOQ1b_0YUR-kuqiQE8IPw", "types": ["zoo", "point_of_interest", "establishment"], "user_ratings_total": 7}, {"business_status": "OPERATIONAL", "formatted_address": "Bosque de Chapultepec I Secc, Miguel Hidalgo, 11100 Mexico City, CDMX", "geometry": {"location": {"lat": 19.4227007, "lng": -99.18869219999999}, "viewport": {"northeast": {"lat": 19.42405502989272, "lng": -99.18736347010729}, "southwest": {"lat": 19.42135537010728, "lng": -99.19006312989274}}}, "icon": "https://maps.gstatic.com/mapfiles/place_api/icons/v1/png_71/generic_business-71.png", "name": "Mariposario Del Zoologico De Chapultepec", "opening_hours": {"open_now": false}, "photos": [{"height": 1908, "html_attributions": ["<a href=\"https://maps.google.com/maps/contrib/117469708008647641515\">Giocatore Z Gio</a>"], "photo_reference": "CmRaAAAAWNEp1bLtGn_rt32PAD-clfcxDdw8TeSKpzTP4ZIYvWLn9CGtusvCsZzN4nWBUUUYNusL-DrL7RynbEkgxklG7yvb1FkEsqPGE8kebeECeiYh3Yq50CpCuI1GGat-4KBiEhC9rVAdHHH8wvlIrUAUSJ2HGhTXdo6tMDN-N0cCzHVZJ5Oo9qRbTw", "width": 4032}], "place_id": "ChIJoeb_OFb_0YURYTQP7Mdi23E", "plus_code": {"compound_code": "CRF6+3G Mexico City", "global_code": "76F2CRF6+3G"}, "rating": 4.6, "reference": "ChIJoeb_OFb_0YURYTQP7Mdi23E", "types": ["zoo", "point_of_interest", "establishment"], "user_ratings_total": 308}, {"business_status": "CLOSED_TEMPORARILY", "formatted_address": "Polanco, Polanco V Secc, Miguel Hidalgo, 11560 Mexico City", "geometry": {"location": {"lat": 19.428229, "lng": -99.1889748}, "viewport": {"northeast": {"lat": 19.42952507989272, "lng": -99.18775127010727}, "southwest": {"lat": 19.42682542010728, "lng": -99.19045092989272}}}, "icon": "https://maps.gstatic.com/mapfiles/place_api/icons/v1/png_71/generic_business-71.png", "name": "ESTACIONAMIENTO ZOOLOGICO", "permanently_closed": true, "place_id": "ChIJ2bM5lCH_0YURXLR1pzTMcOQ", "plus_code": {"compound_code": "CRH6+7C Mexico City", "global_code": "76F2CRH6+7C"}, "rating": 5, "reference": "ChIJ2bM5lCH_0YURXLR1pzTMcOQ", "types": ["zoo", "point_of_interest", "establishment"], "user_ratings_total": 1}, {"business_status": "OPERATIONAL", "formatted_address": "Zool\u00f3gico de Chapultepec, Calz. Chivatito, Bosque de Chapultepec I Secc, Miguel Hidalgo, 11100 Ciudad de M\u00e9xico, CDMX", "geometry": {"location": {"lat": 19.4223648, "lng": -99.1918675}, "viewport": {"northeast": {"lat": 19.42378027989272, "lng": -99.19048002010729}, "southwest": {"lat": 19.42108062010728, "lng": -99.19317967989274}}}, "icon": "https://maps.gstatic.com/mapfiles/place_api/icons/v1/png_71/generic_business-71.png", "name": "Aviario Moctezuma", "opening_hours": {"open_now": false}, "photos": [{"height": 1456, "html_attributions": ["<a href=\"https://maps.google.com/maps/contrib/112525120131106838193\">JAIME DIAZ</a>"], "photo_reference": "CmRaAAAAy2kKlKntX3QFNJpwZtqf6G-13rP8od2vUNejxkTFtxZ0nlLUfG_PBvfyUSxcDy4ZTb2WfccNzkfIXYDTdo2nJcQQceti5naXiJI6hKvyGQRmuftv-pI5WyOI2nT_lGIUEhAZsK3Jm-jWrk5Rzsh4PaNcGhR0xYgZfaHbqs3-YbWFop0ePGLjJQ", "width": 2592}], "place_id": "ChIJ-VzMuv0B0oUR5_OgRrrtb_0", "plus_code": {"compound_code": "CRC5+W7 Mexico City", "global_code": "76F2CRC5+W7"}, "rating": 4.3, "reference": "ChIJ-VzMuv0B0oUR5_OgRrrtb_0", "types": ["zoo", "point_of_interest", "establishment"], "user_ratings_total": 49}, {"business_status": "OPERATIONAL", "formatted_address": "Bosque de Chapultepec I Secc, Miguel Hidalgo, 11100 Mexico City", "geometry": {"location": {"lat": 19.4221091, "lng": -99.18923269999999}, "viewport": {"northeast": {"lat": 19.42345892989272, "lng": -99.18788287010727}, "southwest": {"lat": 19.42075927010728, "lng": -99.19058252989271}}}, "icon": "https://maps.gstatic.com/mapfiles/place_api/icons/v1/png_71/generic_business-71.png", "name": "Panda", "place_id": "ChIJp-6Vn37_0YURc8bNRrJZYhM", "plus_code": {"compound_code": "CRC6+R8 Mexico City", "global_code": "76F2CRC6+R8"}, "rating": 0, "reference": "ChIJp-6Vn37_0YURc8bNRrJZYhM", "types": ["zoo", "point_of_interest", "establishment"], "user_ratings_total": 0}, {"business_status": "CLOSED_TEMPORARILY", "formatted_address": "Zool\u00f3gico de San Juan de Arag\u00f3n, Gustavo A. Madero, 07979 Mexico City", "geometry": {"location": {"lat": 19.4624056, "lng": -99.0840247}, "viewport": {"northeast": {"lat": 19.46535355, "lng": -99.08241647010729}, "southwest": {"lat": 19.46142295, "lng": -99.08511612989273}}}, "icon": "https://maps.gstatic.com/mapfiles/place_api/icons/v1/png_71/generic_business-71.png", "name": "AVIARIO", "permanently_closed": true, "photos": [{"height": 1960, "html_attributions": ["<a href=\"https://maps.google.com/maps/contrib/110499894291937238915\">Chiquilinelgrande Elgrande</a>"], "photo_reference": "CmRaAAAAwxMHEYlBGkc66nPRzKVjD56YmhQHyh4fqD0O0HC_tQxXbqMHRy6qcF4beldVxz9TTPMrPEPSUbALoVKX8srttfsJCa5Obq3QXXTwQhTcszkIxsFjsErlCO4XCRUFnHC8EhDg96o60t_ZZE-UIj2PeLnTGhQC1gD05kTpKTVQUywIDJr4B3zI8A", "width": 4032}], "place_id": "ChIJ4VE1Jxj70YURbvK20HDc__o", "plus_code": {"compound_code": "FW68+X9 Mexico City", "global_code": "76F2FW68+X9"}, "rating": 5, "reference": "ChIJ4VE1Jxj70YURbvK20HDc__o", "types": ["zoo", "point_of_interest", "establishment"], "user_ratings_total": 1}, {"business_status": "OPERATIONAL", "formatted_address": "Parques del Pedregal, Tlalpan, 14010 Mexico City, CDMX", "geometry": {"location": {"lat": 19.2994822, "lng": -99.19086109999999}, "viewport": {"northeast": {"lat": 19.30081612989272, "lng": -99.18965587010727}, "southwest": {"lat": 19.29811647010728, "lng": -99.19235552989271}}}, "icon": "https://maps.gstatic.com/mapfiles/place_api/icons/v1/png_71/park-71.png", "name": "Parque", "opening_hours": {"open_now": true}, "photos": [{"height": 3096, "html_attributions": ["<a href=\"https://maps.google.com/maps/contrib/111953787485853294299\">Negro Blanco</a>"], "photo_reference": "CmRaAAAADjac9byZYNiHW1HwdN6F1qiXK9ckAP_a_O4hTNIIHtF-Z6h6wW6W0Sdsx_NYTFowYi96mQw7x_N_hqob21KJEwfukzwqRmm5YldafzdMr2AHbLeD9jr--VtZrqoP8PWoEhAyp9Qoggs05dwH6o5NWdSDGhTXpc8IdF2nk0O0AhObJS8O8ZDgjw", "width": 4128}], "place_id": "ChIJ4-3p6df_zYUR_UQY1l5TqbY", "plus_code": {"compound_code": "7RX5+QM Mexico City", "global_code": "76F27RX5+QM"}, "rating": 4.8, "reference": "ChIJ4-3p6df_zYUR_UQY1l5TqbY", "types": ["zoo", "park", "point_of_interest", "establishment"], "user_ratings_total": 8}, {"business_status": "OPERATIONAL", "formatted_address": "Retorno 1 Roberto Koch 65 Ext, Impi Picos, Iztacalco, 08760 Ciudad de M\u00e9xico", "geometry": {"location": {"lat": 19.3866848, "lng": -99.10262209999999}, "viewport": {"northeast": {"lat": 19.38803587989272, "lng": -99.10127987010728}, "southwest": {"lat": 19.38533622010728, "lng": -99.10397952989273}}}, "icon": "https://maps.gstatic.com/mapfiles/place_api/icons/v1/png_71/generic_business-71.png", "name": "DOG COMMANDER", "opening_hours": {"open_now": true}, "photos": [{"height": 887, "html_attributions": ["<a href=\"https://maps.google.com/maps/contrib/108030142224899597520\">A Google User</a>"], "photo_reference": "CmRaAAAA38xZZbWFMq5L8wduLD0UABQ2u4wR3HZ8IsXvHbGBcVMUxWm0xqKQs_ruzC5lpCENByQuNKkXJz2g-Fpqt0JW9W9i-NEXPm4PnHCY7n4vV9mJy3TusPTLFmY691FSBBNYEhChkiNIVn47DOtQmUPyWoztGhSE7qwWX4Yq-gDfZ3NVwLL2Y1zaIg", "width": 655}], "place_id": "ChIJD2n_6X_-0YURhvifnbltNW8", "plus_code": {"compound_code": "9VPW+MX Mexico City", "global_code": "76F29VPW+MX"}, "rating": 4.7, "reference": "ChIJD2n_6X_-0YURhvifnbltNW8", "types": ["zoo", "point_of_interest", "establishment"], "user_ratings_total": 15}, {"business_status": "OPERATIONAL", "formatted_address": "Camino a Belen, Santa Mar\u00eda S/N, 55908 Oxtotipac, M\u00e9x.", "geometry": {"location": {"lat": 19.6654446, "lng": -98.822029}, "viewport": {"northeast": {"lat": 19.66683797989272, "lng": -98.8179394}, "southwest": {"lat": 19.66413832010728, "lng": -98.82339220000001}}}, "icon": "https://maps.gstatic.com/mapfiles/place_api/icons/v1/png_71/generic_business-71.png", "name": "Reino Animal", "opening_hours": {"open_now": false}, "photos": [{"height": 3120, "html_attributions": ["<a href=\"https://maps.google.com/maps/contrib/102721361962163102230\">cristina sanchez</a>"], "photo_reference": "CmRaAAAAs4yvw1X-8cFdepqYEBqxZMHQpX7W8hNBOwH47_0uE2LkuD2aw7fSpYsT7iExTuCKmme7DZc7X8hLfruTa1YQY7psqMDeumawm_c1ZDf5Pa9Wi8m6yxIe15GIUP6HJqDNEhCjgiU04bdDe0QxU3IZCAmZGhQpL_gwybiJZeXtU7FanzBRpRMl6g", "width": 4160}], "place_id": "ChIJHf5Hr1kd0oURLVMdQYfFXgo", "plus_code": {"compound_code": "M58H+55 Oxtotipac, State of Mexico", "global_code": "76F3M58H+55"}, "rating": 4.5, "reference": "ChIJHf5Hr1kd0oURLVMdQYfFXgo", "types": ["zoo", "tourist_attraction", "amusement_park", "point_of_interest", "establishment"], "user_ratings_total": 8291}, {"business_status": "OPERATIONAL", "formatted_address": "Nautla 5, Roma Sur, Cuauht\u00e9moc, 06760 Ciudad de M\u00e9xico, CDMX", "geometry": {"location": {"lat": 19.4084804, "lng": -99.1644618}, "viewport": {"northeast": {"lat": 19.40984357989273, "lng": -99.16305257010728}, "southwest": {"lat": 19.40714392010728, "lng": -99.16575222989273}}}, "icon": "https://maps.gstatic.com/mapfiles/place_api/icons/v1/png_71/park-71.png", "name": "Julio y Marga Casa Encantada", "opening_hours": {"open_now": true}, "place_id": "ChIJz1oabZ3_0YURuNhVJ4KpPXo", "plus_code": {"compound_code": "CR5P+96 Mexico City", "global_code": "76F2CR5P+96"}, "rating": 5, "reference": "ChIJz1oabZ3_0YURuNhVJ4KpPXo", "types": ["zoo", "park", "point_of_interest", "establishment"], "user_ratings_total": 1}, {"business_status": "OPERATIONAL", "formatted_address": "Carr. La Marquesa - Chalma La Marquesa, 52743, Toluca de Lerdo, CDMX", "geometry": {"location": {"lat": 19.3683512, "lng": -99.19058539999999}, "viewport": {"northeast": {"lat": 19.36970672989272, "lng": -99.18929372010727}, "southwest": {"lat": 19.36700707010728, "lng": -99.19199337989272}}}, "icon": "https://maps.gstatic.com/mapfiles/place_api/icons/v1/png_71/park-71.png", "name": "El potrero", "photos": [{"height": 2322, "html_attributions": ["<a href=\"https://maps.google.com/maps/contrib/114465398899876059783\">Rosalba Valle</a>"], "photo_reference": "CmRaAAAAd-83kPA2d3oiX9wY2vxgATkxTEWyg2gBDvT1N0OE8zsvlPm_YN_-mGsQAss_q0H2nnZ3C3R_pznlBPANVaSIvtjoQNbue7j2bJLPD5O-pKmOqFSupUNY52Dw1nL2HjKXEhAT3IH_ifVU8_36wPUWQXLtGhS9ZxqLwmEV6ckArNSnzsQnkM0dwg", "width": 4128}], "place_id": "ChIJu8G_QkEB0oURPV6cbMH8hOc", "plus_code": {"compound_code": "9R95+8Q Mexico City", "global_code": "76F29R95+8Q"}, "rating": 0, "reference": "ChIJu8G_QkEB0oURPV6cbMH8hOc", "types": ["zoo", "park", "point_of_interest", "establishment"], "user_ratings_total": 0}, {"business_status": "OPERATIONAL", "formatted_address": "Unnamed Road, M\u00e9x.", "geometry": {"location": {"lat": 19.4060622, "lng": -98.96212799999999}, "viewport": {"northeast": {"lat": 19.40735282989272, "lng": -98.96095737010728}, "southwest": {"lat": 19.40465317010728, "lng": -98.96365702989272}}}, "icon": "https://maps.gstatic.com/mapfiles/place_api/icons/v1/png_71/park-71.png", "name": "Granja Interactiva Chantlalcalli", "opening_hours": {"open_now": false}, "photos": [{"height": 3456, "html_attributions": ["<a href=\"https://maps.google.com/maps/contrib/106928246791271076382\">adrian guzman D.</a>"], "photo_reference": "CmRaAAAA39vlxjG-O3Qxz0LwK1O7uUxa3JbKwval-IJ5UaZF9yjiL-iOl8fVgakUrw1Qx0aYuFNvRMGPsb5LlIjPlfW6ZQ7PuXqKIwwor6ffAiqLR_ZiPhiLQlOfR-koaUHcIxggEhA_jXNK8iOU_qwAAShOwKIEGhSkMkw8Z6HankbZvylkVB0Ik9ZtdA", "width": 4608}], "place_id": "ChIJtTkZi33j0YURG0Vi_HQI-SE", "plus_code": {"compound_code": "C24Q+C4 Chimalhuacan, State of Mexico", "global_code": "76F3C24Q+C4"}, "rating": 4.5, "reference": "ChIJtTkZi33j0YURG0Vi_HQI-SE", "types": ["zoo", "park", "point_of_interest", "establishment"], "user_ratings_total": 22}, {"business_status": "OPERATIONAL", "formatted_address": "Parques del Pedregal, Tlalpan, 14738 Mexico City", "geometry": {"location": {"lat": 19.29589, "lng": -99.1934883}, "viewport": {"northeast": {"lat": 19.29716732989272, "lng": -99.19215637010727}, "southwest": {"lat": 19.29446767010728, "lng": -99.19485602989272}}}, "icon": "https://maps.gstatic.com/mapfiles/place_api/icons/v1/png_71/park-71.png", "name": "\u00c1rea Natural Protegida \"Bosque de Tlalpan\"", "opening_hours": {"open_now": false}, "photos": [{"height": 853, "html_attributions": ["<a href=\"https://maps.google.com/maps/contrib/103851732348091631706\">A Google User</a>"], "photo_reference": "CmRaAAAAeoufX1A3tWCLiR1IIn60oyYbl-V95Jqb1woalzCmEcdKnYcxgKjcWqowWgcGhubxxnJOc-_Dea8_54eExsshbxVdEyz-VBegP8hZaVH1CVk0ZxuJMh80B4UVKGmDiQUbEhC0_q7uKKYyk3jGqfE1nikJGhS_1ZCo-3MeSub7r3zVrhCzN_EGTA", "width": 1280}], "place_id": "ChIJicu2NGz_zYURm3TCBmR7Nw0", "plus_code": {"compound_code": "7RW4+9J Mexico City", "global_code": "76F27RW4+9J"}, "rating": 0, "reference": "ChIJicu2NGz_zYURm3TCBmR7Nw0", "types": ["zoo", "park", "point_of_interest", "establishment"], "user_ratings_total": 0}, {"business_status": "OPERATIONAL", "formatted_address": "C. Ca\u00f1ada s/n, La Carbonera, La Magdalena Contreras, 10640 Ciudad de M\u00e9xico, CDMX", "geometry": {"location": {"lat": 19.2985898, "lng": -99.2515813}, "viewport": {"northeast": {"lat": 19.30025642989272, "lng": -99.25016482010727}, "southwest": {"lat": 19.29755677010728, "lng": -99.25286447989271}}}, "icon": "https://maps.gstatic.com/mapfiles/place_api/icons/v1/png_71/park-71.png", "name": "La Ca\u00f1ada Park", "opening_hours": {"open_now": true}, "photos": [{"height": 3120, "html_attributions": ["<a href=\"https://maps.google.com/maps/contrib/102298782372733453849\">paco Gomez</a>"], "photo_reference": "CmRaAAAA9u1LGbefbwW_YGqPdiXpWbzGajQJD4FCSmMKF95sZYBH4kT8hQ7YQ1pv-iqFVv9QjYsHU2X3dDcFIwfpZhJti_kf_b5NKzhchwW485PSAT24faMufi7PSMyeebXhzLGsEhB44bISvgbr3bROk3Z_VA7PGhTd31dqR6S6127jcRr3KTlSfUwrhg", "width": 4160}], "place_id": "ChIJLdxPRRf_zYURc9IGGU2T3VY", "plus_code": {"compound_code": "7PXX+C9 Mexico City", "global_code": "76F27PXX+C9"}, "rating": 4.4, "reference": "ChIJLdxPRRf_zYURc9IGGU2T3VY", "types": ["zoo", "park", "point_of_interest", "establishment"], "user_ratings_total": 99}, {"business_status": "OPERATIONAL", "formatted_address": "Carretera Federal, Cuernavaca - Taxco Km. 55, 62652 Teacalco, Gro.", "geometry": {"location": {"lat": 18.6134628, "lng": -99.4460898}, "viewport": {"northeast": {"lat": 18.61481187989272, "lng": -99.44474007010727}, "southwest": {"lat": 18.61211222010728, "lng": -99.44743972989272}}}, "icon": "https://maps.gstatic.com/mapfiles/place_api/icons/v1/png_71/generic_business-71.png", "name": "Zoofari", "opening_hours": {"open_now": false}, "photos": [{"height": 1840, "html_attributions": ["<a href=\"https://maps.google.com/maps/contrib/112707285978880066485\">Luis Gomez</a>"], "photo_reference": "CmRaAAAAfZygQPg9x-0x4p7emsVNmXpGXk8NTUbqTqzDQ_nlHvur40DSsyj1Z031jbwECT_SND9RJN8az6F0k8iPczm77Lkko2rfpNs-5ipxdBJUD5X-10B1lPzJ0m8jqWx1p9YHEhBldLufOMoKON2nm33cQ1D3GhR22QduFSiU1jcWNL6zGxObsctFqg", "width": 3264}], "place_id": "ChIJj2ZJgonMzYURAwEGVyR2tdk", "plus_code": {"compound_code": "JH73+9H Teacalco, Morelos", "global_code": "76C2JH73+9H"}, "rating": 4.6, "reference": "ChIJj2ZJgonMzYURAwEGVyR2tdk", "types": ["zoo", "tourist_attraction", "point_of_interest", "establishment"], "user_ratings_total": 2587}]