[{"business_status": "OPERATIONAL", "formatted_address": "Av. Capit\u00e1n Carlos Le\u00f3n S/N, Pe\u00f1\u00f3n de los Ba\u00f1os, Venustiano Carranza, 15620 Ciudad de M\u00e9xico, CDMX", "geometry": {"location": {"lat": 19.4360762, "lng": -99.07190829999999}, "viewport": {"northeast": {"lat": 19.4490293, "lng": -99.06525939999999}, "southwest": {"lat": 19.4092757, "lng": -99.091855}}}, "icon": "https://maps.gstatic.com/mapfiles/place_api/icons/v1/png_71/airport-71.png", "name": "Mexico City International Airport", "photos": [{"height": 2448, "html_attributions": ["<a href=\"https://maps.google.com/maps/contrib/101037943525485780971\">Javier Bello Hern\u00e1ndez</a>"], "photo_reference": "CmRZAAAAn31iVPycWHNP4j_ms1DGAJV7nkiJ1GG1xpyN2QhE05yAVT4alvJXzcj0_ts_VH-_qAnG6PWQPVoJY17GRkM_F7n6QtBhqdNPXAuq6FODnhvcszLbeFTFHszkdygA5Kt8EhCEBYrZLK0fuRi5t36RmQUEGhR7o0j3tA2GdMvGq4_XZYwR5SUC1g", "width": 3264}], "place_id": "ChIJnyKTvXf80YURRNK6YfV-0AI", "plus_code": {"compound_code": "CWPH+C6 Mexico City", "global_code": "76F2CWPH+C6"}, "rating": 4.2, "reference": "ChIJnyKTvXf80YURRNK6YfV-0AI", "types": ["airport", "point_of_interest", "establishment"], "user_ratings_total": 19547}, {"business_status": "OPERATIONAL", "formatted_address": "Pe\u00f1\u00f3n de los Ba\u00f1os, Venustiano Carranza, 15620 Mexico City", "geometry": {"location": {"lat": 19.437553, "lng": -99.07925999999999}, "viewport": {"northeast": {"lat": 19.43890282989272, "lng": -99.07791017010727}, "southwest": {"lat": 19.43620317010728, "lng": -99.08060982989272}}}, "icon": "https://maps.gstatic.com/mapfiles/place_api/icons/v1/png_71/airport-71.png", "name": "Aeropuerto CDMX", "photos": [{"height": 2736, "html_attributions": ["<a href=\"https://maps.google.com/maps/contrib/106733768857056283514\">A Google User</a>"], "photo_reference": "CmRaAAAAOEJ3D8VxSLApErGGPDI13iZJdeApq8rrMQjOFYjtPQaoFk-tF83QhySMdE2pRL-YRQjURjFoamWF84QnLvHni-q6qnoaB0R8R9Oux8UxUa5zqMJKWMneoOQQYFW_RaXyEhDa1c8JiZekyIprHfeM9ya9GhTtLHdLSem0heC9JJp4K8ozKvT5Kg", "width": 3648}], "place_id": "ChIJQzxh2BT70YUR2gN9vGkuO1U", "plus_code": {"compound_code": "CWQC+27 Mexico City", "global_code": "76F2CWQC+27"}, "rating": 4.5, "reference": "ChIJQzxh2BT70YUR2gN9vGkuO1U", "types": ["airport", "point_of_interest", "establishment"], "user_ratings_total": 4772}, {"business_status": "OPERATIONAL", "formatted_address": "15000, Calz. Ignacio Zaragoza 451, Ignacio Zaragoza, Venustiano Carranza, Ciudad de M\u00e9xico, CDMX", "geometry": {"location": {"lat": 19.4203955, "lng": -99.0975931}, "viewport": {"northeast": {"lat": 19.42173637989272, "lng": -99.09625072010729}, "southwest": {"lat": 19.41903672010728, "lng": -99.09895037989273}}}, "icon": "https://maps.gstatic.com/mapfiles/place_api/icons/v1/png_71/airport-71.png", "name": "Vista Aterrisaje", "place_id": "ChIJvTy4WBz80YURgY3ugxRNHbk", "plus_code": {"compound_code": "CWC2+5X Mexico City", "global_code": "76F2CWC2+5X"}, "rating": 0, "reference": "ChIJvTy4WBz80YURgY3ugxRNHbk", "types": ["airport", "point_of_interest", "establishment"], "user_ratings_total": 0}, {"business_status": "OPERATIONAL", "formatted_address": "Lago 4 Millones 6, Cd Lago, Nezahualc\u00f3yotl, M\u00e9x.", "geometry": {"location": {"lat": 19.4472451, "lng": -99.0472412}, "viewport": {"northeast": {"lat": 19.44859492989272, "lng": -99.04589137010727}, "southwest": {"lat": 19.44589527010728, "lng": -99.04859102989272}}}, "icon": "https://maps.gstatic.com/mapfiles/place_api/icons/v1/png_71/airport-71.png", "name": "Parte tracera del aueropuerto de la CDMX", "photos": [{"height": 1712, "html_attributions": ["<a href=\"https://maps.google.com/maps/contrib/116186264790536531914\">Marco Antonio Valdez Chavez</a>"], "photo_reference": "CmRaAAAAIE8X7ZPwvEQJnO3zc5H4t8w3mZk4jsrtwKh_xdLXFYT_-yPmLd8T4BDkfRSP3JozQj2kLvtSotR_rKZm0D_x5qp_OHzAASlzBou0i7oD9cnfGZc_GFFHUpvO60nPPQvdEhAusG0HmLf5Xdu5a4vwy_UmGhRNKKp5pBWZBh_zZ71U41bVbS4HCA", "width": 4000}], "place_id": "ChIJa5psjXD70YUR7SU_QFNgrLs", "plus_code": {"compound_code": "CXW3+V4 Ciudad Nezahualc\u00f3yotl, State of Mexico", "global_code": "76F2CXW3+V4"}, "rating": 3.7, "reference": "ChIJa5psjXD70YUR7SU_QFNgrLs", "types": ["airport", "point_of_interest", "establishment"], "user_ratings_total": 3}, {"business_status": "OPERATIONAL", "formatted_address": "M\u00e9xico (Lic. Benito Ju\u00e1rez), Venustiano Carranza, 15620 Mexico City", "geometry": {"location": {"lat": 19.4217537, "lng": -99.0779386}, "viewport": {"northeast": {"lat": 19.42310352989272, "lng": -99.07658877010729}, "southwest": {"lat": 19.42040387010728, "lng": -99.07928842989273}}}, "icon": "https://maps.gstatic.com/mapfiles/place_api/icons/v1/png_71/airport-71.png", "name": "Aeropuerto de M\u00e9xico", "photos": [{"height": 2600, "html_attributions": ["<a href=\"https://maps.google.com/maps/contrib/115033306088130541241\">SERGIO HERNANDEZ</a>"], "photo_reference": "CmRaAAAA6AqiaMCashCmkQkRaOl-PKZ0RKhdGge5Ke9SIUR-5li8GZvO_-geiYX9s8xhf9AbFSNO3Ca35vjGjXLLctys-Bsxlr6EebQRy53JEdm9JX3k-kYQITZTa5zEiMnjY_rqEhBby-p4-sTlBCj4fegJ5rBgGhRqx5lUiy2bCtICfqS6ocl6k6F9bg", "width": 4624}], "place_id": "ChIJX1mXYWr90YURvT1BrLzoY54", "plus_code": {"compound_code": "CWCC+PR Mexico City", "global_code": "76F2CWCC+PR"}, "rating": 4.4, "reference": "ChIJX1mXYWr90YURvT1BrLzoY54", "types": ["airport", "point_of_interest", "establishment"], "user_ratings_total": 209}, {"business_status": "OPERATIONAL", "formatted_address": "Carlos Leon 1 Pe\u00f1on de los Ba\u00f1os, M\u00e9xico (Lic. Benito Ju\u00e1rez), Coyoac\u00e1n, 04430 CDMX", "geometry": {"location": {"lat": 19.433481, "lng": -99.0862519}, "viewport": {"northeast": {"lat": 19.43502222989272, "lng": -99.08500652010729}, "southwest": {"lat": 19.43232257010728, "lng": -99.08770617989272}}}, "icon": "https://maps.gstatic.com/mapfiles/place_api/icons/v1/png_71/airport-71.png", "name": "Sala De Llegadas Nacionales A", "opening_hours": {"open_now": true}, "photos": [{"height": 2448, "html_attributions": ["<a href=\"https://maps.google.com/maps/contrib/113684689991622773712\">A Google User</a>"], "photo_reference": "CmRaAAAA19Huzw7Sg4Khi1jJNnsUB8c_Mk6vfKvlrXJz_ySXSl4qlQPPZXIGb7gcdFq1AlXiy7QywNwrK7x5l5ZRdfDlWIupsEsW484Z_R3x3hYipeJHsjfxvxlodjEX-U2DaylSEhBcf9ygjCp4TfXWDXmgA--rGhTjlFVMBz5koXdJlz8ybospMMPyew", "width": 3264}], "place_id": "ChIJzTT_o7f90YURy_psI3rs-YY", "plus_code": {"compound_code": "CWM7+9F M\u00e9xico (Lic. Benito Ju\u00e1rez), Mexico City", "global_code": "76F2CWM7+9F"}, "rating": 4, "reference": "ChIJzTT_o7f90YURy_psI3rs-YY", "types": ["airport", "point_of_interest", "establishment"], "user_ratings_total": 1}]