[{"business_status": "OPERATIONAL", "formatted_address": "Av. Canal de Garay 3278, La Esperanza, Iztapalapa, 09910 Ciudad de M\u00e9xico, CDMX", "geometry": {"location": {"lat": 19.3127289, "lng": -99.0748394}, "viewport": {"northeast": {"lat": 19.3153629, "lng": -99.07376027010727}, "southwest": {"lat": 19.3118509, "lng": -99.07645992989272}}}, "icon": "https://maps.gstatic.com/mapfiles/place_api/icons/v1/png_71/generic_business-71.png", "name": "\u00a1Kataplum!", "opening_hours": {}, "photos": [{"height": 2322, "html_attributions": ["<a href=\"https://maps.google.com/maps/contrib/108863078906235132129\">oezocar</a>"], "photo_reference": "CmRaAAAAsuBnz9ZdHl4qzIcvbx9mO_bSChOIuf-Y2pWK_P3ujnVgQUWTxzwxDT4cCV1K4DTNW-m46DeVrfcOfeLfH2Nn8jG9ru2NtscwXKJnslSkCxbjTn3OQXFMkzIUhdXG7a7gEhDXg7xQATAxkcptDVgAROwuGhRwGzZ4YzDpVPRpfEvNEuJEle72Yw", "width": 4128}], "place_id": "ChIJnWNMN0ECzoURbeVqSx2e_po", "plus_code": {"compound_code": "8W7G+33 La Esperanza, Mexico City", "global_code": "76F28W7G+33"}, "rating": 4.3, "reference": "ChIJnWNMN0ECzoURbeVqSx2e_po", "types": ["amusement_park", "tourist_attraction", "point_of_interest", "establishment"], "user_ratings_total": 8954}, {"business_status": "OPERATIONAL", "formatted_address": "Esq. Ricardo Monges L\u00f3pez Texmelucan, Educaci\u00f3n, 04400 Ciudad de M\u00e9xico", "geometry": {"location": {"lat": 19.3364507, "lng": -99.13211439999999}, "viewport": {"northeast": {"lat": 19.33780052989272, "lng": -99.13076457010729}, "southwest": {"lat": 19.33510087010728, "lng": -99.13346422989272}}}, "icon": "https://maps.gstatic.com/mapfiles/place_api/icons/v1/png_71/generic_business-71.png", "name": "PARK EDUCATION MARKET SET", "opening_hours": {"open_now": true}, "photos": [{"height": 2560, "html_attributions": ["<a href=\"https://maps.google.com/maps/contrib/111689045529529676166\">A Google User</a>"], "photo_reference": "CmRaAAAAISTsPfuaIGQ9PaLhrGpTTvPEqht5jArHMQCa8u_R7idVawn192sO070Hc2DTle_3lAAA7Mk0C4h8Q6jJhB2fGJ7E9Vx5st0ayXNVijI15mwPWuU4_FgZJx0GqIjloKQ6EhDr7mwm-OinzA68kMNbwELGGhSIS4wTBjcjZ3Cwx4HDzeARYjLX1Q", "width": 1440}], "place_id": "ChIJs1miU9gBzoUR8ggjgy5GlEI", "plus_code": {"compound_code": "8VP9+H5 Mexico City", "global_code": "76F28VP9+H5"}, "rating": 4.2, "reference": "ChIJs1miU9gBzoUR8ggjgy5GlEI", "types": ["amusement_park", "point_of_interest", "establishment"], "user_ratings_total": 39}, {"business_status": "OPERATIONAL", "formatted_address": "Carr. Picacho-Ajusco Km 1.5, Jardines del Ajusco, Tlalpan, 14200 Ciudad de M\u00e9xico, CDMX", "geometry": {"location": {"lat": 19.2956057, "lng": -99.21056519999999}, "viewport": {"northeast": {"lat": 19.29689957989272, "lng": -99.20984127010728}, "southwest": {"lat": 19.29419992010728, "lng": -99.21254092989273}}}, "icon": "https://maps.gstatic.com/mapfiles/place_api/icons/v1/png_71/generic_business-71.png", "name": "Six Flags M\u00e9xico", "opening_hours": {}, "photos": [{"height": 2988, "html_attributions": ["<a href=\"https://maps.google.com/maps/contrib/105101789035411922145\">ERICK ANDRES ALANIS VILLEGAS</a>"], "photo_reference": "CmRaAAAApoJHlm6dHh3ODGL074BYQJ_ar6UOXZiTqF0VYYU5akejYsogsRkWQou1mnsQFerNHlkxY-R9hcLDDCheP13Pub7ZY8-SZVOjmKL9rDpRmTzabMXuoijB0qqUmUZI8BfpEhACwY9Ez8Lf4mUlOzHXMoR4GhRJ0Ibu4vde5WyKOdvRHzkvpB71bw", "width": 5312}], "place_id": "ChIJGZTVlcn_zYURRZxrmu06Qto", "plus_code": {"compound_code": "7QWQ+6Q Mexico City", "global_code": "76F27QWQ+6Q"}, "rating": 4.6, "reference": "ChIJGZTVlcn_zYURRZxrmu06Qto", "types": ["amusement_park", "tourist_attraction", "point_of_interest", "establishment"], "user_ratings_total": 110565}, {"business_status": "OPERATIONAL", "formatted_address": "San Ricardo MZ925 LT15(49, Pedregal de Sta \u00darsula, Coyoac\u00e1n, 04600 Ciudad de M\u00e9xico, CDMX", "geometry": {"location": {"lat": 19.3159584, "lng": -99.1550013}, "viewport": {"northeast": {"lat": 19.31730822989272, "lng": -99.15365147010728}, "southwest": {"lat": 19.31460857010727, "lng": -99.15635112989273}}}, "icon": "https://maps.gstatic.com/mapfiles/place_api/icons/v1/png_71/generic_business-71.png", "name": "Juegos infantiles", "photos": [{"height": 2592, "html_attributions": ["<a href=\"https://maps.google.com/maps/contrib/110658884939245348805\">Miguel Angel Valera M\u00e1rquez</a>"], "photo_reference": "CmRaAAAADqWK5-yWBXUJCz3atU6JKS2u9SC2vUbgEMRnqoEZABWwUJr4-oJggaCWsj7Dh22qbCm9kwkwKEJifM2AQtrsHQ6QIGhIw_f-ZwMRAzB0LVlcx3N1T1Tl3i1dhCHoNQ2rEhCDZWiQrrhl3xHiv7zoTutmGhTCUy9KNDDjga1XxYARqZhr6o0Aiw", "width": 4608}], "place_id": "ChIJP0K0aUIBzoUR3S1WtVwoy6g", "plus_code": {"compound_code": "8R8V+9X Mexico City", "global_code": "76F28R8V+9X"}, "rating": 0, "reference": "ChIJP0K0aUIBzoUR3S1WtVwoy6g", "types": ["amusement_park", "point_of_interest", "establishment"], "user_ratings_total": 0}, {"business_status": "OPERATIONAL", "formatted_address": "Unnamed Road, Santiago, 56615 Valle de Chalco Solidaridad, M\u00e9x.", "geometry": {"location": {"lat": 19.3009315, "lng": -98.95373939999999}, "viewport": {"northeast": {"lat": 19.30241562989272, "lng": -98.95223282010728}, "southwest": {"lat": 19.29971597010728, "lng": -98.95493247989273}}}, "icon": "https://maps.gstatic.com/mapfiles/place_api/icons/v1/png_71/generic_business-71.png", "name": "JumpinKids", "opening_hours": {"open_now": true}, "photos": [{"height": 720, "html_attributions": ["<a href=\"https://maps.google.com/maps/contrib/107243733359009687377\">Kevin Gallagher</a>"], "photo_reference": "CmRaAAAAoOjTyF9ChEjtfoSRXAGWr7n-o6Ndcih3DPaiZOZChvE7F6pIGeq7tw_Mn2fSy8hL1idcLHMSovDumHX1FX2ZNzDI1TKuX4rSvj2d8FfbhFqi7nan5O2XCCqvHYZuvqbVEhApr0q0PCFm8B_q4fDpreI4GhRFQRxVuKs6xA2MMxwmfWqcmtFJ0w", "width": 1280}], "place_id": "ChIJPZni4mEdzoURbj2TFcmOEOc", "plus_code": {"compound_code": "822W+9G Valle de Chalco, State of Mexico", "global_code": "76F3822W+9G"}, "rating": 4.1, "reference": "ChIJPZni4mEdzoURbj2TFcmOEOc", "types": ["amusement_park", "point_of_interest", "establishment"], "user_ratings_total": 19}, {"business_status": "OPERATIONAL", "formatted_address": "Anillo Perif. 3278, Vaso de Regulaci\u00f3n, Iztapalapa, 09910 Ciudad de M\u00e9xico, CDMX", "geometry": {"location": {"lat": 19.3144359, "lng": -99.0769152}, "viewport": {"northeast": {"lat": 19.31608397989272, "lng": -99.07594492010729}, "southwest": {"lat": 19.31338432010728, "lng": -99.07864457989274}}}, "icon": "https://maps.gstatic.com/mapfiles/place_api/icons/v1/png_71/generic_business-71.png", "name": "Las Antenas", "opening_hours": {"open_now": true}, "photos": [{"height": 3456, "html_attributions": ["<a href=\"https://maps.google.com/maps/contrib/110524700479690301119\">Corvus Clan Parkour</a>"], "photo_reference": "CmRaAAAAdZHJkOq4futI1vyqavmoNnnV55q-KAby-7IJz7eeYyuVBUy8IAl-_sDYNCvSWg1u6zgOiOYzSTzuMtR9tj2qVH7NVfYaonuqiA-8l5v3WFLiDBlCdJNEhc28VNFtNebxEhDNQ1ZGr7OQG7iX4Y0BrQc8GhQyUsLPrFxVbkJMgXTWoJ1hiRfreg", "width": 4608}], "place_id": "ChIJr2z54cIDzoUR3Lup21LBJ7k", "plus_code": {"compound_code": "8W7F+Q6 Mexico City", "global_code": "76F28W7F+Q6"}, "rating": 4.4, "reference": "ChIJr2z54cIDzoUR3Lup21LBJ7k", "types": ["amusement_park", "point_of_interest", "establishment"], "user_ratings_total": 69}, {"business_status": "OPERATIONAL", "formatted_address": "La Pista, Xochiaca, Chimalhuac\u00e1n, M\u00e9x.", "geometry": {"location": {"lat": 19.4074875, "lng": -98.962356}, "viewport": {"northeast": {"lat": 19.40883732989272, "lng": -98.9610061701073}, "southwest": {"lat": 19.40613767010728, "lng": -98.96370582989275}}}, "icon": "https://maps.gstatic.com/mapfiles/place_api/icons/v1/png_71/generic_business-71.png", "name": "Parque Ecotur\u00edstico Chimalhuache", "opening_hours": {"open_now": false}, "photos": [{"height": 3024, "html_attributions": ["<a href=\"https://maps.google.com/maps/contrib/109665489881101333504\">edgar santiago</a>"], "photo_reference": "CmRaAAAAF2bXt0YNlM_bYOWfsWdiPAkmsT92P9O8FTtN615TzjSJf5qhe025yNMu9N-_zyw1rE9FR3p27S1T2qX2ltX4PSE9EylHIkO1m04CdiVEtfR6lppEp0nm0EK1zPlKzn78EhBKW-m7-hZ3DAsyohY_2XB6GhSn-AphGoSl6AAzMZVXNFaf9v-RwA", "width": 4032}], "place_id": "ChIJVabE6aXj0YURuFipBQoEELI", "plus_code": {"compound_code": "C24Q+X3 Chimalhuacan, State of Mexico", "global_code": "76F3C24Q+X3"}, "rating": 4.4, "reference": "ChIJVabE6aXj0YURuFipBQoEELI", "types": ["amusement_park", "point_of_interest", "establishment"], "user_ratings_total": 474}, {"business_status": "OPERATIONAL", "formatted_address": "Carr Panor\u00e1mica Picacho-Ajusco Km11.2 km11.2, 14749 Ciudad de M\u00e9xico", "geometry": {"location": {"lat": 19.2562612, "lng": -99.2424582}, "viewport": {"northeast": {"lat": 19.25761022989272, "lng": -99.24111042010728}, "southwest": {"lat": 19.25491057010728, "lng": -99.24381007989273}}}, "icon": "https://maps.gstatic.com/mapfiles/place_api/icons/v1/png_71/generic_business-71.png", "name": "Dragon Gotcha", "opening_hours": {"open_now": false}, "photos": [{"height": 4608, "html_attributions": ["<a href=\"https://maps.google.com/maps/contrib/110111854316226022815\">Gabriel Ricardo Gonzalez Romo</a>"], "photo_reference": "CmRaAAAALmjAprJ6ZFQ3IZNmZdCxJzGoAnU3ZDPaHMB_wpB6ML7FtfXKpO5TuP3Ntez1UDVxi7OcsU2zJY_HDOCmD4F8WwXNNRqNGyp8W7SYvsmrzbC2XCnZR84EXQWMORrjqDIHEhCh-N2qBny8Vw8DxQahufJVGhQvvJX3LZIQscRSvhJB75hURxEcZA", "width": 3456}], "place_id": "ChIJHUu5f47-zYUR7eMILVZJNKU", "plus_code": {"compound_code": "7Q45+G2 Mexico City", "global_code": "76F27Q45+G2"}, "rating": 4.4, "reference": "ChIJHUu5f47-zYUR7eMILVZJNKU", "types": ["amusement_park", "point_of_interest", "establishment"], "user_ratings_total": 324}, {"business_status": "OPERATIONAL", "formatted_address": "Hacienda de Sierra Vieja 2, Hacienda del Parque, 54769 Cuautitl\u00e1n Izcalli, M\u00e9x.", "geometry": {"location": {"lat": 19.6025482, "lng": -99.1916849}, "viewport": {"northeast": {"lat": 19.60412847989272, "lng": -99.18998797010728}, "southwest": {"lat": 19.60142882010727, "lng": -99.19268762989273}}}, "icon": "https://maps.gstatic.com/mapfiles/place_api/icons/v1/png_71/generic_business-71.png", "name": "Perimagico", "opening_hours": {"open_now": true}, "photos": [{"height": 2160, "html_attributions": ["<a href=\"https://maps.google.com/maps/contrib/105506701571318380274\">Carlos Gonzalez</a>"], "photo_reference": "CmRaAAAAxuikkSDK0Buz06ont-Kj4J1Cvwf_XdTGSkcqmpX7s_S3NpRXuFpJwL_8OOToX9Sxsn-nHUB4T0nX7AEQgI6TIFaZVbDZHWrZHUs2TbE7VCDfy5F2Tyw1ivHmFu4DrerjEhBSeeo1wQK077ND1bDMEhp0GhRJvgDnVs5mvXxcplkmqaEd75n0CQ", "width": 2880}], "place_id": "ChIJrfuANvQd0oURV1M6VT7sC7U", "plus_code": {"compound_code": "JR35+28 Cuautitl\u00e1n Izcalli, State of Mexico", "global_code": "76F2JR35+28"}, "rating": 4.1, "reference": "ChIJrfuANvQd0oURV1M6VT7sC7U", "types": ["amusement_park", "tourist_attraction", "point_of_interest", "establishment"], "user_ratings_total": 1497}, {"business_status": "OPERATIONAL", "formatted_address": "Valle de las Palmas, 52787 Naucalpan de Ju\u00e1rez, State of Mexico", "geometry": {"location": {"lat": 19.3925331, "lng": -99.28029}, "viewport": {"northeast": {"lat": 19.39395532989272, "lng": -99.27882352010728}, "southwest": {"lat": 19.39125567010727, "lng": -99.28152317989273}}}, "icon": "https://maps.gstatic.com/mapfiles/place_api/icons/v1/png_71/generic_business-71.png", "name": "IMAGIC PARK", "photos": [{"height": 3024, "html_attributions": ["<a href=\"https://maps.google.com/maps/contrib/112271148745331143318\">Yadira Ortega</a>"], "photo_reference": "CmRaAAAAUXRS6u_aux0NDW_x3BQEOO8-3n1GcnM1LykQTvMCwNDGuJViQsMWrS5A_mg0W3bz3mFd8BlP6ysCBSFMJ1l4W-6eV0l4nYVjRGA0HYz0f3sB-bB17hl_UpwaWC9PBc7DEhAcgA7XbIvpY_efuZuGN0K9GhTL7L-i33mij9lVmmLS_kqkzhYhgw", "width": 4032}], "place_id": "ChIJncpiTyAH0oURr2BYcK4LQnw", "plus_code": {"compound_code": "9PV9+2V Naucalpan de Ju\u00e1rez, State of Mexico", "global_code": "76F29PV9+2V"}, "rating": 5, "reference": "ChIJncpiTyAH0oURr2BYcK4LQnw", "types": ["amusement_park", "point_of_interest", "establishment"], "user_ratings_total": 4}, {"business_status": "OPERATIONAL", "formatted_address": "Calle 28 149, Estado de Mexico, 57210 Nezahualc\u00f3yotl, M\u00e9x.", "geometry": {"location": {"lat": 19.424555, "lng": -99.037042}, "viewport": {"northeast": {"lat": 19.42590482989272, "lng": -99.0356921701073}, "southwest": {"lat": 19.42320517010728, "lng": -99.03839182989275}}}, "icon": "https://maps.gstatic.com/mapfiles/place_api/icons/v1/png_71/generic_business-71.png", "name": "Juegos, Espumas La Buda", "place_id": "ChIJidMkTc_90YURGJcGbV7lJE0", "plus_code": {"compound_code": "CXF7+R5 Ciudad Nezahualc\u00f3yotl, State of Mexico", "global_code": "76F2CXF7+R5"}, "rating": 0, "reference": "ChIJidMkTc_90YURGJcGbV7lJE0", "types": ["amusement_park", "point_of_interest", "establishment"], "user_ratings_total": 0}, {"business_status": "OPERATIONAL", "formatted_address": "Calle Xochitl LT8, Arenitas, 56330 Chimalhuac\u00e1n, M\u00e9x.", "geometry": {"location": {"lat": 19.3973126, "lng": -98.9428097}, "viewport": {"northeast": {"lat": 19.39863372989272, "lng": -98.9412930201073}, "southwest": {"lat": 19.39593407010728, "lng": -98.94399267989273}}}, "icon": "https://maps.gstatic.com/mapfiles/place_api/icons/v1/png_71/generic_business-71.png", "name": "Deportivo", "opening_hours": {"open_now": false}, "photos": [{"height": 2448, "html_attributions": ["<a href=\"https://maps.google.com/maps/contrib/102669251899031825037\">Porfirio Cosme</a>"], "photo_reference": "CmRaAAAAru7XkkvggPdcAL8nyJj9GSgHpYL5RxD9ghliaTbkJab3ze-9x20Zk4q-BKSJ_ql-8zHEIA_F-DCjKmOCz3ygEfATTUtTDyWOFdYghxxXmwmc9ZPXVjYHIaDmqEHmjbYgEhDZo_HepDlIeXZ8qCve8_OEGhRa5-l-lgV3wfGsxpa_1Y5CmOSkcw", "width": 3264}], "place_id": "ChIJB92yE8vj0YUR1W39mL4A8BA", "plus_code": {"compound_code": "93W4+WV Chimalhuacan, State of Mexico", "global_code": "76F393W4+WV"}, "rating": 4.1, "reference": "ChIJB92yE8vj0YUR1W39mL4A8BA", "types": ["amusement_park", "point_of_interest", "establishment"], "user_ratings_total": 197}, {"business_status": "OPERATIONAL", "formatted_address": "Av. Tlalnepantla-Tenayuca 25, San Bartolo Tenayuca, 54150 Tlalnepantla de Baz, M\u00e9x.", "geometry": {"location": {"lat": 19.532159, "lng": -99.1727746}, "viewport": {"northeast": {"lat": 19.53290742989272, "lng": -99.17133482010726}, "southwest": {"lat": 19.53020777010728, "lng": -99.17403447989271}}}, "icon": "https://maps.gstatic.com/mapfiles/place_api/icons/v1/png_71/generic_business-71.png", "name": "Wonderpark Mexico", "opening_hours": {"open_now": true}, "photos": [{"height": 3456, "html_attributions": ["<a href=\"https://maps.google.com/maps/contrib/103471880958023312362\">A Google User</a>"], "photo_reference": "CmRaAAAAA1SFuMxrIvzucGPfREAMy1t-TY5aNhKsjdR9Uua_SNEV_Mzj9Sip4SstCeh_zYSXVjf_eQrX3B6cReDvbXU4qmneIGDEYwFdBNFLVQhSFt0bK0gV2WrPlWQLyxd-ekxVEhD4Ah4YnGn13qlFc4pTR3vLGhTjPT8-WM9aHEfYUm8zM5-wFkVZFA", "width": 5184}], "place_id": "ChIJjSfsLY_30YUROiGFaSsyNa8", "plus_code": {"compound_code": "GRJG+VV Tlalnepantla de Baz, State of Mexico", "global_code": "76F2GRJG+VV"}, "rating": 4.2, "reference": "ChIJjSfsLY_30YUROiGFaSsyNa8", "types": ["amusement_park", "point_of_interest", "establishment"], "user_ratings_total": 5}, {"business_status": "OPERATIONAL", "formatted_address": "Morelos, Venustiano Carranza, 15270 Mexico City", "geometry": {"location": {"lat": 19.4425069, "lng": -99.11675969999999}, "viewport": {"northeast": {"lat": 19.44385672989272, "lng": -99.11540987010727}, "southwest": {"lat": 19.44115707010728, "lng": -99.1181095298927}}}, "icon": "https://maps.gstatic.com/mapfiles/place_api/icons/v1/png_71/generic_business-71.png", "name": "Parque Recreativo Francisco I Madero", "opening_hours": {"open_now": true}, "photos": [{"height": 1024, "html_attributions": ["<a href=\"https://maps.google.com/maps/contrib/112764817626230449984\">Hugo Garcia</a>"], "photo_reference": "CmRaAAAAE3YHhSAh1lJMgJFhv1AIMMU7P-Shvqr6kkKqTAhHbx1Ysty1NYu9h03f_O43ukGG2W_cnN7Lyz9QEVWFGC4v3Le9y22aq64QeKuaRf-kYQrx0VoQCaZqZs9WJ50CgQC5EhAxZRfNkIVoJibmGCrcjvRMGhQOqJWVRRTNEiTcbdSkqaBhTAImRA", "width": 768}], "place_id": "ChIJ-8IkB0H50YURwZBGcnUADUQ", "plus_code": {"compound_code": "CVVM+27 Mexico City", "global_code": "76F2CVVM+27"}, "rating": 0, "reference": "ChIJ-8IkB0H50YURwZBGcnUADUQ", "types": ["amusement_park", "point_of_interest", "establishment"], "user_ratings_total": 0}, {"business_status": "OPERATIONAL", "formatted_address": "Picacho-Ajusco km 11200, Jardines del Ajusco, Tlalpan, 14200 CDMX", "geometry": {"location": {"lat": 19.255175, "lng": -99.24464640000001}, "viewport": {"northeast": {"lat": 19.25651527989272, "lng": -99.24325552010728}, "southwest": {"lat": 19.25381562010728, "lng": -99.24595517989273}}}, "icon": "https://maps.gstatic.com/mapfiles/place_api/icons/v1/png_71/generic_business-71.png", "name": "Base A\u00e9rea", "opening_hours": {"open_now": false}, "photos": [{"height": 3456, "html_attributions": ["<a href=\"https://maps.google.com/maps/contrib/103487369601054050633\">Mario Maker</a>"], "photo_reference": "CmRaAAAA3XpuKhkmWBGH19HvdApJ8O5wClfluFUW9iWrQ9X19jo-1irI-yU1QHwq51eDiSMj16vCqMQ4-6zph4a95Vrye1DRYPoG5HXeKhUQSF-uhFvX6IPVF8ndMT-nxk2Fsv1XEhCZB7-wMDXF_J3ZYocFRYk9GhSfAaq8AaKyDnOSxNeuI8-R9KFaxg", "width": 4608}], "place_id": "ChIJuVFFkUD-zYURcdwwJ2xhV6A", "plus_code": {"compound_code": "7Q44+34 Jardines del Ajusco, Mexico City", "global_code": "76F27Q44+34"}, "rating": 4.5, "reference": "ChIJuVFFkUD-zYURcdwwJ2xhV6A", "types": ["amusement_park", "point_of_interest", "establishment"], "user_ratings_total": 72}, {"business_status": "OPERATIONAL", "formatted_address": "\u00c1lvaro Obreg\u00f3n 13, San Miguel, 56604 San Mateo Huitzilzingo, M\u00e9x.", "geometry": {"location": {"lat": 19.2284977, "lng": -98.92712689999999}, "viewport": {"northeast": {"lat": 19.22983567989272, "lng": -98.92574337010728}, "southwest": {"lat": 19.22713602010728, "lng": -98.92844302989273}}}, "icon": "https://maps.gstatic.com/mapfiles/place_api/icons/v1/png_71/generic_business-71.png", "name": "Casa Rosales", "opening_hours": {"open_now": true}, "photos": [{"height": 1080, "html_attributions": ["<a href=\"https://maps.google.com/maps/contrib/111768079915081363871\">A Google User</a>"], "photo_reference": "CmRaAAAAXJZtvqlLO2VxdtL9RwxXi2fIUeiuI-u7EzzYMLbGo0l7fopsBD88sxLP_83kCmCGiF1hWnoiFAySWaDQrK1CyYFTvIaWJld1ilpkgSu6mzZ8CAg-U7bjdyIXdfO2uzvPEhC1y0jKx8IAQBoRRF_GqjiPGhT9OrQPbI_qCPOWFNOZBOe5x6nmsw", "width": 1080}], "place_id": "ChIJoTwxDsobzoURFh5Cg35vgiM", "plus_code": {"compound_code": "63HF+94 San Mateo Huitzilzingo, State of Mexico", "global_code": "76F363HF+94"}, "rating": 1, "reference": "ChIJoTwxDsobzoURFh5Cg35vgiM", "types": ["amusement_park", "point_of_interest", "establishment"], "user_ratings_total": 1}, {"business_status": "OPERATIONAL", "formatted_address": "Blvd. Lomas Verdes N\u00ba 2400 Locales 110A y 110B, Boulevares, 53140 Naucalpan de Ju\u00e1rez, M\u00e9x.", "geometry": {"location": {"lat": 19.4951579, "lng": -99.2466309}, "viewport": {"northeast": {"lat": 19.49792505, "lng": -99.24552100000001}, "southwest": {"lat": 19.49341565, "lng": -99.24859060000001}}}, "icon": "https://maps.gstatic.com/mapfiles/place_api/icons/v1/png_71/generic_business-71.png", "name": "Sky Zone Lomas Verdes", "opening_hours": {"open_now": true}, "photos": [{"height": 3120, "html_attributions": ["<a href=\"https://maps.google.com/maps/contrib/102832503669451970653\">julian M</a>"], "photo_reference": "CmRaAAAAJDuVdfP6FKCIIM1M7Zanqv5Oi1I4fdS7XtEtw4aGurXezubNHTTMOvO3mlKhzJ3vm62rZQR2621pjDGve2_yDmesCYp64XPdYr6iS0AL2OiXFDjjucPgX0Do0vB3hHEcEhCTgh6OmLuuuKrHPlLdwzulGhTRhgm5V9zVttIvCYlSOrRSRSL0gw", "width": 4160}], "place_id": "ChIJ4fXNdBcD0oURscg-0Ia2Bx4", "plus_code": {"compound_code": "FQW3+38 Naucalpan de Ju\u00e1rez, State of Mexico", "global_code": "76F2FQW3+38"}, "rating": 4.3, "reference": "ChIJ4fXNdBcD0oURscg-0Ia2Bx4", "types": ["amusement_park", "point_of_interest", "establishment"], "user_ratings_total": 813}, {"business_status": "OPERATIONAL", "formatted_address": "C. Cnel. Ahumada, Lomas del Mirador, 62350 Cuernavaca, Mor.", "geometry": {"location": {"lat": 18.9267289, "lng": -99.21563359999999}, "viewport": {"northeast": {"lat": 18.92807342989272, "lng": -99.21426722010727}, "southwest": {"lat": 18.92537377010727, "lng": -99.21696687989272}}}, "icon": "https://maps.gstatic.com/mapfiles/place_api/icons/v1/png_71/generic_business-71.png", "name": "Pipilitzin", "opening_hours": {"open_now": false}, "photos": [{"height": 2976, "html_attributions": ["<a href=\"https://maps.google.com/maps/contrib/100624757401196368542\">Ricardo Costilla</a>"], "photo_reference": "CmRaAAAA5aQjyLOSzTwAor85XVDXO1761HnRiB-Lhu5zmWtnwourar1cBMfVxNprLcJtxvM9ieJx7HIZn_-1c-MR8gK4XLiRsRN92RhXqXStSrqvxFSvbQW5V2VFCMLmhrgYs-FKEhAJsnROFjAEqGhGkGLR57dNGhRvOyG_dNti5jOGsF2Ajb70k2qsWA", "width": 3968}], "place_id": "ChIJc267RbzfzYURPEyS1ouYFXU", "plus_code": {"compound_code": "WQGM+MP Cuernavaca, Morelos", "global_code": "76C2WQGM+MP"}, "rating": 4.2, "reference": "ChIJc267RbzfzYURPEyS1ouYFXU", "types": ["amusement_park", "point_of_interest", "establishment"], "user_ratings_total": 218}, {"business_status": "OPERATIONAL", "formatted_address": "Carr Federal M\u00e9xico-Cuautla Km 58, Panoaya, 56900 Amecameca de Ju\u00e1rez, M\u00e9x.", "geometry": {"location": {"lat": 19.1403001, "lng": -98.7725224}, "viewport": {"northeast": {"lat": 19.14170672989272, "lng": -98.77143017010728}, "southwest": {"lat": 19.13900707010728, "lng": -98.77412982989273}}}, "icon": "https://maps.gstatic.com/mapfiles/place_api/icons/v1/png_71/generic_business-71.png", "name": "Hacienda Panoaya", "opening_hours": {"open_now": false}, "photos": [{"height": 1536, "html_attributions": ["<a href=\"https://maps.google.com/maps/contrib/113518026755069023742\">Carmen Rosas M13456</a>"], "photo_reference": "CmRaAAAAnZC-CVlCMvoTJBkTjWdfu_Ou16LrEekRw1RYZpyryQHdYpnGxlWyJZrQ7Xj43AnOWF4TVS-F1-OQ-Ln0eRr-XnaHBB23abMaQNWgFMfklGWv7QRPjRHVmYCIRMmKrYS1EhD_3xCaf_gxE8LIUARpN1CbGhRdr3VJ5RKVSNB1NXW6eni2-CCUzw", "width": 2048}], "place_id": "ChIJVVVVVYg8zoURRFWKaR5djMo", "plus_code": {"compound_code": "46RG+4X Amecameca, State of Mexico", "global_code": "76F346RG+4X"}, "rating": 4.5, "reference": "ChIJVVVVVYg8zoURRFWKaR5djMo", "types": ["amusement_park", "lodging", "restaurant", "food", "point_of_interest", "establishment"], "user_ratings_total": 19713}, {"business_status": "OPERATIONAL", "formatted_address": "Camino Real a San Jer\u00f3nimo # 13, 56080 Santo Tom\u00e1s Apipilhuasco, M\u00e9x.", "geometry": {"location": {"lat": 19.5381672, "lng": -98.752968}, "viewport": {"northeast": {"lat": 19.53954067989272, "lng": -98.75161707010729}, "southwest": {"lat": 19.53684102010727, "lng": -98.75431672989272}}}, "icon": "https://maps.gstatic.com/mapfiles/place_api/icons/v1/png_71/generic_business-71.png", "name": "Apipilpark", "opening_hours": {"open_now": false}, "photos": [{"height": 3024, "html_attributions": ["<a href=\"https://maps.google.com/maps/contrib/110360415497520646194\">Christian Camacho</a>"], "photo_reference": "CmRaAAAAz0sbrou4KnG3Px3qkfiedyUe-O6Z5lN5TBLtHcYK9SyQgzzx_gK7ARJNKnNLCkBl4bg_yNIC0yj9I7Y3Y88OTgx2I0SMbVB2DVWjEr0js5OmeFjHGARCLYw0Gv4heV7_EhATwtoU6pRVsLA83uBLNoBoGhRoze90x5P1aMq7xSzA65i0mHl83A", "width": 4032}], "place_id": "ChIJnf-Vza7c0YURPY3ZA2M18Hs", "plus_code": {"compound_code": "G6QW+7R Santo Tom\u00e1s Apipilhuasco, State of Mexico", "global_code": "76F3G6QW+7R"}, "rating": 4.4, "reference": "ChIJnf-Vza7c0YURPY3ZA2M18Hs", "types": ["tourist_attraction", "amusement_park", "point_of_interest", "establishment"], "user_ratings_total": 930}]