[{"business_status": "OPERATIONAL", "formatted_address": "San Miguel, 09360 Mexico City, CDMX", "geometry": {"location": {"lat": 19.3568683, "lng": -99.0862903}, "viewport": {"northeast": {"lat": 19.35823707989272, "lng": -99.08497902010727}, "southwest": {"lat": 19.35553742010728, "lng": -99.08767867989272}}}, "icon": "https://maps.gstatic.com/mapfiles/place_api/icons/v1/png_71/shopping-71.png", "name": "Nikky Moda", "place_id": "ChIJe6qM8u790YURE3E7eXki5F4", "plus_code": {"compound_code": "9W47+PF Mexico City", "global_code": "76F29W47+PF"}, "rating": 5, "reference": "ChIJe6qM8u790YURE3E7eXki5F4", "types": ["clothing_store", "point_of_interest", "store", "establishment"], "user_ratings_total": 1}, {"business_status": "OPERATIONAL", "formatted_address": "San Miguel, Iztapalapa, 09360 Ciudad de M\u00e9xico, CDMX", "geometry": {"location": {"lat": 19.3569411, "lng": -99.0863492}, "viewport": {"northeast": {"lat": 19.35830507989272, "lng": -99.08502807010728}, "southwest": {"lat": 19.35560542010727, "lng": -99.08772772989273}}}, "icon": "https://maps.gstatic.com/mapfiles/place_api/icons/v1/png_71/shopping-71.png", "name": "Boutique Isabella", "opening_hours": {"open_now": false}, "photos": [{"height": 4608, "html_attributions": ["<a href=\"https://maps.google.com/maps/contrib/101226785813533469313\">A Google User</a>"], "photo_reference": "CmRaAAAAzHqNDbIs_HE3wD1Y9hQOJUsbENNm7BS2-8JL4LhqWPiWFLfD2Od8hGzOQEfWfw51FCcXbQ15c_S6wTk1c8Ps7Au-Iw9Gas_AHD6acKfHcOp_SK3uAxfA0QMomj-lwkEeEhDAw0R4fR_CPQGB93KqQVmwGhTcZ7k0KFgh3stpCXXyjYx2q39GYQ", "width": 3456}], "place_id": "ChIJ76Pl7DT90YURP7Q_7kJhA44", "plus_code": {"compound_code": "9W47+QF Mexico City", "global_code": "76F29W47+QF"}, "rating": 0, "reference": "ChIJ76Pl7DT90YURP7Q_7kJhA44", "types": ["clothing_store", "point_of_interest", "store", "establishment"], "user_ratings_total": 0}, {"business_status": "OPERATIONAL", "formatted_address": "Ermita Iztapalapa 1334 A, El Santuario, Iztapalapa, 09820 Ciudad de M\u00e9xico, CDMX", "geometry": {"location": {"lat": 19.3561534, "lng": -99.091391}, "viewport": {"northeast": {"lat": 19.35757367989272, "lng": -99.09005117010727}, "southwest": {"lat": 19.35487402010728, "lng": -99.09275082989272}}}, "icon": "https://maps.gstatic.com/mapfiles/place_api/icons/v1/png_71/shopping-71.png", "name": "Clothing store", "opening_hours": {"open_now": false}, "place_id": "ChIJdw2LnuX90YURVp3qqE6M7ic", "plus_code": {"compound_code": "9W45+FC Mexico City", "global_code": "76F29W45+FC"}, "rating": 0, "reference": "ChIJdw2LnuX90YURVp3qqE6M7ic", "types": ["clothing_store", "point_of_interest", "store", "establishment"], "user_ratings_total": 0}, {"business_status": "OPERATIONAL", "formatted_address": "Av. Rojo G\u00f3mez Sin n\u00famero, San Miguel, 09360 Ciudad de M\u00e9xico", "geometry": {"location": {"lat": 19.357978, "lng": -99.0856427}, "viewport": {"northeast": {"lat": 19.35935377989272, "lng": -99.08434587010727}, "southwest": {"lat": 19.35665412010728, "lng": -99.08704552989272}}}, "icon": "https://maps.gstatic.com/mapfiles/place_api/icons/v1/png_71/shopping-71.png", "name": "Moda Para Ti", "opening_hours": {"open_now": true}, "place_id": "ChIJw4bPve790YURAGsidJUNXqw", "plus_code": {"compound_code": "9W57+5P Mexico City", "global_code": "76F29W57+5P"}, "rating": 0, "reference": "ChIJw4bPve790YURAGsidJUNXqw", "types": ["point_of_interest", "clothing_store", "store", "establishment"], "user_ratings_total": 0}, {"business_status": "OPERATIONAL", "formatted_address": "Ayuntamiento 29, San Pablo, Iztapalapa, 09000 Ciudad de M\u00e9xico, CDMX", "geometry": {"location": {"lat": 19.3591523, "lng": -99.09169159999999}, "viewport": {"northeast": {"lat": 19.36051527989272, "lng": -99.09039277010729}, "southwest": {"lat": 19.35781562010727, "lng": -99.09309242989274}}}, "icon": "https://maps.gstatic.com/mapfiles/place_api/icons/v1/png_71/shopping-71.png", "name": "TIENDA DE ROPA", "opening_hours": {"open_now": true}, "place_id": "ChIJ-QLkdOb90YURUVhC-7MgUTM", "plus_code": {"compound_code": "9W55+M8 Mexico City", "global_code": "76F29W55+M8"}, "rating": 0, "reference": "ChIJ-QLkdOb90YURUVhC-7MgUTM", "types": ["point_of_interest", "clothing_store", "store", "establishment"], "user_ratings_total": 0}, {"business_status": "OPERATIONAL", "formatted_address": "Cuauht\u00e9moc 73, San Pablo, Iztapalapa, 09000 Ciudad de M\u00e9xico, CDMX", "geometry": {"location": {"lat": 19.3607697, "lng": -99.09017759999999}, "viewport": {"northeast": {"lat": 19.36213992989272, "lng": -99.08889082010728}, "southwest": {"lat": 19.35944027010728, "lng": -99.09159047989272}}}, "icon": "https://maps.gstatic.com/mapfiles/place_api/icons/v1/png_71/shopping-71.png", "name": "TIENDA DE ROPA", "opening_hours": {"open_now": true}, "place_id": "ChIJcaqbIOb90YURFrGKk9IDHZY", "plus_code": {"compound_code": "9W65+8W Mexico City", "global_code": "76F29W65+8W"}, "rating": 0, "reference": "ChIJcaqbIOb90YURFrGKk9IDHZY", "types": ["point_of_interest", "clothing_store", "store", "establishment"], "user_ratings_total": 0}, {"business_status": "OPERATIONAL", "formatted_address": "Ayuntamiento 53, San Lucas, Iztapalapa, 09000 Ciudad de M\u00e9xico, CDMX", "geometry": {"location": {"lat": 19.36056, "lng": -99.09168}, "viewport": {"northeast": {"lat": 19.36187627989272, "lng": -99.09019927010728}, "southwest": {"lat": 19.35917662010728, "lng": -99.09289892989271}}}, "icon": "https://maps.gstatic.com/mapfiles/place_api/icons/v1/png_71/shopping-71.png", "name": "ropa elegante", "opening_hours": {"open_now": true}, "photos": [{"height": 1280, "html_attributions": ["<a href=\"https://maps.google.com/maps/contrib/103337255498953546302\">A Google User</a>"], "photo_reference": "CmRaAAAAv3WTvyi8h50KPkc9yCBRBIIkCHTapfKNDZNWqXtRQTST-sc-kyz_KVEoZMs0in9okg5vqzizUGTNtCt14ee69OjoQ6Rdb6eYSDusoLbVwZq_yv7RNnkemRuJljYAubexEhDcTvQs4EU8Pu4wRMdFmd1dGhRpIRGbxwb6s9WRLvA2WE8YbEMe8A", "width": 960}], "place_id": "ChIJSQ-ZIGr90YURHE_EEHhlDQM", "plus_code": {"compound_code": "9W65+68 Mexico City", "global_code": "76F29W65+68"}, "rating": 0, "reference": "ChIJSQ-ZIGr90YURHE_EEHhlDQM", "types": ["point_of_interest", "clothing_store", "store", "establishment"], "user_ratings_total": 0}, {"business_status": "OPERATIONAL", "formatted_address": "Ayuntamiento Mercado, San Pablo, Iztapalapa, 09000 Ciudad de M\u00e9xico, CDMX", "geometry": {"location": {"lat": 19.36064, "lng": -99.09116499999999}, "viewport": {"northeast": {"lat": 19.36201497989272, "lng": -99.08991332010726}, "southwest": {"lat": 19.35931532010728, "lng": -99.0926129798927}}}, "icon": "https://maps.gstatic.com/mapfiles/place_api/icons/v1/png_71/shopping-71.png", "name": "vestidos Vicky", "opening_hours": {"open_now": true}, "photos": [{"height": 1280, "html_attributions": ["<a href=\"https://maps.google.com/maps/contrib/104511440568730476977\">A Google User</a>"], "photo_reference": "CmRaAAAA40L6mA0IHscB9RtZXyq6ZJGeflS632H4QkhyLavf_WeHBXUxJcwBP0AvBqEgssaDLVVP1-QfOLgnSauX9UPUcpJ61oMllYBD5cZzUL_GoAnxcdwNoYwji70Nmm1fzGvPEhAWD39izabGRsTjsTqEYBF2GhR0LnVsx6gnOzRsTsT0JoYrXVeEhw", "width": 720}], "place_id": "ChIJzeidno790YURZM4B-wstwtU", "plus_code": {"compound_code": "9W65+7G San Pablo, Mexico City", "global_code": "76F29W65+7G"}, "rating": 0, "reference": "ChIJzeidno790YURZM4B-wstwtU", "types": ["clothing_store", "point_of_interest", "store", "establishment"], "user_ratings_total": 0}, {"business_status": "OPERATIONAL", "formatted_address": "Lerdo de Tejada esq. Ayuntamiento, Iztapalapa, CP. 09000, Iztapalapa, 09000 Ciudad de M\u00e9xico, CDMX", "geometry": {"location": {"lat": 19.3608044, "lng": -99.0915292}, "viewport": {"northeast": {"lat": 19.36215767989272, "lng": -99.09017832010728}, "southwest": {"lat": 19.35945802010728, "lng": -99.09287797989272}}}, "icon": "https://maps.gstatic.com/mapfiles/place_api/icons/v1/png_71/shopping-71.png", "name": "Kerala Ropa para Mujer", "opening_hours": {"open_now": true}, "place_id": "ChIJK_SvFA390YURDmVHcgZ5eCg", "plus_code": {"compound_code": "9W65+89 Mexico City", "global_code": "76F29W65+89"}, "rating": 0, "reference": "ChIJK_SvFA390YURDmVHcgZ5eCg", "types": ["point_of_interest", "clothing_store", "store", "establishment"], "user_ratings_total": 0}, {"business_status": "OPERATIONAL", "formatted_address": "Cda. Iztapalapa 1B, Amp Ricardo Flores Mag\u00f3n, Iztapalapa, 09820 Ciudad de M\u00e9xico, CDMX", "geometry": {"location": {"lat": 19.3552706, "lng": -99.0990281}, "viewport": {"northeast": {"lat": 19.35663907989272, "lng": -99.0977043701073}, "southwest": {"lat": 19.35393942010728, "lng": -99.10040402989273}}}, "icon": "https://maps.gstatic.com/mapfiles/place_api/icons/v1/png_71/shopping-71.png", "name": "Tienda de Ropa Elvira", "opening_hours": {"open_now": true}, "place_id": "ChIJpfZo-eL90YURocBgAIOQKHM", "plus_code": {"compound_code": "9W42+49 Mexico City", "global_code": "76F29W42+49"}, "rating": 0, "reference": "ChIJpfZo-eL90YURocBgAIOQKHM", "types": ["clothing_store", "point_of_interest", "store", "establishment"], "user_ratings_total": 0}, {"business_status": "OPERATIONAL", "formatted_address": "Ayuntamiento 53, San Lucas, Iztapalapa, 09000 Ciudad de M\u00e9xico, CDMX", "geometry": {"location": {"lat": 19.36051, "lng": -99.09165999999999}, "viewport": {"northeast": {"lat": 19.36183037989272, "lng": -99.09019527010729}, "southwest": {"lat": 19.35913072010728, "lng": -99.09289492989272}}}, "icon": "https://maps.gstatic.com/mapfiles/place_api/icons/v1/png_71/shopping-71.png", "name": "mimi ropa", "opening_hours": {"open_now": true}, "photos": [{"height": 1280, "html_attributions": ["<a href=\"https://maps.google.com/maps/contrib/108091664584512300545\">A Google User</a>"], "photo_reference": "CmRaAAAAo7v7zt3DhSWal-FODzXPsyoXbYLjO9w4RHXwrS42jlo29z7HQ11bZGlDjb_kyLVtQfC4D8i5ga4tvxDTmPdl24Dx2xnhdvwxNW_RpaNQPoo_o5apa9mbD4dwbZOStLtzEhBJBPW32-CdTwimTmXaTI9pGhRdoYCbfVbeoZomOpbmRbBR4GXZYg", "width": 960}], "place_id": "ChIJI4wM6d790YURXWMzne4VQ-4", "plus_code": {"compound_code": "9W65+68 Mexico City", "global_code": "76F29W65+68"}, "rating": 0, "reference": "ChIJI4wM6d790YURXWMzne4VQ-4", "types": ["clothing_store", "point_of_interest", "store", "establishment"], "user_ratings_total": 0}, {"business_status": "OPERATIONAL", "formatted_address": "Ayuntamiento Mercado, San Pablo, Iztapalapa, 09000 Ciudad de M\u00e9xico, CDMX", "geometry": {"location": {"lat": 19.360642, "lng": -99.09116499999999}, "viewport": {"northeast": {"lat": 19.36201692989272, "lng": -99.08991302010728}, "southwest": {"lat": 19.35931727010728, "lng": -99.09261267989272}}}, "icon": "https://maps.gstatic.com/mapfiles/place_api/icons/v1/png_71/shopping-71.png", "name": "ropa para hombre julio", "opening_hours": {"open_now": false}, "photos": [{"height": 1280, "html_attributions": ["<a href=\"https://maps.google.com/maps/contrib/100715005118724140274\">A Google User</a>"], "photo_reference": "CmRaAAAA9KoyXMn__UKp2WwX6ePLDXeZZpBABL7E9wSkFydmcusc5PhknsW7V_bWL11IAr05hhjf_raptgTzmMuEd9HOlkfiMAGi_QT6UHgUSiUHcGBmkneSXDCGvzmS3Vz3plRgEhA6arNVsCk0IwEQQqi-JNZNGhTgqOWGirzVdl-KoyURc_zr-GHRWg", "width": 720}], "place_id": "ChIJAZwAW3T90YUR4Y74No3LmoI", "plus_code": {"compound_code": "9W65+7G San Pablo, Mexico City", "global_code": "76F29W65+7G"}, "rating": 0, "reference": "ChIJAZwAW3T90YUR4Y74No3LmoI", "types": ["point_of_interest", "clothing_store", "store", "establishment"], "user_ratings_total": 0}, {"business_status": "OPERATIONAL", "formatted_address": "Santo Tomas 4, Santa Mar\u00eda del Monte, Iztapalapa, 09850 Ciudad de M\u00e9xico, CDMX", "geometry": {"location": {"lat": 19.3532206, "lng": -99.09012779999999}, "viewport": {"northeast": {"lat": 19.35457742989272, "lng": -99.08881052010727}, "southwest": {"lat": 19.35187777010728, "lng": -99.09151017989272}}}, "icon": "https://maps.gstatic.com/mapfiles/place_api/icons/v1/png_71/shopping-71.png", "name": "Venta de Uniformes en Mexico | Uniformes Santander", "opening_hours": {"open_now": false}, "place_id": "ChIJh3qy_-_90YURNgFni8Pw0CI", "plus_code": {"compound_code": "9W35+7W Mexico City", "global_code": "76F29W35+7W"}, "rating": 0, "reference": "ChIJh3qy_-_90YURNgFni8Pw0CI", "types": ["clothing_store", "point_of_interest", "store", "establishment"], "user_ratings_total": 0}, {"business_status": "OPERATIONAL", "formatted_address": "Callej\u00f3n Estrella 4, Barrio San Pablo Iztapalapa, Iztapalapa, 09000 Ciudad de M\u00e9xico, CDMX", "geometry": {"location": {"lat": 19.3583684, "lng": -99.0898768}, "viewport": {"northeast": {"lat": 19.35967207989272, "lng": -99.08830937010728}, "southwest": {"lat": 19.35697242010727, "lng": -99.09100902989273}}}, "icon": "https://maps.gstatic.com/mapfiles/place_api/icons/v1/png_71/shopping-71.png", "name": "Pilu Dise\u00f1os y Promociones S.A. de C.V.", "place_id": "ChIJu-I0V-_90YURukEjoTKqM4w", "plus_code": {"compound_code": "9W56+82 Mexico City", "global_code": "76F29W56+82"}, "rating": 4, "reference": "ChIJu-I0V-_90YURukEjoTKqM4w", "types": ["clothing_store", "point_of_interest", "store", "establishment"], "user_ratings_total": 13}, {"business_status": "OPERATIONAL", "formatted_address": "Av Estrella 46, Estrella del Sur, Iztapalapa, 09820 Ciudad de M\u00e9xico, CDMX", "geometry": {"location": {"lat": 19.3522149, "lng": -99.0984826}, "viewport": {"northeast": {"lat": 19.35366602989272, "lng": -99.09707022010727}, "southwest": {"lat": 19.35096637010728, "lng": -99.09976987989272}}}, "icon": "https://maps.gstatic.com/mapfiles/place_api/icons/v1/png_71/shopping-71.png", "name": "Ropa y Boneteria David", "opening_hours": {"open_now": false}, "place_id": "ChIJRdJd1vz90YURbbJwcuJQ4lE", "plus_code": {"compound_code": "9W22+VJ Mexico City", "global_code": "76F29W22+VJ"}, "rating": 0, "reference": "ChIJRdJd1vz90YURbbJwcuJQ4lE", "types": ["clothing_store", "point_of_interest", "store", "establishment"], "user_ratings_total": 0}, {"business_status": "OPERATIONAL", "formatted_address": "Aldama 69, San Pablo, Iztapalapa, 09000 Ciudad de M\u00e9xico, CDMX", "geometry": {"location": {"lat": 19.3590859, "lng": -99.0915421}, "viewport": {"northeast": {"lat": 19.36050097989272, "lng": -99.09016787010728}, "southwest": {"lat": 19.35780132010727, "lng": -99.09286752989271}}}, "icon": "https://maps.gstatic.com/mapfiles/place_api/icons/v1/png_71/shopping-71.png", "name": "Only Fashion Iztapalapa", "opening_hours": {"open_now": true}, "place_id": "ChIJl9CxdOb90YURjanI9rkPaX8", "plus_code": {"compound_code": "9W55+J9 Mexico City", "global_code": "76F29W55+J9"}, "rating": 3.7, "reference": "ChIJl9CxdOb90YURjanI9rkPaX8", "types": ["clothing_store", "point_of_interest", "store", "establishment"], "user_ratings_total": 27}, {"business_status": "OPERATIONAL", "formatted_address": "Ayuntamiento Mercado, San Pablo, Iztapalapa, 09000 Ciudad de M\u00e9xico, CDMX", "geometry": {"location": {"lat": 19.360633, "lng": -99.09116499999999}, "viewport": {"northeast": {"lat": 19.36200822989272, "lng": -99.08991427010727}, "southwest": {"lat": 19.35930857010728, "lng": -99.0926139298927}}}, "icon": "https://maps.gstatic.com/mapfiles/place_api/icons/v1/png_71/shopping-71.png", "name": "ropa aurora", "opening_hours": {"open_now": false}, "photos": [{"height": 1280, "html_attributions": ["<a href=\"https://maps.google.com/maps/contrib/116272153654652649061\">A Google User</a>"], "photo_reference": "CmRaAAAAw9_QksITjumZUiVyO8s9wh1PBtgEZY31SF7PU9MOE7Vbuun4qQfi9K6m3--9lKnJObJXM85ocAKqItpSdjQlTOFzi0qujoerm5vu2mcCqWXxSpotIGiG91lYRbXyL5YsEhCF5UGw-z_NIkHMiwE7ys8wGhQpDuYaYqQZ9TG2hdksFoHzJqMFRQ", "width": 960}], "place_id": "ChIJEQsrOLH90YURKpmuNFiAvQI", "plus_code": {"compound_code": "9W65+7G San Pablo, Mexico City", "global_code": "76F29W65+7G"}, "rating": 0, "reference": "ChIJEQsrOLH90YURKpmuNFiAvQI", "types": ["clothing_store", "point_of_interest", "store", "establishment"], "user_ratings_total": 0}, {"business_status": "OPERATIONAL", "formatted_address": "Av. Tlahuac 4421, Cerro de la Estrella, Iztapalapa, 09860 Ciudad de M\u00e9xico, CDMX", "geometry": {"location": {"lat": 19.3211259, "lng": -99.08434609999999}, "viewport": {"northeast": {"lat": 19.32239152989272, "lng": -99.08301652010728}, "southwest": {"lat": 19.31969187010727, "lng": -99.08571617989273}}}, "icon": "https://maps.gstatic.com/mapfiles/place_api/icons/v1/png_71/shopping-71.png", "name": "JULIO OUTLET", "opening_hours": {"open_now": true}, "photos": [{"height": 1920, "html_attributions": ["<a href=\"https://maps.google.com/maps/contrib/101848382131929540393\">Vivian Pelayo</a>"], "photo_reference": "CmRaAAAA7D0RK2J4Nyikhwj8pGW6OoWLnBh1XQpX35I05N5X410BvLxzYx1wjkk3mVwftIZa64RsrxCT1LH5QhmMl3Rd-g_GNeYWSud7G946lYAq0TrdLW0C-agI7XRtnjBuz4SJEhDoz_8KtbTEmuBJnX9u_bZTGhQRyKtEya-IwCEmDdrlbHnir-f_IQ", "width": 1080}], "place_id": "ChIJ9dpuzRUCzoURwAx4a9CKm-M", "plus_code": {"compound_code": "8WC8+F7 Mexico City", "global_code": "76F28WC8+F7"}, "rating": 4, "reference": "ChIJ9dpuzRUCzoURwAx4a9CKm-M", "types": ["clothing_store", "point_of_interest", "store", "establishment"], "user_ratings_total": 106}, {"business_status": "OPERATIONAL", "formatted_address": "Ayuntamiento 57, San Pablo, Iztapalapa, 09000 Ciudad de M\u00e9xico, CDMX", "geometry": {"location": {"lat": 19.3609261, "lng": -99.0911792}, "viewport": {"northeast": {"lat": 19.36228947989272, "lng": -99.08988287010727}, "southwest": {"lat": 19.35958982010728, "lng": -99.09258252989272}}}, "icon": "https://maps.gstatic.com/mapfiles/place_api/icons/v1/png_71/shopping-71.png", "name": "Charly & Grace Boutique", "opening_hours": {"open_now": true}, "photos": [{"height": 1280, "html_attributions": ["<a href=\"https://maps.google.com/maps/contrib/112829269018288437304\">excel martinez</a>"], "photo_reference": "CmRZAAAAIyxUwmiOU2gOHARXsCWQL4j46hPPENstc62vBm0PAQbRdSYK471SlJeC7p74eOS7tCjwlX1xw-omBDA_U4royIvfnJ54uEZtXfym1hbdQSIp1JG48Z2CpzPMXdJ-ehonEhB_YwbvyaXZsA-0SpmHZtwPGhR-Ms5Sgqfp9lf5M-5_je4EKM_eOQ", "width": 720}], "place_id": "ChIJ-VQmOub90YURAYFT9jwdH6w", "plus_code": {"compound_code": "9W65+9G Mexico City", "global_code": "76F29W65+9G"}, "rating": 5, "reference": "ChIJ-VQmOub90YURAYFT9jwdH6w", "types": ["clothing_store", "point_of_interest", "store", "establishment"], "user_ratings_total": 1}, {"business_status": "OPERATIONAL", "formatted_address": "Av. Javier Rojo G\u00f3mez 66, San Pablo, Iztapalapa, 09360 Ciudad de M\u00e9xico, CDMX", "geometry": {"location": {"lat": 19.3591284, "lng": -99.0853533}, "viewport": {"northeast": {"lat": 19.36045852989272, "lng": -99.08396297010728}, "southwest": {"lat": 19.35775887010728, "lng": -99.08666262989273}}}, "icon": "https://maps.gstatic.com/mapfiles/place_api/icons/v1/png_71/shopping-71.png", "name": "El Rincon Vaquero", "opening_hours": {"open_now": false}, "photos": [{"height": 539, "html_attributions": ["<a href=\"https://maps.google.com/maps/contrib/107831386090970912524\">Fernanda Ortiz</a>"], "photo_reference": "CmRaAAAA6dqXknVubCeiI2gdTyaf5djG3QaifRAp-p_5DOwe8YA7e2oyb6x1WZiHitAXn4x89zq2brK-z4NyPqrGN3n9Mbemlmws-p7grq_dMVwQeHqt5mPUM7hgv8b3zUnt8hTbEhD5uXtWXjW0gLTxYCdIacjSGhTQ0dK7sfaDZSN2-hWs2nVe9K7D_g", "width": 960}], "place_id": "ChIJdWmFSO_90YURpdXI4a0c7kc", "plus_code": {"compound_code": "9W57+MV Mexico City", "global_code": "76F29W57+MV"}, "rating": 4.7, "reference": "ChIJdWmFSO_90YURpdXI4a0c7kc", "types": ["clothing_store", "point_of_interest", "store", "establishment"], "user_ratings_total": 18}]