[{"business_status": "OPERATIONAL", "formatted_address": "virgen del perpetuo socorro #197, Virgencitas, 57300 Nezahualc\u00f3yotl, M\u00e9x.", "geometry": {"location": {"lat": 19.4232502, "lng": -99.0295529}, "viewport": {"northeast": {"lat": 19.42461337989272, "lng": -99.02825047010728}, "southwest": {"lat": 19.42191372010728, "lng": -99.03095012989272}}}, "icon": "https://maps.gstatic.com/mapfiles/place_api/icons/v1/png_71/shopping-71.png", "name": "Great Camping", "opening_hours": {"open_now": true}, "photos": [{"height": 673, "html_attributions": ["<a href=\"https://maps.google.com/maps/contrib/106698127606201869883\">A Google User</a>"], "photo_reference": "CmRaAAAA0-eGJ5ScGXMuhccJLfOH40nX0CHeuvpD3LABne-rVb1OushoJTbVcYRsMzDz0Nj9ueKLku3cwaZx537HXCn61LhifmfPN4TOSoiGlIjElWvzXEe810E18Pvfi8-ajRiBEhDu0nGkCdK1MlthiHBF-skRGhSPNmHkBej4HF5biDZG-CIGS8sOBg", "width": 1200}], "place_id": "ChIJYcZUf7z80YUR8oKbF2CDUf8", "plus_code": {"compound_code": "CXFC+85 Ciudad Nezahualc\u00f3yotl, State of Mexico", "global_code": "76F2CXFC+85"}, "rating": 3.9, "reference": "ChIJYcZUf7z80YUR8oKbF2CDUf8", "types": ["campground", "lodging", "park", "point_of_interest", "store", "establishment"], "user_ratings_total": 32}, {"business_status": "OPERATIONAL", "formatted_address": "Av. R\u00edo Fr\u00edo 375 esq, Ote. 247-C, Agr\u00edcola Oriental, 08500 Ciudad de M\u00e9xico", "geometry": {"location": {"lat": 19.3857864, "lng": -99.0704581}, "viewport": {"northeast": {"lat": 19.38713687989272, "lng": -99.06911147010729}, "southwest": {"lat": 19.38443722010728, "lng": -99.07181112989272}}}, "icon": "https://maps.gstatic.com/mapfiles/place_api/icons/v1/png_71/camping-71.png", "name": "Coleman Mexico", "opening_hours": {"open_now": false}, "photos": [{"height": 500, "html_attributions": ["<a href=\"https://maps.google.com/maps/contrib/117641126448647778930\">A Google User</a>"], "photo_reference": "CmRaAAAAOa3I4MT069INTgbDIKHEOeDr9K8RL6XCNyrasTvvltev2DOJHE5PUOMdyizOnyHjMd_X9_dZ2mxtrq34L4aVYYapYFuyVh6Q2Qe67bojSec7rHXRDqkZtMcxK-S_gl_IEhDjUjMbvAZ0SF4__t5sxb3MGhTbS5OAu-rjqnNbgmCB78Y8p7RNTA", "width": 1024}], "place_id": "ChIJbzpAcS790YUR68czq959wQg", "plus_code": {"compound_code": "9WPH+8R Mexico City", "global_code": "76F29WPH+8R"}, "rating": 3.7, "reference": "ChIJbzpAcS790YUR68czq959wQg", "types": ["campground", "lodging", "park", "point_of_interest", "establishment"], "user_ratings_total": 3}, {"business_status": "OPERATIONAL", "formatted_address": "Heriberto Enr\u00edquez #210, M\u00e9xico Segunda Secci\u00f3n, 57620 Nezahualc\u00f3yotl, M\u00e9x.", "geometry": {"location": {"lat": 19.4077456, "lng": -99.0438501}, "viewport": {"northeast": {"lat": 19.40906162989272, "lng": -99.04242357010729}, "southwest": {"lat": 19.40636197010728, "lng": -99.04512322989274}}}, "icon": "https://maps.gstatic.com/mapfiles/place_api/icons/v1/png_71/camping-71.png", "name": "Campingadventur", "opening_hours": {"open_now": false}, "place_id": "ChIJnxtMacv90YURFS-NwwwCWF4", "plus_code": {"compound_code": "CX54+3F Ciudad Nezahualc\u00f3yotl, State of Mexico", "global_code": "76F2CX54+3F"}, "rating": 1, "reference": "ChIJnxtMacv90YURFS-NwwwCWF4", "types": ["campground", "car_repair", "lodging", "park", "point_of_interest", "store", "establishment"], "user_ratings_total": 1}, {"business_status": "OPERATIONAL", "formatted_address": "Porvenir, Las Arboledas, Tl\u00e1huac, 13457 Ciudad de M\u00e9xico, CDMX", "geometry": {"location": {"lat": 19.3089538, "lng": -99.05127829999999}, "viewport": {"northeast": {"lat": 19.31032272989272, "lng": -99.04995497010728}, "southwest": {"lat": 19.30762307010728, "lng": -99.05265462989273}}}, "icon": "https://maps.gstatic.com/mapfiles/place_api/icons/v1/png_71/camping-71.png", "name": "Peleteria", "place_id": "ChIJCwqN4v8DzoUR0kNz7ZkoXXc", "plus_code": {"compound_code": "8W5X+HF Mexico City", "global_code": "76F28W5X+HF"}, "rating": 0, "reference": "ChIJCwqN4v8DzoUR0kNz7ZkoXXc", "types": ["campground", "lodging", "park", "point_of_interest", "establishment"], "user_ratings_total": 0}, {"business_status": "OPERATIONAL", "formatted_address": "Los Echave, Mixcoac, Benito Ju\u00e1rez, 03910 Ciudad de M\u00e9xico, CDMX", "geometry": {"location": {"lat": 19.375257, "lng": -99.188676}, "viewport": {"northeast": {"lat": 19.37661292989272, "lng": -99.1873453701073}, "southwest": {"lat": 19.37391327010728, "lng": -99.19004502989273}}}, "icon": "https://maps.gstatic.com/mapfiles/place_api/icons/v1/png_71/camping-71.png", "name": "Aquatec SteriPEN", "place_id": "ChIJQbn2cof_0YURNd-FMUniCrk", "plus_code": {"compound_code": "9RG6+4G Mexico City", "global_code": "76F29RG6+4G"}, "rating": 0, "reference": "ChIJQbn2cof_0YURNd-FMUniCrk", "types": ["campground", "lodging", "park", "point_of_interest", "establishment"], "user_ratings_total": 0}, {"business_status": "OPERATIONAL", "formatted_address": "Letran Valle, Benito Juarez, 03650 Mexico City", "geometry": {"location": {"lat": 19.3750344, "lng": -99.15555649999999}, "viewport": {"northeast": {"lat": 19.37638232989272, "lng": -99.15419577010728}, "southwest": {"lat": 19.37368267010728, "lng": -99.15689542989273}}}, "icon": "https://maps.gstatic.com/mapfiles/place_api/icons/v1/png_71/camping-71.png", "name": "Canastas para PIC NIC Let's be FREE", "opening_hours": {"open_now": false}, "photos": [{"height": 1002, "html_attributions": ["<a href=\"https://maps.google.com/maps/contrib/116590936933460769105\">A Google User</a>"], "photo_reference": "CmRaAAAAD0f8aZXHwlxXXrBhINpf0dcqIDX8vEkPbGkDehwlQvIlzaAoNPT_weo5jiKEzld0Jhk2UPOI_ruvwV7DcTCp2bcXPhIPqD4r2jckP41bpCnGLAGOMQtVSlU77rln7qJoEhAd1x17ccRHMw8yGbMeIs9KGhSl1N1Gj7umd6uIrrdxYSfQ1elTmA", "width": 802}], "place_id": "ChIJ3-h5bdX90YURpzh266iIXPk", "plus_code": {"compound_code": "9RGV+2Q Mexico City", "global_code": "76F29RGV+2Q"}, "rating": 0, "reference": "ChIJ3-h5bdX90YURpzh266iIXPk", "types": ["campground", "lodging", "park", "point_of_interest", "establishment"], "user_ratings_total": 0}, {"business_status": "OPERATIONAL", "formatted_address": "06700, Sinaloa 23, Cuauht\u00e9moc, 06700 CDMX", "geometry": {"location": {"lat": 19.4214861, "lng": -99.16446429999999}, "viewport": {"northeast": {"lat": 19.42278747989272, "lng": -99.16310287010727}, "southwest": {"lat": 19.42008782010728, "lng": -99.1658025298927}}}, "icon": "https://maps.gstatic.com/mapfiles/place_api/icons/v1/png_71/camping-71.png", "name": "campingmx", "place_id": "ChIJFfYhPNf_0YURwkIBCasdKzQ", "plus_code": {"compound_code": "CRCP+H6 Mexico City", "global_code": "76F2CRCP+H6"}, "rating": 0, "reference": "ChIJFfYhPNf_0YURwkIBCasdKzQ", "types": ["campground", "lodging", "park", "point_of_interest", "establishment"], "user_ratings_total": 0}, {"business_status": "OPERATIONAL", "formatted_address": "Dakota 69, N\u00e1poles, Benito Ju\u00e1rez, 03810 Ciudad de M\u00e9xico, CDMX", "geometry": {"location": {"lat": 19.3970467, "lng": -99.17360579999999}, "viewport": {"northeast": {"lat": 19.39837107989272, "lng": -99.17221117010727}, "southwest": {"lat": 19.39567142010728, "lng": -99.17491082989272}}}, "icon": "https://maps.gstatic.com/mapfiles/place_api/icons/v1/png_71/camping-71.png", "name": "Operadora Time", "opening_hours": {"open_now": false}, "place_id": "ChIJh1FICW7_0YURkMYGoojb8TY", "plus_code": {"compound_code": "9RWG+RH Mexico City", "global_code": "76F29RWG+RH"}, "rating": 0, "reference": "ChIJh1FICW7_0YURkMYGoojb8TY", "types": ["campground", "lodging", "park", "point_of_interest", "establishment"], "user_ratings_total": 0}, {"business_status": "OPERATIONAL", "formatted_address": "Mat\u00edas Romero 413, Col del Valle Centro, Benito Ju\u00e1rez, 03100 Ciudad de M\u00e9xico, CDMX", "geometry": {"location": {"lat": 19.3799834, "lng": -99.1653655}, "viewport": {"northeast": {"lat": 19.38142957989272, "lng": -99.16399097010728}, "southwest": {"lat": 19.37872992010728, "lng": -99.16669062989273}}}, "icon": "https://maps.gstatic.com/mapfiles/place_api/icons/v1/png_71/camping-71.png", "name": "Blender Recreaci\u00f3n", "opening_hours": {"open_now": false}, "place_id": "ChIJLdI2maH_0YURKs0ql7CrINg", "plus_code": {"compound_code": "9RHM+XV Mexico City", "global_code": "76F29RHM+XV"}, "rating": 3, "reference": "ChIJLdI2maH_0YURKs0ql7CrINg", "types": ["campground", "travel_agency", "lodging", "park", "point_of_interest", "establishment"], "user_ratings_total": 2}, {"business_status": "OPERATIONAL", "formatted_address": "Av. Morelos 20, Colonia Centro, Centro, Cuauht\u00e9moc, 09750 Ciudad de M\u00e9xico, CDMX", "geometry": {"location": {"lat": 19.4319583, "lng": -99.14896639999999}, "viewport": {"northeast": {"lat": 19.43350397989272, "lng": -99.14758327010729}, "southwest": {"lat": 19.43080432010728, "lng": -99.15028292989273}}}, "icon": "https://maps.gstatic.com/mapfiles/place_api/icons/v1/png_71/camping-71.png", "name": "Hieleras y Termos Coleman", "place_id": "ChIJVVWRLyv_0YURWLv8a48uuQ8", "plus_code": {"compound_code": "CVJ2+QC Mexico City", "global_code": "76F2CVJ2+QC"}, "rating": 1, "reference": "ChIJVVWRLyv_0YURWLv8a48uuQ8", "types": ["campground", "lodging", "park", "point_of_interest", "establishment"], "user_ratings_total": 1}, {"business_status": "OPERATIONAL", "formatted_address": "C. San Jos\u00e9 3, San Isidro Ixhuatepec, 54197 Tlalnepantla de Baz, M\u00e9x.", "geometry": {"location": {"lat": 19.5293277, "lng": -99.09959669999999}, "viewport": {"northeast": {"lat": 19.53077547989272, "lng": -99.09837357010727}, "southwest": {"lat": 19.52807582010728, "lng": -99.10107322989272}}}, "icon": "https://maps.gstatic.com/mapfiles/place_api/icons/v1/png_71/camping-71.png", "name": "NAJ-KIN", "opening_hours": {"open_now": false}, "photos": [{"height": 2340, "html_attributions": ["<a href=\"https://maps.google.com/maps/contrib/113581098713113016464\">A Google User</a>"], "photo_reference": "CmRaAAAAa1-Esj29X1Rt_SLk-0T6TC2y25Hml7zq9-LUonZfQI_Em-Rh6xhZXodQhdfwXC4LgE1VR9AKQBUi8JpdH3Don5sV2_ZhP72-ovNdfFtQvhMy0TZ6xFGtBw-4X_q1KNI1EhBTEj1BJfuuD8JZuw-omKHfGhS_ZW0Q3M1stiQEod109bU4SiTikA", "width": 4160}], "place_id": "ChIJZ01zdgD60YUR1CqmGcRapPw", "plus_code": {"compound_code": "GWH2+P5 Tlalnepantla de Baz, State of Mexico", "global_code": "76F2GWH2+P5"}, "rating": 3.6, "reference": "ChIJZ01zdgD60YUR1CqmGcRapPw", "types": ["campground", "lodging", "park", "point_of_interest", "establishment"], "user_ratings_total": 21}, {"business_status": "OPERATIONAL", "formatted_address": "Av, Valle de Las Monjas S/N, San Mateo Tlaltenango, Cuajimalpa de Morelos, 05600 Ciudad de M\u00e9xico, CDMX", "geometry": {"location": {"lat": 19.3314934, "lng": -99.30163399999999}, "viewport": {"northeast": {"lat": 19.33280137989272, "lng": -99.30023807010727}, "southwest": {"lat": 19.33010172010728, "lng": -99.30293772989272}}}, "icon": "https://maps.gstatic.com/mapfiles/place_api/icons/v1/png_71/camping-71.png", "name": "Rancho Los Laureles", "photos": [{"height": 3120, "html_attributions": ["<a href=\"https://maps.google.com/maps/contrib/112302520040606381321\">Sand Anzutl</a>"], "photo_reference": "CmRaAAAAGCtj987McA5aCF29hlf-H1FvsF7kPyCxyQTc1-NeDJKN3nu6owEe_5kQh1QefzSCqC6y1rHs_zpwTpqIpeKRRKzgprvdBdo0sHEitqzQVoC_cqnYr_2yoY5n9KeWjLQNEhB-NsNWYIZCCVQ5_MMp9Q5vGhSRLcJNRyUJPrWUCvsXJ8bpDa0uxw", "width": 4160}], "place_id": "ChIJAyli7lsH0oURJ1xFMx-FJmw", "plus_code": {"compound_code": "8MJX+H8 Mexico City", "global_code": "76F28MJX+H8"}, "rating": 4.5, "reference": "ChIJAyli7lsH0oURJ1xFMx-FJmw", "types": ["campground", "lodging", "park", "point_of_interest", "establishment"], "user_ratings_total": 76}, {"business_status": "OPERATIONAL", "formatted_address": "Eje 1 Nte. 259 Modulo 9, Primer Nivel, Buenavista, Cuauht\u00e9moc, 06350 CDMX", "geometry": {"location": {"lat": 19.4493321, "lng": -99.15178379999999}, "viewport": {"northeast": {"lat": 19.45073272989272, "lng": -99.15076962010728}, "southwest": {"lat": 19.44803307010728, "lng": -99.15346927989272}}}, "icon": "https://maps.gstatic.com/mapfiles/place_api/icons/v1/png_71/camping-71.png", "name": "Toolcamping Forum Buenavista", "place_id": "ChIJDYeAkmb50YUREYeNRTBPvj0", "plus_code": {"compound_code": "CRXX+P7 Colonia Buenavista, Mexico City", "global_code": "76F2CRXX+P7"}, "rating": 0, "reference": "ChIJDYeAkmb50YUREYeNRTBPvj0", "types": ["campground", "lodging", "park", "point_of_interest", "establishment"], "user_ratings_total": 0}, {"business_status": "OPERATIONAL", "formatted_address": "Melchor Ocampo #193 Modulo, Ver\u00f3nica Anz\u00fares, Miguel Hidalgo, 11300 CDMX", "geometry": {"location": {"lat": 19.4353234, "lng": -99.1711742}, "viewport": {"northeast": {"lat": 19.43658232989272, "lng": -99.17004177010729}, "southwest": {"lat": 19.43388267010728, "lng": -99.17274142989272}}}, "icon": "https://maps.gstatic.com/mapfiles/place_api/icons/v1/png_71/camping-71.png", "name": "Toolcamping Galerias Estrellas", "place_id": "ChIJrR6qfUz50YUREYJA1z2MKo4", "plus_code": {"compound_code": "CRPH+4G Ver\u00f3nica Anz\u00fares, Mexico City", "global_code": "76F2CRPH+4G"}, "rating": 0, "reference": "ChIJrR6qfUz50YUREYJA1z2MKo4", "types": ["campground", "lodging", "park", "point_of_interest", "establishment"], "user_ratings_total": 0}, {"business_status": "OPERATIONAL", "formatted_address": "Av. Hidalgo 31, Luis Echeverria, 54753 Cuautitl\u00e1n Izcalli, M\u00e9x.", "geometry": {"location": {"lat": 19.6177765, "lng": -99.19627679999999}, "viewport": {"northeast": {"lat": 19.61915367989272, "lng": -99.19492017010728}, "southwest": {"lat": 19.61645402010728, "lng": -99.19761982989272}}}, "icon": "https://maps.gstatic.com/mapfiles/place_api/icons/v1/png_71/camping-71.png", "name": "Farmacia Ocampo", "opening_hours": {"open_now": true}, "photos": [{"height": 1600, "html_attributions": ["<a href=\"https://maps.google.com/maps/contrib/106511581845579308743\">A Google User</a>"], "photo_reference": "CmRaAAAASBZc7KUafHVQ_1ileHK78u-WhrjvTX1uYTYOTO5UbxTDrwrrWj9y5RHYh5ShnAEFCP2qKx1KjuDvSm8cd7pZzLUL1LVl8FOhVT2qGEdBSLHPmB7ihqpVcqierImNeP2cEhDos8g-ieqMOFfJ9Y0Q79FKGhT4B3fgbCTdxUXhj4f2Ve6B2ENu3w", "width": 1200}], "place_id": "ChIJ8ebHDpkd0oUR30eqNbUXmF8", "plus_code": {"compound_code": "JR93+4F Cuautitl\u00e1n Izcalli, State of Mexico", "global_code": "76F2JR93+4F"}, "rating": 0, "reference": "ChIJ8ebHDpkd0oUR30eqNbUXmF8", "types": ["campground", "lodging", "park", "point_of_interest", "establishment"], "user_ratings_total": 0}, {"business_status": "OPERATIONAL", "formatted_address": "Calle Tenopalli, Artesanos, 56334 Ciudad de M\u00e9xico, M\u00e9x.", "geometry": {"location": {"lat": 19.4351568, "lng": -98.9474797}, "viewport": {"northeast": {"lat": 19.43650637989272, "lng": -98.94611967010728}, "southwest": {"lat": 19.43380672010727, "lng": -98.94881932989271}}}, "icon": "https://maps.gstatic.com/mapfiles/place_api/icons/v1/png_71/camping-71.png", "name": "Micropigmentaci\u00f3n Chimalhuac\u00e1n", "opening_hours": {"open_now": false}, "photos": [{"height": 912, "html_attributions": ["<a href=\"https://maps.google.com/maps/contrib/106254850192637100445\">A Google User</a>"], "photo_reference": "CmRaAAAA4OJYx0cHdtV1Y_UUAj3nFx2QsjIFCm7RwL24w_ZXLlZqoC5qCtlQ07Pgb20Uoju0tyJ1FnqPTM6NuSwxL3AQn9Y5SQxWTsWytrBTT6QL0nP9_wiHM6Ro9wbdaOsBYFGYEhD9TZmsFZrc_KGrq8i5quz9GhR8b7uqYTwYJ12LIHlPt2o4tQmgsg", "width": 1024}], "place_id": "ChIJQ7zfW4fj0YUR--Ww0-nY65Q", "plus_code": {"compound_code": "C3P3+32 Mexico City", "global_code": "76F3C3P3+32"}, "rating": 5, "reference": "ChIJQ7zfW4fj0YUR--Ww0-nY65Q", "types": ["campground", "lodging", "park", "point_of_interest", "establishment"], "user_ratings_total": 2}, {"business_status": "OPERATIONAL", "formatted_address": "AVENIDA DE LOS GALLOS NUM. 8 CARRETERA PANORAMICA, Carr. Picacho-Ajusco KM. 36.5, Ampliacion San Miguel Ajusco, Tlalpan, 14710 Ciudad de M\u00e9xico, CDMX", "geometry": {"location": {"lat": 19.2104961, "lng": -99.2270752}, "viewport": {"northeast": {"lat": 19.21184127989272, "lng": -99.22573962010728}, "southwest": {"lat": 19.20914162010728, "lng": -99.22843927989273}}}, "icon": "https://maps.gstatic.com/mapfiles/place_api/icons/v1/png_71/camping-71.png", "name": "ECOCAMP AJUSCO", "opening_hours": {"open_now": true}, "photos": [{"height": 1656, "html_attributions": ["<a href=\"https://maps.google.com/maps/contrib/105363224097897999480\">ECOCAMP AJUSCO</a>"], "photo_reference": "CmRaAAAAbVAnE7vUGPOvd49F-BRpfIV_-8tshF9Dj_CisiSAQorOEKNH96J3JWHXYho0vY0X7yD2ijZxbyZ8BeUI2zsmFppyzIgJ46TQUPpCx5_ZK_8wvBq4ofZRF0Q7fdm2zYjxEhCB4Cba2Z6XahmKn2kEm4owGhTuujD7GqIqaB3uDjW2w9uNfBG8qg", "width": 2500}], "place_id": "ChIJ-5w7SrH9zYUROXbaqf3TNn0", "plus_code": {"compound_code": "6Q6F+55 Mexico City", "global_code": "76F26Q6F+55"}, "rating": 4.7, "reference": "ChIJ-5w7SrH9zYUROXbaqf3TNn0", "types": ["campground", "lodging", "park", "point_of_interest", "establishment"], "user_ratings_total": 123}, {"business_status": "OPERATIONAL", "formatted_address": "Camino a las granjas #31 Malacaxco San Pedro Atocp\u00e1n, Milpa Alta, Ciudad de M\u00e9xico, CDMX", "geometry": {"location": {"lat": 19.1962064, "lng": -99.0650899}, "viewport": {"northeast": {"lat": 19.19766627989272, "lng": -99.06364377010729}, "southwest": {"lat": 19.19496662010727, "lng": -99.06634342989273}}}, "icon": "https://maps.gstatic.com/mapfiles/place_api/icons/v1/png_71/camping-71.png", "name": "Rancho Kalyman", "opening_hours": {"open_now": true}, "photos": [{"height": 3024, "html_attributions": ["<a href=\"https://maps.google.com/maps/contrib/112739468999213155490\">odin parra</a>"], "photo_reference": "CmRaAAAA2V7BbjihV1P6FTsnqUhkGn6iqW4_4vR8ejtiwAsG-VDY40W_k6HQyzarNUAViQvaVOff5DUmQTvZzhjwWJfW7gl3wTkla1T1uLsAF2ZV5VPHSntH7Kvd36UX7v_YM7FjEhBcVuNZb8s4AjVBXot-EdOfGhR7AczXu0_sXzAv5DlLY1gYCCn3Ig", "width": 4032}], "place_id": "ChIJuQcM-CgFzoUR2gFDfC9Nj54", "plus_code": {"compound_code": "5WWM+FX Mexico City", "global_code": "76F25WWM+FX"}, "rating": 5, "reference": "ChIJuQcM-CgFzoUR2gFDfC9Nj54", "types": ["campground", "lodging", "park", "point_of_interest", "establishment"], "user_ratings_total": 1}, {"business_status": "OPERATIONAL", "formatted_address": "Hocaba, Pedregal de San Nicol\u00e1s 4ta Secc, Tlalpan, 14100 Ciudad de M\u00e9xico, CDMX", "geometry": {"location": {"lat": 19.281135, "lng": -99.2350417}, "viewport": {"northeast": {"lat": 19.28245352989272, "lng": -99.23368812010727}, "southwest": {"lat": 19.27975387010728, "lng": -99.23638777989272}}}, "icon": "https://maps.gstatic.com/mapfiles/place_api/icons/v1/png_71/camping-71.png", "name": "Logo", "place_id": "ChIJ_ZarI1X_zYURN3EJLeuomWQ", "plus_code": {"compound_code": "7QJ7+FX Mexico City", "global_code": "76F27QJ7+FX"}, "rating": 0, "reference": "ChIJ_ZarI1X_zYURN3EJLeuomWQ", "types": ["campground", "lodging", "park", "point_of_interest", "establishment"], "user_ratings_total": 0}, {"business_status": "OPERATIONAL", "formatted_address": "San fernando, Huixquilucan, de degoyado, 52765 M\u00e9x.", "geometry": {"location": {"lat": 19.3865855, "lng": -99.2819297}, "viewport": {"northeast": {"lat": 19.38790387989272, "lng": -99.28057822010727}, "southwest": {"lat": 19.38520422010728, "lng": -99.28327787989272}}}, "icon": "https://maps.gstatic.com/mapfiles/place_api/icons/v1/png_71/camping-71.png", "name": "La ventanita de Pacoa", "photos": [{"height": 2560, "html_attributions": ["<a href=\"https://maps.google.com/maps/contrib/103082755658910813113\">A Google User</a>"], "photo_reference": "CmRaAAAAsieAVQ9fVP4gnyKOxUHJhvzzRBboBeUJdl2zb-mfLP-8-piK3c4J8COQptB3QNKH7vzQl_TYXEnm8RGUPXbwF0i_f76Dkwg1AZnoZ51vVIh9TRci-puct6hhaRJwElKUEhCGQVibbBHB3UejcnmoD-xmGhTgv2NhfZcQHExS8cKzKKD44yJIPw", "width": 1920}], "place_id": "ChIJd7op15UH0oURRRXfPT_LD4I", "plus_code": {"compound_code": "9PP9+J6 Naucalpan de Ju\u00e1rez, State of Mexico", "global_code": "76F29PP9+J6"}, "rating": 0, "reference": "ChIJd7op15UH0oURRRXfPT_LD4I", "types": ["campground", "lodging", "park", "point_of_interest", "establishment"], "user_ratings_total": 0}]