[{"business_status": "OPERATIONAL", "formatted_address": "Callej\u00f3n Estrella 30, Ampliacion Bellavista, Iztapalapa, 09860 Ciudad de M\u00e9xico, CDMX", "geometry": {"location": {"lat": 19.3574867, "lng": -99.09030390000001}, "viewport": {"northeast": {"lat": 19.35884332989272, "lng": -99.08897872010728}, "southwest": {"lat": 19.35614367010728, "lng": -99.09167837989271}}}, "icon": "https://maps.gstatic.com/mapfiles/place_api/icons/v1/png_71/generic_business-71.png", "name": "Data Air Electric", "place_id": "ChIJV2JL9eX90YURB7U3bgwn_wY", "plus_code": {"compound_code": "9W45+XV Mexico City", "global_code": "76F29W45+XV"}, "rating": 5, "reference": "ChIJV2JL9eX90YURB7U3bgwn_wY", "types": ["electrician", "point_of_interest", "establishment"], "user_ratings_total": 1}, {"business_status": "OPERATIONAL", "formatted_address": "Privada Ermita Iztapalapa 750, Granjas San Antonio, Iztapalapa, 09070 Ciudad de M\u00e9xico, CDMX", "geometry": {"location": {"lat": 19.3556051, "lng": -99.10033349999999}, "viewport": {"northeast": {"lat": 19.35689382989272, "lng": -99.09868817010727}, "southwest": {"lat": 19.35419417010728, "lng": -99.10138782989272}}}, "icon": "https://maps.gstatic.com/mapfiles/place_api/icons/v1/png_71/generic_business-71.png", "name": "El Buho Cerrajer\u00eda Plomer\u00eda y Electricidad", "place_id": "ChIJn0DuYeL90YURN_7PkcLiNLA", "plus_code": {"compound_code": "9V4X+6V Mexico City", "global_code": "76F29V4X+6V"}, "rating": 3, "reference": "ChIJn0DuYeL90YURN_7PkcLiNLA", "types": ["electrician", "point_of_interest", "establishment"], "user_ratings_total": 2}, {"business_status": "OPERATIONAL", "formatted_address": "Azucena Mz 4 Lt 25 Los Angeles, Iztapalapa, 09830 CDMX", "geometry": {"location": {"lat": 19.3466816, "lng": -99.07597039999999}, "viewport": {"northeast": {"lat": 19.34802567989272, "lng": -99.07457777010727}, "southwest": {"lat": 19.34532602010728, "lng": -99.07727742989272}}}, "icon": "https://maps.gstatic.com/mapfiles/place_api/icons/v1/png_71/generic_business-71.png", "name": "Servicio El\u00e9ctrico Centeno", "opening_hours": {"open_now": false}, "place_id": "ChIJVyIMmYv90YURrcryVut7UJM", "plus_code": {"compound_code": "8WWF+MJ Mexico City", "global_code": "76F28WWF+MJ"}, "rating": 5, "reference": "ChIJVyIMmYv90YURrcryVut7UJM", "types": ["electrician", "point_of_interest", "establishment"], "user_ratings_total": 1}, {"business_status": "OPERATIONAL", "formatted_address": "Frente Calle Azteca, Camino Real a San Lorenzo Mz 1 Lt 7, Iztapalapa, 09830 Ciudad de M\u00e9xico, CDMX", "geometry": {"location": {"lat": 19.3513602, "lng": -99.0797429}, "viewport": {"northeast": {"lat": 19.35268462989272, "lng": -99.07843767010729}, "southwest": {"lat": 19.34998497010728, "lng": -99.08113732989273}}}, "icon": "https://maps.gstatic.com/mapfiles/place_api/icons/v1/png_71/generic_business-71.png", "name": "Serv. Electronico", "place_id": "ChIJuSgu0PL90YURlnotSxem6dY", "plus_code": {"compound_code": "9W2C+G4 Mexico City", "global_code": "76F29W2C+G4"}, "rating": 0, "reference": "ChIJuSgu0PL90YURlnotSxem6dY", "types": ["electrician", "point_of_interest", "establishment"], "user_ratings_total": 0}, {"business_status": "OPERATIONAL", "formatted_address": "Entre Calle Miguel Hidalgo y Av. Jalisco, Agust\u00edn Melgar 2, Guadalupe del Moral, Iztapalapa, 09300 Ciudad de M\u00e9xico, CDMX", "geometry": {"location": {"lat": 19.3707335, "lng": -99.07651299999999}, "viewport": {"northeast": {"lat": 19.37207392989272, "lng": -99.07513832010727}, "southwest": {"lat": 19.36937427010728, "lng": -99.07783797989272}}}, "icon": "https://maps.gstatic.com/mapfiles/place_api/icons/v1/png_71/generic_business-71.png", "name": "Plomeria y Electricidad", "place_id": "ChIJXw8GKL_90YURk_tuj6G4DT4", "plus_code": {"compound_code": "9WCF+79 Mexico City", "global_code": "76F29WCF+79"}, "rating": 0, "reference": "ChIJXw8GKL_90YURk_tuj6G4DT4", "types": ["electrician", "point_of_interest", "establishment"], "user_ratings_total": 0}, {"business_status": "OPERATIONAL", "formatted_address": "Local No. 20 Nautla y esquina, Calle Cerezo, San Juan Xalpa, Iztapalapa, 09850 CDMX", "geometry": {"location": {"lat": 19.3349678, "lng": -99.08258470000001}, "viewport": {"northeast": {"lat": 19.33635057989273, "lng": -99.08143742010728}, "southwest": {"lat": 19.33365092010729, "lng": -99.08413707989273}}}, "icon": "https://maps.gstatic.com/mapfiles/place_api/icons/v1/png_71/generic_business-71.png", "name": "Servicio El\u00e9ctrico Mendoza", "opening_hours": {"open_now": true}, "photos": [{"height": 2560, "html_attributions": ["<a href=\"https://maps.google.com/maps/contrib/115002946355072883731\">dario mendoza huerta</a>"], "photo_reference": "CmRaAAAAeMN7rm_AzwQFYazwKFFDb6nqHdqNI8C4tj49KrQvfDaIlE4x0BmRLGCrXe9zPujfUoLC5bc9xFDlfbpOlut7zRUrvcFnk0GnbmdXCJgbPin_QrWIlQTwn7vPH0nSj2UFEhAfKscjB4BTYkpKp3VwdHvjGhQ1eOcSevLCp-n6XhHzR5A5D9PuQw", "width": 1536}], "place_id": "ChIJv-VNcgwCzoURd8sq3XtBb4U", "plus_code": {"compound_code": "8WM8+XX San Juan Xalpa, Mexico City", "global_code": "76F28WM8+XX"}, "rating": 5, "reference": "ChIJv-VNcgwCzoURd8sq3XtBb4U", "types": ["electrician", "point_of_interest", "establishment"], "user_ratings_total": 1}, {"business_status": "OPERATIONAL", "formatted_address": "Av. Toltecas 99, Sta B\u00e1rbara, Iztapalapa, 09000 Ciudad de M\u00e9xico, CDMX", "geometry": {"location": {"lat": 19.3589129, "lng": -99.1045154}, "viewport": {"northeast": {"lat": 19.36027657989272, "lng": -99.10320587010729}, "southwest": {"lat": 19.35757692010728, "lng": -99.10590552989274}}}, "icon": "https://maps.gstatic.com/mapfiles/place_api/icons/v1/png_71/generic_business-71.png", "name": "plomero y electricista", "opening_hours": {"open_now": true}, "place_id": "ChIJpUOnXCb_0YURpw4y0BrB-H8", "plus_code": {"compound_code": "9V5W+H5 Mexico City", "global_code": "76F29V5W+H5"}, "rating": 5, "reference": "ChIJpUOnXCb_0YURpw4y0BrB-H8", "types": ["electrician", "point_of_interest", "establishment"], "user_ratings_total": 2}, {"business_status": "OPERATIONAL", "formatted_address": "Escalona, Cerro de la Estrella, Iztapalapa, 09860 Ciudad de M\u00e9xico, CDMX", "geometry": {"location": {"lat": 19.3245585, "lng": -99.07653959999999}, "viewport": {"northeast": {"lat": 19.32590307989272, "lng": -99.07515687010728}, "southwest": {"lat": 19.32320342010728, "lng": -99.07785652989271}}}, "icon": "https://maps.gstatic.com/mapfiles/place_api/icons/v1/png_71/generic_business-71.png", "name": "Electricista profesional J.S.", "opening_hours": {"open_now": false}, "photos": [{"height": 585, "html_attributions": ["<a href=\"https://maps.google.com/maps/contrib/112752732464655628627\">A Google User</a>"], "photo_reference": "CmRaAAAABZ47b40bSIBak0OuXlhrWW3p8ORnpf70FG624hv5oSwetAIqX36a8tp0vV3CsGqr5czyaYwt4Ot7iuuPp79uwtTQUWs9s3WHxgigfoD9ipY2W8rcnOvUc4kQ47xdAMiTEhCLOtsLoGmzqiLi6fmbCE0xGhQ6QHdX_FkQTcgj02_X5JUKY5JjcA", "width": 1040}], "place_id": "ChIJdwiNudUDzoURBRYjqYGdbgM", "plus_code": {"compound_code": "8WFF+R9 Cerro de la Estrella, Mexico City", "global_code": "76F28WFF+R9"}, "rating": 5, "reference": "ChIJdwiNudUDzoURBRYjqYGdbgM", "types": ["electrician", "point_of_interest", "establishment"], "user_ratings_total": 14}, {"business_status": "OPERATIONAL", "formatted_address": "2a. Cerrada Carril 30, 2da Amp San Miguel, Iztapalapa, 09360 Ciudad de M\u00e9xico, CDMX", "geometry": {"location": {"lat": 19.3518893, "lng": -99.07143909999999}, "viewport": {"northeast": {"lat": 19.35325237989272, "lng": -99.07014912010727}, "southwest": {"lat": 19.35055272010728, "lng": -99.07284877989272}}}, "icon": "https://maps.gstatic.com/mapfiles/place_api/icons/v1/png_71/generic_business-71.png", "name": "Ofisinergia", "place_id": "ChIJ_8-joyP90YURP-QofujawJQ", "plus_code": {"compound_code": "9W2H+QC Mexico City", "global_code": "76F29W2H+QC"}, "rating": 5, "reference": "ChIJ_8-joyP90YURP-QofujawJQ", "types": ["electrician", "point_of_interest", "establishment"], "user_ratings_total": 1}, {"business_status": "OPERATIONAL", "formatted_address": "Pastores 65, Santa Isabel Industrial, Iztapalapa, 09820 Ciudad de M\u00e9xico, CDMX", "geometry": {"location": {"lat": 19.3540396, "lng": -99.1035618}, "viewport": {"northeast": {"lat": 19.35544607989273, "lng": -99.10220107010728}, "southwest": {"lat": 19.35274642010728, "lng": -99.10490072989272}}}, "icon": "https://maps.gstatic.com/mapfiles/place_api/icons/v1/png_71/generic_business-71.png", "name": "Tecnolog\u00eda Regular M\u00e9xico, S.A. De C.V.", "opening_hours": {"open_now": false}, "place_id": "ChIJoTkQXwj-0YURxp5K-foLXow", "plus_code": {"compound_code": "9V3W+JH Mexico City", "global_code": "76F29V3W+JH"}, "rating": 5, "reference": "ChIJoTkQXwj-0YURxp5K-foLXow", "types": ["electrician", "point_of_interest", "establishment"], "user_ratings_total": 1}, {"business_status": "OPERATIONAL", "formatted_address": "Calle Aquiles Serd\u00e1n 517, Zona Urbana Ejidal Santa Mar\u00eda Aztahuacan, Iztapalapa, 09570 Ciudad de M\u00e9xico, CDMX", "geometry": {"location": {"lat": 19.3575929, "lng": -99.0344385}, "viewport": {"northeast": {"lat": 19.35893577989272, "lng": -99.03304602010726}, "southwest": {"lat": 19.35623612010728, "lng": -99.03574567989271}}}, "icon": "https://maps.gstatic.com/mapfiles/place_api/icons/v1/png_71/generic_business-71.png", "name": "Alumbrado y Dise\u00f1o El\u00e9ctrico S.A. de C.V.", "place_id": "ChIJ_Zr-q0L90YURIyWSgvrEfso", "plus_code": {"compound_code": "9X58+26 Mexico City", "global_code": "76F29X58+26"}, "rating": 0, "reference": "ChIJ_Zr-q0L90YURIyWSgvrEfso", "types": ["electrician", "point_of_interest", "establishment"], "user_ratings_total": 0}, {"business_status": "OPERATIONAL", "formatted_address": "Cto Interior Avenida R\u00edo Churubusco 775, INFONAVIT Iztacalco, Iztacalco, 08900 Ciudad de M\u00e9xico, CDMX", "geometry": {"location": {"lat": 19.3839071, "lng": -99.10160909999999}, "viewport": {"northeast": {"lat": 19.38522412989272, "lng": -99.09998257010727}, "southwest": {"lat": 19.38252447010727, "lng": -99.10268222989272}}}, "icon": "https://maps.gstatic.com/mapfiles/place_api/icons/v1/png_71/generic_business-71.png", "name": "INSTALACIONES ELECTRICAS", "opening_hours": {"open_now": false}, "place_id": "ChIJhWZvidX90YUR1N4jzKNidBE", "plus_code": {"compound_code": "9VMX+H9 Mexico City", "global_code": "76F29VMX+H9"}, "rating": 0, "reference": "ChIJhWZvidX90YUR1N4jzKNidBE", "types": ["electrician", "point_of_interest", "establishment"], "user_ratings_total": 0}, {"business_status": "OPERATIONAL", "formatted_address": "Av. San Rafael Atlixco 157, Guadalupe del Moral, Iztapalapa, 09300 Ciudad de M\u00e9xico, CDMX", "geometry": {"location": {"lat": 19.3726476, "lng": -99.0750193}, "viewport": {"northeast": {"lat": 19.37399922989272, "lng": -99.07363487010728}, "southwest": {"lat": 19.37129957010728, "lng": -99.07633452989273}}}, "icon": "https://maps.gstatic.com/mapfiles/place_api/icons/v1/png_71/generic_business-71.png", "name": "Servicio Quintero", "opening_hours": {"open_now": false}, "photos": [{"height": 1536, "html_attributions": ["<a href=\"https://maps.google.com/maps/contrib/104409460761707666624\">A Google User</a>"], "photo_reference": "CmRaAAAAM5o36rmSDTkrnk3H_qjTRZ6XvUqtOV-NJc_GRvgJrBWx00ESXG1ksmDXhUDPJXkTIhKtVpizEuivvMy0CJwofsMHeqswS0Z1mGNqDvkj0d6Hg1eBQiF8jmEydCh5fb87EhBFSLlsR-AnAjTwCUvj-l0fGhRennuDiJ5dmCxq1nj4SYc5ZrR3FQ", "width": 2560}], "place_id": "ChIJww5fQLn90YURC2kLxWAVtPM", "plus_code": {"compound_code": "9WFF+3X Mexico City", "global_code": "76F29WFF+3X"}, "rating": 4, "reference": "ChIJww5fQLn90YURC2kLxWAVtPM", "types": ["electrician", "plumber", "point_of_interest", "establishment"], "user_ratings_total": 3}, {"business_status": "OPERATIONAL", "formatted_address": "Lucio Blanco Mz20 Lt5 Local 2, Francisco Villa, 09720 Iztapalapa, CDMX", "geometry": {"location": {"lat": 19.338404, "lng": -99.057733}, "viewport": {"northeast": {"lat": 19.33974617989272, "lng": -99.05642927010729}, "southwest": {"lat": 19.33704652010728, "lng": -99.05912892989272}}}, "icon": "https://maps.gstatic.com/mapfiles/place_api/icons/v1/png_71/generic_business-71.png", "name": "Plomer\u00eda y Electricidad en General", "opening_hours": {"open_now": false}, "place_id": "ChIJ8QI-GH4CzoURwKD3v7dU0-c", "plus_code": {"compound_code": "8WQR+9W Mexico City", "global_code": "76F28WQR+9W"}, "rating": 0, "reference": "ChIJ8QI-GH4CzoURwKD3v7dU0-c", "types": ["electrician", "point_of_interest", "store", "establishment"], "user_ratings_total": 0}, {"business_status": "OPERATIONAL", "formatted_address": "Calle Ote. 245 #373, Agr\u00edcola Oriental, Iztacalco, 08500 Ciudad de M\u00e9xico, CDMX", "geometry": {"location": {"lat": 19.3911377, "lng": -99.0716875}, "viewport": {"northeast": {"lat": 19.39247027989272, "lng": -99.07025752010729}, "southwest": {"lat": 19.38977062010727, "lng": -99.07295717989273}}}, "icon": "https://maps.gstatic.com/mapfiles/place_api/icons/v1/png_71/generic_business-71.png", "name": "Plomeria y Electricidad de Alta Calidad Proyectos de Gas Hidr\u00e1ulicos Sanitarios y El\u00e9ctricos Aguilar", "opening_hours": {"open_now": true}, "photos": [{"height": 423, "html_attributions": ["<a href=\"https://maps.google.com/maps/contrib/108788295256362603034\">A Google User</a>"], "photo_reference": "CmRaAAAAhrxafryTFGo4vL_oefy5GHeMYrcP5cjizctqR6B67IJGi-e6QGlCJpMfX5upKOH-LmJ2LKj7buwylG2hnZUMOwt1tX2NwSLIZAKMvvpS9f6zDkP_9X05QgKC3onFn73KEhB-w--eN4MbLiB9khyONK9NGhTNKpiGSWz1Zu7yreajI9eQmPsXJQ", "width": 564}], "place_id": "ChIJ8cqm6Ez80YUR8u7GzhQiDWg", "plus_code": {"compound_code": "9WRH+F8 Mexico City", "global_code": "76F29WRH+F8"}, "rating": 1, "reference": "ChIJ8cqm6Ez80YUR8u7GzhQiDWg", "types": ["electrician", "point_of_interest", "establishment"], "user_ratings_total": 1}, {"business_status": "OPERATIONAL", "formatted_address": "Agust\u00edn Melgar 140, Guadalupe del Moral, Iztapalapa, 09300 Ciudad de M\u00e9xico, CDMX", "geometry": {"location": {"lat": 19.3677, "lng": -99.077708}, "viewport": {"northeast": {"lat": 19.36905952989272, "lng": -99.07638312010728}, "southwest": {"lat": 19.36635987010728, "lng": -99.07908277989273}}}, "icon": "https://maps.gstatic.com/mapfiles/place_api/icons/v1/png_71/generic_business-71.png", "name": "Setma & Com - Servicios T\u00e9cnicos, Manufacturas y Comercializaci\u00f3n.", "opening_hours": {"open_now": false}, "photos": [{"height": 720, "html_attributions": ["<a href=\"https://maps.google.com/maps/contrib/104793998573841551425\">Setma &amp; Com</a>"], "photo_reference": "CmRaAAAAPQIiYyJMgaCs348ZkicbwNMDVAHNUAfLK5o1MWqI9CIm3UY6TLpnG2J4XN20elM8SiUvQQuRlrJnK-z3yTe0ErUJl9PQdJl__3DEg-zWOfG8NPDu40MkjOwXGSA1pi3FEhDV1bGIVA5Q6JRDJnH4eSwlGhR-V-4ajRWnLVUJAanSrpQoo2Cw1Q", "width": 960}], "place_id": "ChIJa8k1Ib_90YURUgAj26Nu6U8", "plus_code": {"compound_code": "9W9C+3W Mexico City", "global_code": "76F29W9C+3W"}, "rating": 4.8, "reference": "ChIJa8k1Ib_90YURUgAj26Nu6U8", "types": ["electrician", "point_of_interest", "establishment"], "user_ratings_total": 10}, {"business_status": "OPERATIONAL", "formatted_address": "Prol Cerezo 1, San Juan Xalpa, Iztapalapa, 09850 Ciudad de M\u00e9xico, CDMX", "geometry": {"location": {"lat": 19.3317499, "lng": -99.0861096}, "viewport": {"northeast": {"lat": 19.33309902989272, "lng": -99.08475557010726}, "southwest": {"lat": 19.33039937010728, "lng": -99.08745522989271}}}, "icon": "https://maps.gstatic.com/mapfiles/place_api/icons/v1/png_71/generic_business-71.png", "name": "Grupo Cerezo", "opening_hours": {"open_now": true}, "photos": [{"height": 632, "html_attributions": ["<a href=\"https://maps.google.com/maps/contrib/105161358185732480095\">A Google User</a>"], "photo_reference": "CmRaAAAAbjDzqKzBF8tlb00qPBWUKb0buf0RJVP3nVkA38OwvH7gd6TxHx_Fp39iatS4D3SySspHvBWtfz36pIcrGYT4t78l-YuxCg5190RXEQiXdzZz34IXU6EKkoLpEKUPemibEhA2wSAaEi2qddJDa7GZY0bbGhSKl3nYvjUfgHPhXJYLtuySvNF00A", "width": 474}], "place_id": "ChIJETyAag4CzoURUnkIDgrPXHo", "plus_code": {"compound_code": "8WJ7+MH Mexico City", "global_code": "76F28WJ7+MH"}, "rating": 5, "reference": "ChIJETyAag4CzoURUnkIDgrPXHo", "types": ["electrician", "point_of_interest", "establishment"], "user_ratings_total": 2}, {"business_status": "OPERATIONAL", "formatted_address": "Calle Porfirio D\u00edaz #6 bis, San Lucas, 09000 Iztapalapa", "geometry": {"location": {"lat": 19.356842, "lng": -99.097892}, "viewport": {"northeast": {"lat": 19.35818402989273, "lng": -99.09653672010727}, "southwest": {"lat": 19.35548437010728, "lng": -99.09923637989272}}}, "icon": "https://maps.gstatic.com/mapfiles/place_api/icons/v1/png_71/generic_business-71.png", "name": "Reparaci\u00f3n E Instalaci\u00f3n De Auto Est\u00e9reo", "place_id": "ChIJMfjfueP90YURZ7DSVidppP4", "plus_code": {"compound_code": "9W42+PR Mexico City", "global_code": "76F29W42+PR"}, "rating": 0, "reference": "ChIJMfjfueP90YURZ7DSVidppP4", "types": ["electrician", "point_of_interest", "establishment"], "user_ratings_total": 0}, {"business_status": "OPERATIONAL", "formatted_address": "Av San Lorenzo esq, Estrella, Iztapalapa, 09860 Ciudad de M\u00e9xico, CDMX", "geometry": {"location": {"lat": 19.334154, "lng": -99.07278199999999}, "viewport": {"northeast": {"lat": 19.33576472989272, "lng": -99.07139827010727}, "southwest": {"lat": 19.33306507010728, "lng": -99.07409792989272}}}, "icon": "https://maps.gstatic.com/mapfiles/place_api/icons/v1/png_71/generic_business-71.png", "name": "Electrica Mu\u00f1oz", "opening_hours": {"open_now": false}, "place_id": "ChIJi1AKCwEDzoURXHTlJZoG538", "plus_code": {"compound_code": "8WMG+MV Mexico City", "global_code": "76F28WMG+MV"}, "rating": 0, "reference": "ChIJi1AKCwEDzoURXHTlJZoG538", "types": ["electrician", "point_of_interest", "establishment"], "user_ratings_total": 0}, {"business_status": "OPERATIONAL", "formatted_address": "Ermita Iztapalapa 1121, Amp Ricardo Flores Mag\u00f3n, Iztapalapa, 09820 Ciudad de M\u00e9xico, CDMX", "geometry": {"location": {"lat": 19.355761, "lng": -99.1012255}, "viewport": {"northeast": {"lat": 19.35708982989272, "lng": -99.09987577010727}, "southwest": {"lat": 19.35439017010728, "lng": -99.10257542989272}}}, "icon": "https://maps.gstatic.com/mapfiles/place_api/icons/v1/png_71/generic_business-71.png", "name": "Luz y Fuerza del Centro", "place_id": "ChIJ26kJf-L90YURDnNkzHRt6I0", "plus_code": {"compound_code": "9V4X+8G Mexico City", "global_code": "76F29V4X+8G"}, "rating": 3.1, "reference": "ChIJ26kJf-L90YURDnNkzHRt6I0", "types": ["electrician", "point_of_interest", "establishment"], "user_ratings_total": 7}]