[{"business_status": "OPERATIONAL", "formatted_address": "Av. Paseo de la Reforma 305, Cuauht\u00e9moc, 06500 Ciudad de M\u00e9xico, CDMX", "geometry": {"location": {"lat": 19.4281775, "lng": -99.1663135}, "viewport": {"northeast": {"lat": 19.42948742989272, "lng": -99.16494257010729}, "southwest": {"lat": 19.42678777010728, "lng": -99.16764222989273}}}, "icon": "https://maps.gstatic.com/mapfiles/place_api/icons/v1/png_71/civic_building-71.png", "name": "Embassy of the United States of America", "opening_hours": {"open_now": false}, "photos": [{"height": 3024, "html_attributions": ["<a href=\"https://maps.google.com/maps/contrib/116671323850773947745\">Luis Goicoechea</a>"], "photo_reference": "CmRaAAAA773unJav1udNud0eWj2LOrYOSVMDVhgtXtoodiu31Y6L-Te42uC7BdLuS0vhWyo8SN6kUIa2lS3GqYDeDz_u1LvOM33CsQLS9KE0KtmYWR8PAUvQY-vpk3AFI1wUwZfBEhA4TPLje-MXxHIIXeiHabnEGhTUesjUS_fIrU_3nUngZP6v8zGaOg", "width": 4032}], "place_id": "ChIJf5NQmTX_0YURDQIIwsoJq2Y", "plus_code": {"compound_code": "CRHM+7F Mexico City", "global_code": "76F2CRHM+7F"}, "rating": 4.1, "reference": "ChIJf5NQmTX_0YURDQIIwsoJq2Y", "types": ["embassy", "point_of_interest", "establishment"], "user_ratings_total": 708}, {"business_status": "OPERATIONAL", "formatted_address": "Av. Paseo de la Reforma 412, Ju\u00e1rez, Cuauht\u00e9moc, 06600 Ciudad de M\u00e9xico, CDMX", "geometry": {"location": {"lat": 19.4248089, "lng": -99.1709144}, "viewport": {"northeast": {"lat": 19.42623112989272, "lng": -99.1696368701073}, "southwest": {"lat": 19.42353147010727, "lng": -99.17233652989275}}}, "icon": "https://maps.gstatic.com/mapfiles/place_api/icons/v1/png_71/civic_building-71.png", "name": "Embassy of Colombia", "opening_hours": {"open_now": false}, "photos": [{"height": 1620, "html_attributions": ["<a href=\"https://maps.google.com/maps/contrib/117465785877487076776\">Fernando Emiliano Dominguez Balderas</a>"], "photo_reference": "CmRaAAAACte2RsdxcMKmCT8cobU-TyZ9cVlCXmAJVimhfgphPMpgoLSkD37qOBDXppol78vY6FuBsgQkM50yx7yEa0TPBdWg64Cz7ehEHmvIr4BB8_7t1uz6TwiKDciSwl5NBqXtEhAEBdueUYJU1Rof1FJNSpG6GhRuRTRqp8hYz-RYpcsXZZRC3w2bOw", "width": 1080}], "place_id": "ChIJVVVVVUr_0YURZuQcNtuUDzc", "plus_code": {"compound_code": "CRFH+WJ Mexico City", "global_code": "76F2CRFH+WJ"}, "rating": 3.8, "reference": "ChIJVVVVVUr_0YURZuQcNtuUDzc", "types": ["embassy", "point_of_interest", "establishment"], "user_ratings_total": 20}, {"business_status": "OPERATIONAL", "formatted_address": "Calle R\u00edo Lerma 71, Cuauht\u00e9moc, 06500 Ciudad de M\u00e9xico, CDMX", "geometry": {"location": {"lat": 19.4302647, "lng": -99.16575809999999}, "viewport": {"northeast": {"lat": 19.43150562989272, "lng": -99.16435222010728}, "southwest": {"lat": 19.42880597010728, "lng": -99.16705187989272}}}, "icon": "https://maps.gstatic.com/mapfiles/place_api/icons/v1/png_71/civic_building-71.png", "name": "British Embassy Mexico City", "opening_hours": {"open_now": true}, "photos": [{"height": 4640, "html_attributions": ["<a href=\"https://maps.google.com/maps/contrib/101902002275279905311\">Adri\u00e1n S.</a>"], "photo_reference": "CmRaAAAA9PYeeNtsIzVkMmFJJ3D4dgenWwGqFJkRkBrvuL--P0-xIylEdNsS7jCW-K1l7QaHlwR-ToBNN1ULfq16d137zY-9eVxJGHyTFz_BLpzN3cqh9KxJh4V3lqp5JgR7quF_EhBMIdaXx2TzRL30JK3HfQW3GhSJSQidwdmVCTN_E67HWbbhjQ5G6A", "width": 3480}], "place_id": "ChIJzxtKGDX_0YURP6ahu_P3vUc", "plus_code": {"compound_code": "CRJM+4M Mexico City", "global_code": "76F2CRJM+4M"}, "rating": 4.2, "reference": "ChIJzxtKGDX_0YURP6ahu_P3vUc", "types": ["embassy", "point_of_interest", "establishment"], "user_ratings_total": 32}, {"business_status": "OPERATIONAL", "formatted_address": "Av. San Jer\u00f3nimo 217b, Tizap\u00e1n San \u00c1ngel, La Otra Banda, \u00c1lvaro Obreg\u00f3n, 01090 Ciudad de M\u00e9xico, CDMX", "geometry": {"location": {"lat": 19.3361265, "lng": -99.19747439999999}, "viewport": {"northeast": {"lat": 19.33726642989272, "lng": -99.19590117010729}, "southwest": {"lat": 19.33456677010728, "lng": -99.19860082989273}}}, "icon": "https://maps.gstatic.com/mapfiles/place_api/icons/v1/png_71/civic_building-71.png", "name": "Embajada de la Rep\u00fablica Popular de China", "opening_hours": {"open_now": false}, "photos": [{"height": 2340, "html_attributions": ["<a href=\"https://maps.google.com/maps/contrib/114875802607141334771\">samuel aparicio</a>"], "photo_reference": "CmRaAAAAWC3VetUXukokL-_KxjK1IJl8-6llTAGMPuJ7qyz9SPt8kLnJgbdqM5kfNo11rZAR9gDwb9onVRzlMGxJRI0j7mh7Ue48E8H2xAZdR4HfazP61UVsalI6EVysSAU7FCjWEhBdwk7sWLQN1vYezuVEiG3lGhSAidmlkmXPMl0fFufXCzi7Q8f4Tg", "width": 4160}], "place_id": "ChIJQxgVbAcA0oURgLnvehkHD7A", "plus_code": {"compound_code": "8RP3+F2 Mexico City", "global_code": "76F28RP3+F2"}, "rating": 3.4, "reference": "ChIJQxgVbAcA0oURgLnvehkHD7A", "types": ["embassy", "point_of_interest", "establishment"], "user_ratings_total": 80}, {"business_status": "OPERATIONAL", "formatted_address": "Calle Cracovia 40, San \u00c1ngel, \u00c1lvaro Obreg\u00f3n, 01000 Ciudad de M\u00e9xico, CDMX", "geometry": {"location": {"lat": 19.3487814, "lng": -99.188211}, "viewport": {"northeast": {"lat": 19.35017157989272, "lng": -99.18687867010729}, "southwest": {"lat": 19.34747192010728, "lng": -99.18957832989273}}}, "icon": "https://maps.gstatic.com/mapfiles/place_api/icons/v1/png_71/civic_building-71.png", "name": "Embassy of Poland", "opening_hours": {"open_now": false}, "photos": [{"height": 1200, "html_attributions": ["<a href=\"https://maps.google.com/maps/contrib/101053979734404497107\">A Google User</a>"], "photo_reference": "CmRaAAAAAU3fZlJfDzgB7DOXhOtr_mpP2uOni_WlSK7AwpUVJYOUsBsMphVYJZuZdhM_sUIu-oUsS5djGBQEyMdtmjISbjcQ0dnWy6BdND_Gt8IUSqLLnI9dNOW24LQnz5RdudweEhDNQUj6TBepJFQeV5Hp3IHDGhStNKyRGucXg7iAr4hRLWd2lxQb4w", "width": 1600}], "place_id": "ChIJW37qjff_0YURrUsikoP3BoU", "plus_code": {"compound_code": "8RX6+GP Mexico City", "global_code": "76F28RX6+GP"}, "rating": 5, "reference": "ChIJW37qjff_0YURrUsikoP3BoU", "types": ["embassy", "point_of_interest", "establishment"], "user_ratings_total": 10}, {"business_status": "OPERATIONAL", "formatted_address": "Av. Paseo de la Reforma 243, Col. Renacimiento, Cuauht\u00e9moc, 06500 Ciudad de M\u00e9xico, CDMX", "geometry": {"location": {"lat": 19.4298074, "lng": -99.16373490000001}, "viewport": {"northeast": {"lat": 19.43097632989272, "lng": -99.16238497010728}, "southwest": {"lat": 19.42827667010727, "lng": -99.16508462989273}}}, "icon": "https://maps.gstatic.com/mapfiles/place_api/icons/v1/png_71/civic_building-71.png", "name": "Embassy of Japan", "opening_hours": {"open_now": false}, "photos": [{"height": 3024, "html_attributions": ["<a href=\"https://maps.google.com/maps/contrib/111247960869643342497\">akatsukibrawl@hotmail.com</a>"], "photo_reference": "CmRaAAAA_h5d40piN3rpf2JEMI4STbAzRhIFp7kVljFjEYkkDMcmTtpMNkOOEEcd1hXThUNGO1JRw8VPdiMEr26jf88rrldRfDHe6IVAuX0v-cyZBUybeRKYHLLCP7lUwfP9slH6EhAEjtlyao_XSYHiZ9IPmQZhGhQlTkzlUVycPQu8ezO3__rdCiVicw", "width": 4032}], "place_id": "ChIJIxqh00v_0YURFnVdSnQiRxg", "plus_code": {"compound_code": "CRHP+WG Mexico City", "global_code": "76F2CRHP+WG"}, "rating": 4.2, "reference": "ChIJIxqh00v_0YURFnVdSnQiRxg", "types": ["embassy", "point_of_interest", "establishment"], "user_ratings_total": 39}, {"business_status": "OPERATIONAL", "formatted_address": "Maestro Jos\u00e9 Vasconcelos 204, Hip\u00f3dromo Condesa, 06140 Cuauht\u00e9moc, CDMX", "geometry": {"location": {"lat": 19.4096976, "lng": -99.1828644}, "viewport": {"northeast": {"lat": 19.41110737989272, "lng": -99.1816308701073}, "southwest": {"lat": 19.40840772010728, "lng": -99.18433052989273}}}, "icon": "https://maps.gstatic.com/mapfiles/place_api/icons/v1/png_71/civic_building-71.png", "name": "Embassy of Russia", "opening_hours": {"open_now": false}, "photos": [{"height": 3024, "html_attributions": ["<a href=\"https://maps.google.com/maps/contrib/112332229080647106861\">A Google User</a>"], "photo_reference": "CmRaAAAAwdyvYwHVr5ZHEBt-5mBeIM-Wele2oLLRq6Bp0Vt6CnFQBkrBXvUbib9kBIHlIV7VjW7ZRobO158W2Odh_WA3nsH7tRRIvxDRKHhYbTyRAm07N5Lm_K2SvZLvfw3k-S0VEhAnRcJIXIjad4UC665El4qUGhSQJWyRk6RrafdkigLuYd7J-l14UA", "width": 4032}], "place_id": "ChIJg_iwt13_0YURbm0hG9nw2QI", "plus_code": {"compound_code": "CR58+VV Mexico City", "global_code": "76F2CR58+VV"}, "rating": 4.4, "reference": "ChIJg_iwt13_0YURbm0hG9nw2QI", "types": ["embassy", "point_of_interest", "establishment"], "user_ratings_total": 64}, {"business_status": "OPERATIONAL", "formatted_address": "R\u00edo Poo 113, Cuauht\u00e9moc, 06500 Ciudad de M\u00e9xico, CDMX", "geometry": {"location": {"lat": 19.4296262, "lng": -99.168317}, "viewport": {"northeast": {"lat": 19.43099877989272, "lng": -99.16691852010727}, "southwest": {"lat": 19.42829912010728, "lng": -99.16961817989271}}}, "icon": "https://maps.gstatic.com/mapfiles/place_api/icons/v1/png_71/civic_building-71.png", "name": "Embassy of Costa Rica", "opening_hours": {"open_now": false}, "photos": [{"height": 4128, "html_attributions": ["<a href=\"https://maps.google.com/maps/contrib/111098684757406627257\">Hayden chamorro</a>"], "photo_reference": "CmRaAAAAcKObgL_pBPRmFyXlWsc49a9uNL6pfBs2IgXw24PUgyRNkHKpdgX8wesHKVQ47fHrx2NvaY9ZXLrIjOBmCjhHmmSSAgRODUKUPn698uNfLhCDMX-UxZk3y3Ae2dcmj2jBEhAYTytTKFk_JS7qCW_asi6pGhQLsPrrQ6z62zKoixmRvU5OwXimlw", "width": 2322}], "place_id": "ChIJZbkcm0r_0YURCQifm_hhVL0", "plus_code": {"compound_code": "CRHJ+VM Mexico City", "global_code": "76F2CRHJ+VM"}, "rating": 4.3, "reference": "ChIJZbkcm0r_0YURCQifm_hhVL0", "types": ["embassy", "point_of_interest", "establishment"], "user_ratings_total": 19}, {"business_status": "OPERATIONAL", "formatted_address": "Schiller No. 326, Chapultepec Morales, Polanco V Secc, Miguel Hidalgo, 11560 Ciudad de M\u00e9xico, CDMX", "geometry": {"location": {"lat": 19.4323188, "lng": -99.1862639}, "viewport": {"northeast": {"lat": 19.43367117989272, "lng": -99.18498312010729}, "southwest": {"lat": 19.43097152010728, "lng": -99.18768277989273}}}, "icon": "https://maps.gstatic.com/mapfiles/place_api/icons/v1/png_71/civic_building-71.png", "name": "Embajada de Venezuela", "opening_hours": {"open_now": false}, "photos": [{"height": 4032, "html_attributions": ["<a href=\"https://maps.google.com/maps/contrib/111099518285513877015\">Yoelvis Oses Sosa</a>"], "photo_reference": "CmRaAAAAg6O_jHqpTtzXxa9DyqwMljsLnurKBVV_II3Pbe6hdG-lJvv4cKVzQqfOd4QKqxw8jBZ1BM_PS0hk7v_ebDmhVGFdz6WGoLRQeMkd3DesdpvAVbAa5h16_GsH-L2qsf_XEhA8la3GFq8HLP0MtlJSmKKrGhRWghppdWPIoOmMtCxLVASqgXVp-A", "width": 3024}], "place_id": "ChIJbRklFqv40YUR1RIul36oP3w", "plus_code": {"compound_code": "CRJ7+WF Mexico City", "global_code": "76F2CRJ7+WF"}, "rating": 3.6, "reference": "ChIJbRklFqv40YUR1RIul36oP3w", "types": ["embassy", "point_of_interest", "establishment"], "user_ratings_total": 159}, {"business_status": "OPERATIONAL", "formatted_address": "Bulgaria 14-A, Benito Ju\u00e1rez, 03300 Ciudad de M\u00e9xico, CDMX", "geometry": {"location": {"lat": 19.3595696, "lng": -99.14403639999999}, "viewport": {"northeast": {"lat": 19.36129297989272, "lng": -99.14282837010728}, "southwest": {"lat": 19.35859332010728, "lng": -99.14552802989273}}}, "icon": "https://maps.gstatic.com/mapfiles/place_api/icons/v1/png_71/civic_building-71.png", "name": "Embajada Gubernamental", "place_id": "ChIJ_4rTHjX-0YURYvbGtQ1_TYM", "plus_code": {"compound_code": "9V54+R9 Mexico City", "global_code": "76F29V54+R9"}, "rating": 0, "reference": "ChIJ_4rTHjX-0YURYvbGtQ1_TYM", "types": ["embassy", "point_of_interest", "establishment"], "user_ratings_total": 0}, {"business_status": "OPERATIONAL", "formatted_address": "Cuvier 22, Anzures, Miguel Hidalgo, 11590 Ciudad de M\u00e9xico, CDMX", "geometry": {"location": {"lat": 19.4327936, "lng": -99.1799743}, "viewport": {"northeast": {"lat": 19.43410997989272, "lng": -99.17861192010727}, "southwest": {"lat": 19.43141032010728, "lng": -99.18131157989272}}}, "icon": "https://maps.gstatic.com/mapfiles/place_api/icons/v1/png_71/civic_building-71.png", "name": "Embassy of the Czech Republic", "opening_hours": {"open_now": false}, "place_id": "ChIJrSasa6340YURYRs_A_3DV-U", "plus_code": {"compound_code": "CRMC+42 Mexico City", "global_code": "76F2CRMC+42"}, "rating": 2.7, "reference": "ChIJrSasa6340YURYRs_A_3DV-U", "types": ["embassy", "point_of_interest", "establishment"], "user_ratings_total": 21}, {"business_status": "OPERATIONAL", "formatted_address": "Alfredo de Musset 41, Polanco, Polanco III Secc, Miguel Hidalgo, 11550 Ciudad de M\u00e9xico, CDMX", "geometry": {"location": {"lat": 19.4332319, "lng": -99.19637480000002}, "viewport": {"northeast": {"lat": 19.43458927989272, "lng": -99.19511547010728}, "southwest": {"lat": 19.43188962010728, "lng": -99.19781512989273}}}, "icon": "https://maps.gstatic.com/mapfiles/place_api/icons/v1/png_71/civic_building-71.png", "name": "Embassy of Belgium", "opening_hours": {"open_now": false}, "photos": [{"height": 2056, "html_attributions": ["<a href=\"https://maps.google.com/maps/contrib/112759080422637667248\">Uli Wooly</a>"], "photo_reference": "CmRaAAAASNc64vyUrZPok2aA9Fdd19kHFbfZTf-f3qW0ydR71cvXIz97BGr4PAtTndhjemnv5Ntl5gW_pkiRgVkIIoXC1FG7DeTc2ADVSGDPjSmMVQLFlwBl-D2Cf6VsDJ0GskxkEhCS4lz4hBnw0eFSyVH5ImX4GhSCA7AwvWVwcdDaJtmjm1Qqulr6fg", "width": 3648}], "place_id": "ChIJc3AwNQIC0oURJfLYL0dqQWk", "plus_code": {"compound_code": "CRM3+7F Mexico City", "global_code": "76F2CRM3+7F"}, "rating": 5, "reference": "ChIJc3AwNQIC0oURJfLYL0dqQWk", "types": ["embassy", "point_of_interest", "establishment"], "user_ratings_total": 16}, {"business_status": "OPERATIONAL", "formatted_address": "Calle 3 Picos 43, Polanco, Polanco V Secc, Miguel Hidalgo, 11550 Ciudad de M\u00e9xico, CDMX", "geometry": {"location": {"lat": 19.4288883, "lng": -99.18836329999999}, "viewport": {"northeast": {"lat": 19.43016042989272, "lng": -99.18701757010727}, "southwest": {"lat": 19.42746077010728, "lng": -99.18971722989272}}}, "icon": "https://maps.gstatic.com/mapfiles/place_api/icons/v1/png_71/civic_building-71.png", "name": "Embassy of Denmark", "opening_hours": {"open_now": false}, "photos": [{"height": 3036, "html_attributions": ["<a href=\"https://maps.google.com/maps/contrib/102204527858123057102\">Joseph Stanley</a>"], "photo_reference": "CmRaAAAAPXqr318_s5c1l8rvL8o9DMGn84-mfs4QbFkRYZ818K7y9v1iliOo3cGMzBzYASoTA_Y5CNT4D5FW9nFs7g1sgghzRkajqe9YAP2KtzQm82B55GddAIpXNblnyB_uog6cEhAx8GLurvRqKHAroijjdBUiGhTCJCKJjiurWHXjaRDIvoN_71O__w", "width": 4048}], "place_id": "ChIJdZydFFX_0YURpr7RLM90lWg", "plus_code": {"compound_code": "CRH6+HM Mexico City", "global_code": "76F2CRH6+HM"}, "rating": 4.2, "reference": "ChIJdZydFFX_0YURpr7RLM90lWg", "types": ["embassy", "point_of_interest", "establishment"], "user_ratings_total": 5}, {"business_status": "OPERATIONAL", "formatted_address": "Andr\u00e9s Bello 10, Polanco, Polanco IV Secc, Miguel Hidalgo, 11560 Ciudad de M\u00e9xico, CDMX", "geometry": {"location": {"lat": 19.4268599, "lng": -99.1958248}, "viewport": {"northeast": {"lat": 19.42826292989272, "lng": -99.19436917010728}, "southwest": {"lat": 19.42556327010728, "lng": -99.19706882989273}}}, "icon": "https://maps.gstatic.com/mapfiles/place_api/icons/v1/png_71/civic_building-71.png", "name": "Embajada de Chile", "opening_hours": {"open_now": false}, "photos": [{"height": 3024, "html_attributions": ["<a href=\"https://maps.google.com/maps/contrib/113995401024282497538\">Arturchief</a>"], "photo_reference": "CmRaAAAAEqduCIlzhybqkiHIxqpTnUVaAJT-QhwQErGxsHiDkRmG5G11kBCuSvGEtyvRnTi5D8o2cvD7IaO_PXsGAhof-WPlzovUHQgJWciDjlPjRrVTkiX0Q_CQdpU7DW2IOaJ6EhD2xKpKhBULHo_rtMECKbmvGhR5lYU5xXrQ8YesI1Ca7imIwpturA", "width": 4032}], "place_id": "ChIJYwTaK_kB0oURq3HuHx25eGQ", "plus_code": {"compound_code": "CRG3+PM Mexico City", "global_code": "76F2CRG3+PM"}, "rating": 4.5, "reference": "ChIJYwTaK_kB0oURq3HuHx25eGQ", "types": ["embassy", "point_of_interest", "establishment"], "user_ratings_total": 21}, {"business_status": "OPERATIONAL", "formatted_address": "Secci\u00f3n Alameda, Av. Horacio 1506, Polanco, Polanco I Secc, Miguel Hidalgo, 11530 Ciudad de M\u00e9xico, CDMX", "geometry": {"location": {"lat": 19.4347024, "lng": -99.2051788}, "viewport": {"northeast": {"lat": 19.43615597989272, "lng": -99.20380887010728}, "southwest": {"lat": 19.43345632010728, "lng": -99.20650852989272}}}, "icon": "https://maps.gstatic.com/mapfiles/place_api/icons/v1/png_71/civic_building-71.png", "name": "Embassy of Germany", "photos": [{"height": 3024, "html_attributions": ["<a href=\"https://maps.google.com/maps/contrib/103874480096294211683\">Hugo Gerardo Far\u00edas Tovar</a>"], "photo_reference": "CmRaAAAAY5RpBwTdlWtrLoZQepCT_Q-oJX-PAs0rU9TFatWQ1PcLlxCqxdTvtMowQWuuCBqNybQLLpdqVz09l2qUAYsfOiCZkXdKucuCwUXDt1rS9ywc0qkP63BOGIIolW5enfHEEhBNi8KcR1POYvYBk0W79sS2GhRCdmS49bYxd9wRAZ-qWMCBf23iCw", "width": 4032}], "place_id": "ChIJk-wRExwC0oURdgMUw1zQmM8", "plus_code": {"compound_code": "CQMV+VW Mexico City", "global_code": "76F2CQMV+VW"}, "rating": 4.3, "reference": "ChIJk-wRExwC0oURdgMUw1zQmM8", "types": ["embassy", "point_of_interest", "establishment"], "user_ratings_total": 113}, {"business_status": "OPERATIONAL", "formatted_address": "Av. Paseo de la Reforma 505, Lomas - Virreyes, Lomas de Chapultepec, Miguel Hidalgo, 11000 Ciudad de M\u00e9xico, CDMX", "geometry": {"location": {"lat": 19.4250684, "lng": -99.2093448}, "viewport": {"northeast": {"lat": 19.42630747989272, "lng": -99.20796097010728}, "southwest": {"lat": 19.42360782010728, "lng": -99.21066062989273}}}, "icon": "https://maps.gstatic.com/mapfiles/place_api/icons/v1/png_71/civic_building-71.png", "name": "Embassy of the United Arab Emirates", "opening_hours": {"open_now": false}, "photos": [{"height": 3000, "html_attributions": ["<a href=\"https://maps.google.com/maps/contrib/118286610496170506827\">Mostafa karim</a>"], "photo_reference": "CmRaAAAAhPIwWXQms8PBYndkKHDqr9vD-XAWYailYf9obUUDgxox2zC8bEgU-LWuItlDeQtTQ88Rygvtw2sjl1-7RpY5upleDNBhWurCGVb9mrHlOYdIBzGuyo6mbIsAwRmLSV3YEhCqlQREDaaYpyQrDtxJ09XmGhSPkUYLoK4Sq05eQVpJS7Iqn16m8A", "width": 4512}], "place_id": "ChIJr6aqYfQB0oURN_AhhOb3-R8", "plus_code": {"compound_code": "CQGR+27 Mexico City", "global_code": "76F2CQGR+27"}, "rating": 3.4, "reference": "ChIJr6aqYfQB0oURN_AhhOb3-R8", "types": ["embassy", "point_of_interest", "establishment"], "user_ratings_total": 25}, {"business_status": "OPERATIONAL", "formatted_address": "Rub\u00e9n Dar\u00edo 55, Polanco, Polanco V Secc, Miguel Hidalgo, 11560 Ciudad de M\u00e9xico, CDMX", "geometry": {"location": {"lat": 19.4299428, "lng": -99.1833206}, "viewport": {"northeast": {"lat": 19.43111147989272, "lng": -99.18188332010729}, "southwest": {"lat": 19.42841182010728, "lng": -99.18458297989272}}}, "icon": "https://maps.gstatic.com/mapfiles/place_api/icons/v1/png_71/civic_building-71.png", "name": "Embassy of Australia", "opening_hours": {"open_now": false}, "photos": [{"height": 3840, "html_attributions": ["<a href=\"https://maps.google.com/maps/contrib/102873661990890994864\">BERNARDO FUENTES</a>"], "photo_reference": "CmRaAAAAXjLSZMdQEWRZhjPmbtvjxO3eEhVZCgUBlHKxB70IMgumaITnSB-SeYnCWzFP4IqYDuXuG0Cg7xkKGP8FwyodJ8jxN_wsnbHmjITFznZxUaXm7YYqSJgbKa6zpVf_0wXPEhCujNt11nY_P00EBfTDN0T6GhTzeWsUhfaRjpwJhcGsIkf6noEbmQ", "width": 2160}], "place_id": "ChIJd9-IQFP_0YURSMxpqgZQakk", "plus_code": {"compound_code": "CRH8+XM Mexico City", "global_code": "76F2CRH8+XM"}, "rating": 4, "reference": "ChIJd9-IQFP_0YURSMxpqgZQakk", "types": ["embassy", "point_of_interest", "establishment"], "user_ratings_total": 20}, {"business_status": "OPERATIONAL", "formatted_address": "Av. Paseo de las Palmas 1610, Lomas de Chapultepec, Miguel Hidalgo, 11000 Ciudad de M\u00e9xico, CDMX", "geometry": {"location": {"lat": 19.4171947, "lng": -99.2279892}, "viewport": {"northeast": {"lat": 19.41858577989272, "lng": -99.22671927010727}, "southwest": {"lat": 19.41588612010728, "lng": -99.22941892989272}}}, "icon": "https://maps.gstatic.com/mapfiles/place_api/icons/v1/png_71/civic_building-71.png", "name": "Embassy of Thailand", "opening_hours": {"open_now": false}, "photos": [{"height": 4128, "html_attributions": ["<a href=\"https://maps.google.com/maps/contrib/117447481594465658214\">Cristopher Picazo</a>"], "photo_reference": "CmRaAAAAUcsuR4Law4E_KwNV8mEUZ56NFjfwuAWP7MEOR4c2HUthVzOyT-pBXbmoxqSfB2mvlaCroQ9DHaujzktG32-WJPrUP0-ke4l_srCeLRC-1-Wkv0DdhrNkx-uty9GPfwyBEhAZ-ZmrxYPHLmbSTDaivVm_GhQXHYiONSa5T-pWyRbB2N-_111AKQ", "width": 2322}], "place_id": "ChIJe60kroQB0oURB3c_Pwv5x0s", "plus_code": {"compound_code": "CQ8C+VR Mexico City", "global_code": "76F2CQ8C+VR"}, "rating": 3.4, "reference": "ChIJe60kroQB0oURB3c_Pwv5x0s", "types": ["embassy", "point_of_interest", "establishment"], "user_ratings_total": 37}, {"business_status": "OPERATIONAL", "formatted_address": "Alfonso Reyes 220, Hip\u00f3dromo, Cuauht\u00e9moc, 06170 Ciudad de M\u00e9xico, CDMX", "geometry": {"location": {"lat": 19.4074384, "lng": -99.1736853}, "viewport": {"northeast": {"lat": 19.40871697989273, "lng": -99.17237527010728}, "southwest": {"lat": 19.40601732010728, "lng": -99.17507492989273}}}, "icon": "https://maps.gstatic.com/mapfiles/place_api/icons/v1/png_71/civic_building-71.png", "name": "Embassy of Honduras", "opening_hours": {"open_now": false}, "photos": [{"height": 4032, "html_attributions": ["<a href=\"https://maps.google.com/maps/contrib/116671323850773947745\">Luis Goicoechea</a>"], "photo_reference": "CmRaAAAAVCE428pIKi-vVi4cdmnv5KHcOH0igTtYB43zPWzWcqzmXH462vWC6DvZ3V9cxVimvW5omA7XYkzMzOaYaFvyBSzxmoteUYREOtBxE-1yy8jZ4TDr0kAvt9oowyGOwX60EhA5KSrDwq8jOBukT7w8jFwFGhRKMsMnDTVEWOO1Oaq9dYthydq_hg", "width": 2268}], "place_id": "ChIJSSXo-2n_0YUR1vJwP4RRQ8U", "plus_code": {"compound_code": "CR4G+XG Mexico City", "global_code": "76F2CR4G+XG"}, "rating": 4, "reference": "ChIJSSXo-2n_0YUR1vJwP4RRQ8U", "types": ["embassy", "point_of_interest", "establishment"], "user_ratings_total": 63}, {"business_status": "OPERATIONAL", "formatted_address": "Schiller 529, Polanco, Bosque de Chapultepec, Miguel Hidalgo, 11580 Ciudad de M\u00e9xico, CDMX", "geometry": {"location": {"lat": 19.4289921, "lng": -99.18618459999999}, "viewport": {"northeast": {"lat": 19.43018777989272, "lng": -99.18464927010727}, "southwest": {"lat": 19.42748812010728, "lng": -99.18734892989272}}}, "icon": "https://maps.gstatic.com/mapfiles/place_api/icons/v1/png_71/civic_building-71.png", "name": "Embassy of Canada", "opening_hours": {"open_now": false}, "photos": [{"height": 3120, "html_attributions": ["<a href=\"https://maps.google.com/maps/contrib/117489710256281181566\">Alex Machholz</a>"], "photo_reference": "CmRaAAAA_TIiAixyFOkaUaGOnkm93FUkyd2qYGUl4YH2lwqbWWc5aiOKpCyZS17WbQJgGyeqgZOnzUrCBPRuw7-gTUKJArkQ2lU_oXa2SHk__hL2o14z8s0mjB1sLMTjz6X4hx_kEhAx86zLd_zHTBriFrKQ5NVIGhTeCV8X1_0U0e8O-MrVmM8c_midSw", "width": 4160}], "place_id": "ChIJxwk36VT_0YUR5xc3zupFcKE", "plus_code": {"compound_code": "CRH7+HG Mexico City", "global_code": "76F2CRH7+HG"}, "rating": 4, "reference": "ChIJxwk36VT_0YUR5xc3zupFcKE", "types": ["embassy", "point_of_interest", "establishment"], "user_ratings_total": 208}]