[{"business_status": "OPERATIONAL", "formatted_address": "Avenida Solidaridad 7913, Valle Santa Lucia, Xochimilco, 64140 Ciudad de M\u00e9xico, CDMX", "geometry": {"location": {"lat": 19.3522655, "lng": -99.08804959999999}, "viewport": {"northeast": {"lat": 19.35360042989272, "lng": -99.08669697010728}, "southwest": {"lat": 19.35090077010728, "lng": -99.08939662989273}}}, "icon": "https://maps.gstatic.com/mapfiles/place_api/icons/v1/png_71/generic_business-71.png", "name": "Protecto Adeco Capilla Funerar\u00eda Aztl\u00e1n", "place_id": "ChIJkTO87zEA0oURMo9jCtumS-A", "rating": 0, "reference": "ChIJkTO87zEA0oURMo9jCtumS-A", "types": ["funeral_home", "point_of_interest", "establishment"], "user_ratings_total": 0}, {"business_status": "OPERATIONAL", "formatted_address": "Calzada Ermita Iztapalapa 1143 Barrio, San Lucas, 09820 Iztapalapa, CDMX", "geometry": {"location": {"lat": 19.356634, "lng": -99.0969894}, "viewport": {"northeast": {"lat": 19.35803302989272, "lng": -99.09556542010726}, "southwest": {"lat": 19.35533337010727, "lng": -99.09826507989271}}}, "icon": "https://maps.gstatic.com/mapfiles/place_api/icons/v1/png_71/generic_business-71.png", "name": "J. Garc\u00eda L\u00f3pez Casa Iztapalapa", "opening_hours": {"open_now": true}, "photos": [{"height": 1920, "html_attributions": ["<a href=\"https://maps.google.com/maps/contrib/111253373971849017107\">Badyr Ulises Rodriguez Perez</a>"], "photo_reference": "CmRaAAAAm613G6eZNSSMQzO55IF8626z2_r5S98QhRbEhi9OoZ9nwaNrqJEwyNAJBw0uST2s_RlIZrEdce8OtiN3I8IvbBT3DN-bWvD1Inh3Tvp_JSgR_PamQJuKvHj4ri_bGclqEhDdL9r-4SiLs2xIJyBlhVZ8GhRpCr874BaeLyGLvSvIw3ZmVcba2Q", "width": 1080}], "place_id": "ChIJ_dggluP90YURc98uq0YLSjs", "plus_code": {"compound_code": "9W43+M6 San Lucas, Mexico City", "global_code": "76F29W43+M6"}, "rating": 4.1, "reference": "ChIJ_dggluP90YURc98uq0YLSjs", "types": ["funeral_home", "point_of_interest", "establishment"], "user_ratings_total": 37}, {"business_status": "OPERATIONAL", "formatted_address": "Mariano Escobedo 45, San Pablo, Iztapalapa, 09000 Ciudad de M\u00e9xico, CDMX", "geometry": {"location": {"lat": 19.3614999, "lng": -99.09038550000001}, "viewport": {"northeast": {"lat": 19.36288162989272, "lng": -99.0890262201073}, "southwest": {"lat": 19.36018197010728, "lng": -99.09172587989273}}}, "icon": "https://maps.gstatic.com/mapfiles/place_api/icons/v1/png_71/generic_business-71.png", "name": "Funerales Jaramillo", "opening_hours": {"open_now": true}, "photos": [{"height": 1600, "html_attributions": ["<a href=\"https://maps.google.com/maps/contrib/101425869125605405400\">A Google User</a>"], "photo_reference": "CmRaAAAAJW6e6hINjiDYNzfXDUpwV3DtGtPGPxdzbO67-Tgg8BT7-Xnb6so8Ap1Joqa6KuVP9FnnKTbGMD-H03BTt7Vn63DaGsiKtwBrxIubmXQdGRQGxpGpTReH4yIf8BnFsLC-EhA5qYxZWXhJ6tlbb5Pzx4RtGhQUK_U3B1n2hdTMV3UgJouPCgdANg", "width": 1200}], "place_id": "ChIJg3XfTob90YURimuYsGySWtM", "plus_code": {"compound_code": "9W65+HR Mexico City", "global_code": "76F29W65+HR"}, "rating": 0, "reference": "ChIJg3XfTob90YURimuYsGySWtM", "types": ["funeral_home", "point_of_interest", "establishment"], "user_ratings_total": 0}, {"business_status": "OPERATIONAL", "formatted_address": "Calle Pastores Mz 17 Lt 15 Local 2, Iztapalapa, Ampliaci\u00f3n Ricardo Flores Mag\u00f3n, 09820 Iztapalapa, CDMX", "geometry": {"location": {"lat": 19.353057, "lng": -99.09983}, "viewport": {"northeast": {"lat": 19.35442057989272, "lng": -99.09847577010727}, "southwest": {"lat": 19.35172092010728, "lng": -99.1011754298927}}}, "icon": "https://maps.gstatic.com/mapfiles/place_api/icons/v1/png_71/generic_business-71.png", "name": "Funeraria Mercado de Iztapalapa", "opening_hours": {"open_now": true}, "photos": [{"height": 913, "html_attributions": ["<a href=\"https://maps.google.com/maps/contrib/102569801674307048194\">Paco Silva</a>"], "photo_reference": "CmRaAAAA3xgyrBZcwMn1LDRbfJzb9Qm4WQbu6Wk1qgU2EYiYGQwuGRrDX0Odr_KtW8SCtPNdYrhMDRbUSeXRf_oiHUW5BwV-L_x7x0NilF8wtFJnwTi47E_IEsw8yThLJuk6focFEhCo-tfFNe9XiLx-ikslMvaDGhR2nfiqflMPhgEF-JcpEUkHrHSogQ", "width": 897}], "place_id": "ChIJnwm4yeL90YUR1G9rShmNEDI", "plus_code": {"compound_code": "9W32+63 Mexico City", "global_code": "76F29W32+63"}, "rating": 1, "reference": "ChIJnwm4yeL90YUR1G9rShmNEDI", "types": ["funeral_home", "point_of_interest", "establishment"], "user_ratings_total": 1}, {"business_status": "OPERATIONAL", "formatted_address": "Ermita Iztapalapa 876, Santa Isabel Industrial, Iztapalapa, 09000 Ciudad de M\u00e9xico, CDMX", "geometry": {"location": {"lat": 19.3555825, "lng": -99.10154449999999}, "viewport": {"northeast": {"lat": 19.35699767989272, "lng": -99.1001942201073}, "southwest": {"lat": 19.35429802010728, "lng": -99.10289387989273}}}, "icon": "https://maps.gstatic.com/mapfiles/place_api/icons/v1/png_71/generic_business-71.png", "name": "Funeraria", "place_id": "ChIJka4eYuL90YURT808VWSXzJg", "plus_code": {"compound_code": "9V4X+69 Mexico City", "global_code": "76F29V4X+69"}, "rating": 0, "reference": "ChIJka4eYuL90YURT808VWSXzJg", "types": ["funeral_home", "point_of_interest", "establishment"], "user_ratings_total": 0}, {"business_status": "OPERATIONAL", "formatted_address": "Ermita Iztapalapa 2575, La Era I y II, Iztapalapa, 09710 Ciudad de M\u00e9xico, CDMX", "geometry": {"location": {"lat": 19.3428249, "lng": -99.0574759}, "viewport": {"northeast": {"lat": 19.34422502989272, "lng": -99.05610092010728}, "southwest": {"lat": 19.34152537010728, "lng": -99.05880057989273}}}, "icon": "https://maps.gstatic.com/mapfiles/place_api/icons/v1/png_71/generic_business-71.png", "name": "Agencia Funerales Ermita Velatorios", "opening_hours": {"open_now": true}, "photos": [{"height": 3006, "html_attributions": ["<a href=\"https://maps.google.com/maps/contrib/113591646980941554053\">Salvador Ascencio</a>"], "photo_reference": "CmRaAAAA1tIOFcDU2OwyWyG0sXqS8cTkZcbC2Sru90BQJA1aCThaB__gcLac24zvhgCjNMmpozoaDqa66rpC-od_w1oSLKegUaGS4-Yd82fiwifoeckYc6xJUXy_lhJN2ccsz1JwEhDL4AEl0gYFoxVnot0wagYDGhTnJOuqaXVbHfRAanzPWeXNJaUsYw", "width": 5344}], "place_id": "ChIJYZ_XW_390YUR5uzX9mqLaas", "plus_code": {"compound_code": "8WVV+42 Mexico City", "global_code": "76F28WVV+42"}, "rating": 3.1, "reference": "ChIJYZ_XW_390YUR5uzX9mqLaas", "types": ["funeral_home", "point_of_interest", "establishment"], "user_ratings_total": 14}, {"business_status": "OPERATIONAL", "formatted_address": "Eje 6 Sur Luis Mendez Mz33, Leyes de Reforma Seguna Seccion, 09340 CDMX", "geometry": {"location": {"lat": 19.354885, "lng": -99.0994268}, "viewport": {"northeast": {"lat": 19.35623512989272, "lng": -99.0980775701073}, "southwest": {"lat": 19.35353547010728, "lng": -99.10077722989273}}}, "icon": "https://maps.gstatic.com/mapfiles/place_api/icons/v1/png_71/generic_business-71.png", "name": "Funerales San Pedro", "opening_hours": {"open_now": true}, "place_id": "ChIJ-Sky8OL90YURzhTaDxwtZ_Y", "rating": 0, "reference": "ChIJ-Sky8OL90YURzhTaDxwtZ_Y", "types": ["funeral_home", "point_of_interest", "establishment"], "user_ratings_total": 0}, {"business_status": "OPERATIONAL", "formatted_address": "5 de Mayo 194, San Lucas, Iztapalapa, 09000 Ciudad de M\u00e9xico, CDMX", "geometry": {"location": {"lat": 19.3624529, "lng": -99.098587}, "viewport": {"northeast": {"lat": 19.36384942989272, "lng": -99.09722252010728}, "southwest": {"lat": 19.36114977010728, "lng": -99.09992217989273}}}, "icon": "https://maps.gstatic.com/mapfiles/place_api/icons/v1/png_71/generic_business-71.png", "name": "FUNERALES STA. MARIA", "opening_hours": {"open_now": true}, "photos": [{"height": 1792, "html_attributions": ["<a href=\"https://maps.google.com/maps/contrib/113632157794016703394\">Roger Frias</a>"], "photo_reference": "CmRaAAAAHW7rBZzy1A9hGQ5EX3iBm58nIHGtumszxd683wSGKN8-79MfujPxEv63G91Ya-NayHa9aMAHAtopr9KnxTmnDp78-HjBCGx01Nz4nKI6KaCqWPutewUm1JOLIXeWX0n3EhCd2qH_Oh1_S-olJk6z0IwiGhT3U2K5xlj_cNvW7QXM-kNahQAo8Q", "width": 1008}], "place_id": "ChIJS4mdWOD90YURXTuok14IVPM", "plus_code": {"compound_code": "9W62+XH Mexico City", "global_code": "76F29W62+XH"}, "rating": 0, "reference": "ChIJS4mdWOD90YURXTuok14IVPM", "types": ["funeral_home", "point_of_interest", "establishment"], "user_ratings_total": 0}, {"business_status": "OPERATIONAL", "formatted_address": "Avenida Tl\u00e1huac 324, Entre Cuitlahuac y Ganaderos, Los Reyes culhuacan, Los Reyes Culhuacan, 09840 Iztapalapa, CDMX", "geometry": {"location": {"lat": 19.3464043, "lng": -99.10726369999999}, "viewport": {"northeast": {"lat": 19.34775657989272, "lng": -99.10592982010728}, "southwest": {"lat": 19.34505692010728, "lng": -99.10862947989271}}}, "icon": "https://maps.gstatic.com/mapfiles/place_api/icons/v1/png_71/generic_business-71.png", "name": "AGENCIA FUNERARIA LOS REYES", "opening_hours": {"open_now": true}, "photos": [{"height": 3024, "html_attributions": ["<a href=\"https://maps.google.com/maps/contrib/102887291932809935814\">A Google User</a>"], "photo_reference": "CmRZAAAAvXRPRGfFPwbCHbqsdDzGJIlZjYIl99VoXjTo42do8SqeFEZpRydYUAGyptESdiBN_tu99lJ9TN8e_EqV4hoyaspfj1yqvvdaPFZwFR-QGiOQ1xWXG91BkUPZmD_Xcek0EhBbVU5CC6SKt7izRZslr7syGhRW-IzY-t7G8r5NKhzJowfs1YHgOQ", "width": 4032}], "place_id": "ChIJ6WxdAQT-0YURt9S_us5vEeI", "plus_code": {"compound_code": "8VWV+H3 Los Reyes Culhuacan, Mexico City", "global_code": "76F28VWV+H3"}, "rating": 5, "reference": "ChIJ6WxdAQT-0YURt9S_us5vEeI", "types": ["funeral_home", "point_of_interest", "establishment"], "user_ratings_total": 3}, {"business_status": "OPERATIONAL", "formatted_address": "Combate de Celaya 94, U.H. Vicente Guerrero, Iztapalapa, 09200 Ciudad de M\u00e9xico, CDMX", "geometry": {"location": {"lat": 19.3570008, "lng": -99.0547591}, "viewport": {"northeast": {"lat": 19.35839712989272, "lng": -99.05339872010727}, "southwest": {"lat": 19.35569747010728, "lng": -99.05609837989272}}}, "icon": "https://maps.gstatic.com/mapfiles/place_api/icons/v1/png_71/generic_business-71.png", "name": "Funeraria sevilla", "opening_hours": {"open_now": true}, "photos": [{"height": 1600, "html_attributions": ["<a href=\"https://maps.google.com/maps/contrib/108654592657890999201\">A Google User</a>"], "photo_reference": "CmRaAAAA6Z2omFmF_o0Sq_eFej5OySyhrrykJghRFlqBd-euHI0wsIUNeUSd-mDXgdGGSUtay0S3DzBTEmP-ZIMNSFjMV-7DygGh5cvoKjn0UXzi1g7JXwZjrT4XiqNtVx71d3CYEhBHG6wOoqOYjNQ1JEJo54umGhSUsnO9RxlpJuMqHaLXSxgoeJ9KXg", "width": 1200}], "place_id": "ChIJsYaWxYT90YURxAv2SKcXE3w", "plus_code": {"compound_code": "9W4W+R3 Mexico City", "global_code": "76F29W4W+R3"}, "rating": 4.4, "reference": "ChIJsYaWxYT90YURxAv2SKcXE3w", "types": ["funeral_home", "point_of_interest", "establishment"], "user_ratings_total": 7}, {"business_status": "OPERATIONAL", "formatted_address": "\u00c1rea Federal Central de Abastos, Iztapalapa, Mexico City", "geometry": {"location": {"lat": 19.3729099, "lng": -99.0801958}, "viewport": {"northeast": {"lat": 19.37419892989272, "lng": -99.07894567010727}, "southwest": {"lat": 19.37149927010728, "lng": -99.08164532989271}}}, "icon": "https://maps.gstatic.com/mapfiles/place_api/icons/v1/png_71/generic_business-71.png", "name": "Funeraria G", "place_id": "ChIJnSOXDvD90YURmwnEOfybVos", "plus_code": {"compound_code": "9WF9+5W Mexico City", "global_code": "76F29WF9+5W"}, "rating": 0, "reference": "ChIJnSOXDvD90YURmwnEOfybVos", "types": ["funeral_home", "point_of_interest", "establishment"], "user_ratings_total": 0}, {"business_status": "OPERATIONAL", "formatted_address": "Av San Lorenzo 300, San Juan, Iztapalapa, 09850 Ciudad de M\u00e9xico, CDMX", "geometry": {"location": {"lat": 19.3410473, "lng": -99.07513279999999}, "viewport": {"northeast": {"lat": 19.34237487989272, "lng": -99.07385792010727}, "southwest": {"lat": 19.33967522010728, "lng": -99.07655757989272}}}, "icon": "https://maps.gstatic.com/mapfiles/place_api/icons/v1/png_71/generic_business-71.png", "name": "FUNERALES", "place_id": "ChIJPUsyM3QCzoURGeAvyNw4YfM", "plus_code": {"compound_code": "8WRF+CW Mexico City", "global_code": "76F28WRF+CW"}, "rating": 0, "reference": "ChIJPUsyM3QCzoURGeAvyNw4YfM", "types": ["funeral_home", "point_of_interest", "establishment"], "user_ratings_total": 0}, {"business_status": "OPERATIONAL", "formatted_address": "Av. Tlahuac 3493, San Antonio Culhuacan, Iztapalapa, 09800 Ciudad de M\u00e9xico, CDMX", "geometry": {"location": {"lat": 19.340837, "lng": -99.108693}, "viewport": {"northeast": {"lat": 19.34217402989272, "lng": -99.10729432010727}, "southwest": {"lat": 19.33947437010728, "lng": -99.10999397989272}}}, "icon": "https://maps.gstatic.com/mapfiles/place_api/icons/v1/png_71/generic_business-71.png", "name": "Funerales Arambher", "opening_hours": {"open_now": true}, "place_id": "ChIJm8PFdgL-0YURa0Bj5FKTrso", "plus_code": {"compound_code": "8VRR+8G Mexico City", "global_code": "76F28VRR+8G"}, "rating": 5, "reference": "ChIJm8PFdgL-0YURa0Bj5FKTrso", "types": ["funeral_home", "point_of_interest", "establishment"], "user_ratings_total": 2}, {"business_status": "OPERATIONAL", "formatted_address": "Calle Combate de Celaya 1 Spmz 6, U.H. Vicente Guerrero, Iztapalapa, 09200 Ciudad de M\u00e9xico", "geometry": {"location": {"lat": 19.3575128, "lng": -99.05353939999999}, "viewport": {"northeast": {"lat": 19.35886367989272, "lng": -99.05222972010728}, "southwest": {"lat": 19.35616402010728, "lng": -99.05492937989273}}}, "icon": "https://maps.gstatic.com/mapfiles/place_api/icons/v1/png_71/generic_business-71.png", "name": "Funerales Sevilla", "opening_hours": {"open_now": true}, "place_id": "ChIJqYV-r3f90YURiEGIXHWNtZg", "plus_code": {"compound_code": "9W5W+2H Mexico City", "global_code": "76F29W5W+2H"}, "rating": 3.9, "reference": "ChIJqYV-r3f90YURiEGIXHWNtZg", "types": ["funeral_home", "point_of_interest", "establishment"], "user_ratings_total": 8}, {"business_status": "OPERATIONAL", "formatted_address": "Cadmio 24 Paraje, San Juan, Iztapalapa, 09830", "geometry": {"location": {"lat": 19.3440986, "lng": -99.0802252}, "viewport": {"northeast": {"lat": 19.34545937989272, "lng": -99.07894027010728}, "southwest": {"lat": 19.34275972010727, "lng": -99.08163992989273}}}, "icon": "https://maps.gstatic.com/mapfiles/place_api/icons/v1/png_71/generic_business-71.png", "name": "Izaz Cremaciones", "opening_hours": {"open_now": true}, "photos": [{"height": 768, "html_attributions": ["<a href=\"https://maps.google.com/maps/contrib/112756569574830456642\">imirq ziur</a>"], "photo_reference": "CmRaAAAAE4sW_zXuT23y9p_vJlD7EiwHowSGIMhQXiTwdzYIJC5J3ufHcV0RckKBqXeK42v1tq1olvFdDlj4sG17xsx5VWl_tpuj_XO_zeO86jyIMNZ_qS6OEoHCOJ8jrPL3gT45EhCDUvVSgWGZKUcjiAY18uAcGhRyIEiGJk4xE0YEo_wkAwYs_WdGpw", "width": 1280}], "place_id": "ChIJs9vII_X90YURFME_7rsO9Ks", "plus_code": {"compound_code": "8WV9+JW San Juan, Mexico City", "global_code": "76F28WV9+JW"}, "rating": 4.2, "reference": "ChIJs9vII_X90YURFME_7rsO9Ks", "types": ["funeral_home", "point_of_interest", "establishment"], "user_ratings_total": 10}, {"business_status": "OPERATIONAL", "formatted_address": "Canal R\u00edo Churubusco 1635, \u00c1rea Federal Central de Abastos, Iztapalapa, 09040 Ciudad de M\u00e9xico, CDMX", "geometry": {"location": {"lat": 19.3763672, "lng": -99.0952832}, "viewport": {"northeast": {"lat": 19.37770327989272, "lng": -99.09371852010727}, "southwest": {"lat": 19.37500362010728, "lng": -99.09641817989272}}}, "icon": "https://maps.gstatic.com/mapfiles/place_api/icons/v1/png_71/generic_business-71.png", "name": "Gayosso M\u00f3dulos Plaza Central", "opening_hours": {"open_now": true}, "photos": [{"height": 640, "html_attributions": ["<a href=\"https://maps.google.com/maps/contrib/110725721644035174470\">Ivan Cervantes</a>"], "photo_reference": "CmRaAAAAabeakEqY8VSe7VxVSG8FPO4ALFhSJsfkzugcAlGSdCK6M2zq3Wy-2ByyCtLTEVJZ_28ugtEIZyp6sSFKhiBNUbmia8z2NOanlE-96sPWzVsalsBw8Vv19GiTJml00m-vEhCG7-Fp9Pe8gh6aWHrdHWmqGhQDJFLvywQlx7EZGS8DA9Y50aDWdQ", "width": 480}], "place_id": "ChIJCaMcqtD90YURBn0iRDhyALc", "plus_code": {"compound_code": "9WG3+GV Mexico City", "global_code": "76F29WG3+GV"}, "rating": 0, "reference": "ChIJCaMcqtD90YURBn0iRDhyALc", "types": ["funeral_home", "point_of_interest", "establishment"], "user_ratings_total": 0}, {"business_status": "OPERATIONAL", "formatted_address": "Revoluci\u00f3n Social Mz 4 Lt 33, Constituci\u00f3n de 1917, 09260 Iztapalapa, CDMX", "geometry": {"location": {"lat": 19.3518146, "lng": -99.05416629999999}, "viewport": {"northeast": {"lat": 19.35319982989272, "lng": -99.05280742010729}, "southwest": {"lat": 19.35050017010728, "lng": -99.05550707989272}}}, "icon": "https://maps.gstatic.com/mapfiles/place_api/icons/v1/png_71/generic_business-71.png", "name": "Agencia Funeraria Jard\u00edn Vicente Guerrero", "opening_hours": {"open_now": true}, "place_id": "ChIJnxgoAXn90YURAlvxaWcMBlw", "plus_code": {"compound_code": "9W2W+P8 Mexico City", "global_code": "76F29W2W+P8"}, "rating": 0, "reference": "ChIJnxgoAXn90YURAlvxaWcMBlw", "types": ["funeral_home", "point_of_interest", "establishment"], "user_ratings_total": 0}, {"business_status": "OPERATIONAL", "formatted_address": "Av. San Rafael Atlixco 118, Guadalupe del Moral, Iztapalapa, 09300 Ciudad de M\u00e9xico, CDMX", "geometry": {"location": {"lat": 19.3703449, "lng": -99.0746824}, "viewport": {"northeast": {"lat": 19.37169402989272, "lng": -99.07335772010725}, "southwest": {"lat": 19.36899437010728, "lng": -99.0760573798927}}}, "icon": "https://maps.gstatic.com/mapfiles/place_api/icons/v1/png_71/generic_business-71.png", "name": "FUNERARIA EMA\u00daS", "opening_hours": {"open_now": true}, "place_id": "ChIJrSLfu7790YUR23XLc9DmGzE", "plus_code": {"compound_code": "9WCG+44 Mexico City", "global_code": "76F29WCG+44"}, "rating": 0, "reference": "ChIJrSLfu7790YUR23XLc9DmGzE", "types": ["funeral_home", "point_of_interest", "establishment"], "user_ratings_total": 0}, {"business_status": "OPERATIONAL", "formatted_address": "Francisco del Paso y Troncoso 1241 (eje 3 oriente) Campamento 2 de Octubre 08930 Ciudad de M\u00e9xico, CDMX, entre las estaciones del metro, Iztacalco y Apatlaco, (L\u00ednea 8, Campamento 2 de Octubre, 08930 Ciudad de M\u00e9xico, CDMX", "geometry": {"location": {"lat": 19.3823295, "lng": -99.1110238}, "viewport": {"northeast": {"lat": 19.38369087989272, "lng": -99.10962997010726}, "southwest": {"lat": 19.38099122010728, "lng": -99.11232962989271}}}, "icon": "https://maps.gstatic.com/mapfiles/place_api/icons/v1/png_71/generic_business-71.png", "name": "Funeraria, Funerales, Cremaciones y Velatorios, ''AlfA y OmegA''", "opening_hours": {"open_now": true}, "photos": [{"height": 5120, "html_attributions": ["<a href=\"https://maps.google.com/maps/contrib/116724561170279717746\">A Google User</a>"], "photo_reference": "CmRaAAAAsnItrYLWlExg2iTdwKC0ht4ZTovvTRkDB3PXSYgEnefirOXXdH-SiDTF4SML9HE33uIB_FUdnxrApwqPOh8I-KoYjem0DCgMQzNe-hxJrA8LDvpfrhG6DNDrxRqgMl-SEhDZVl6uYptOJE987mO3_bizGhSz-GoXqu6tuVkWhY3h4ZxGZlmJpA", "width": 3840}], "place_id": "ChIJHwffl3z-0YURWzdrVfi0f4s", "plus_code": {"compound_code": "9VJQ+WH Mexico City", "global_code": "76F29VJQ+WH"}, "rating": 5, "reference": "ChIJHwffl3z-0YURWzdrVfi0f4s", "types": ["funeral_home", "church", "place_of_worship", "point_of_interest", "establishment"], "user_ratings_total": 1}, {"business_status": "OPERATIONAL", "formatted_address": "Ingenieros Mec\u00e1nicos Mz.15, Nueva Rosita, Iztapalapa, 09420 Ciudad de M\u00e9xico, CDMX", "geometry": {"location": {"lat": 19.3783355, "lng": -99.10464309999999}, "viewport": {"northeast": {"lat": 19.37968567989272, "lng": -99.10329527010728}, "southwest": {"lat": 19.37698602010727, "lng": -99.10599492989272}}}, "icon": "https://maps.gstatic.com/mapfiles/place_api/icons/v1/png_71/generic_business-71.png", "name": "AGENCIA FUNERARIA JARAMILLO", "opening_hours": {"open_now": true}, "photos": [{"height": 294, "html_attributions": ["<a href=\"https://maps.google.com/maps/contrib/110458188332807606228\">AGENCIA FUNERARIA JARAMILLO</a>"], "photo_reference": "CmRaAAAAFXwzsiBtP6sst94o7aE63igciwKsktVJoLYxIpXm_layVsUCTnoc7S5PKCAzTORpkbzto-cS-DQahVde1RVb1TTlKtOBqxbm-OKWswSkm-xaS-uTpi5iiY-lIb7K96FgEhBhUu6arW6wMGoxHo8cpRscGhQLfVZWxKu00j8bJmS55RZ8yc9tUg", "width": 630}], "place_id": "ChIJga4Br3n-0YURTj3Xb2f-wfY", "plus_code": {"compound_code": "9VHW+84 Mexico City", "global_code": "76F29VHW+84"}, "rating": 5, "reference": "ChIJga4Br3n-0YURTj3Xb2f-wfY", "types": ["funeral_home", "point_of_interest", "establishment"], "user_ratings_total": 3}]