[{"business_status": "OPERATIONAL", "formatted_address": "09837, Ermita Iztapalapa 1551, 8va Amp San Miguel, Iztapalapa, Ciudad de M\u00e9xico, CDMX", "geometry": {"location": {"lat": 19.354264, "lng": -99.0831147}, "viewport": {"northeast": {"lat": 19.35578182989272, "lng": -99.08167912010728}, "southwest": {"lat": 19.35308217010728, "lng": -99.08437877989272}}}, "icon": "https://maps.gstatic.com/mapfiles/place_api/icons/v1/png_71/shopping-71.png", "name": "MUEBLE & HOGAR", "opening_hours": {"open_now": false}, "place_id": "ChIJaSjblO390YURSLGlGjCUvak", "plus_code": {"compound_code": "9W38+PQ Mexico City", "global_code": "76F29W38+PQ"}, "rating": 4.5, "reference": "ChIJaSjblO390YURSLGlGjCUvak", "types": ["home_goods_store", "point_of_interest", "store", "establishment"], "user_ratings_total": 2}, {"business_status": "OPERATIONAL", "formatted_address": "Esq. Texcoco, Coronel S. El\u00edas Gonz\u00e1lez 64, Iztapalapa, 09100 Ciudad de M\u00e9xico, CDMX", "geometry": {"location": {"lat": 19.398786, "lng": -99.0540528}, "viewport": {"northeast": {"lat": 19.40015962989272, "lng": -99.05269022010728}, "southwest": {"lat": 19.39745997010728, "lng": -99.05538987989273}}}, "icon": "https://maps.gstatic.com/mapfiles/place_api/icons/v1/png_71/shopping-71.png", "name": "Tienda de art\u00edculos para el hogar", "opening_hours": {"open_now": false}, "place_id": "ChIJdfizBvn80YURAalIMuKi6qA", "plus_code": {"compound_code": "9WXW+G9 Mexico City", "global_code": "76F29WXW+G9"}, "rating": 3, "reference": "ChIJdfizBvn80YURAalIMuKi6qA", "types": ["home_goods_store", "point_of_interest", "store", "establishment"], "user_ratings_total": 1}, {"business_status": "OPERATIONAL", "formatted_address": "Ermita Iztapalapa 762, Granjas San Antonio, Iztapalapa, 09070 Ciudad de M\u00e9xico, CDMX", "geometry": {"location": {"lat": 19.35658, "lng": -99.10811299999999}, "viewport": {"northeast": {"lat": 19.35782787989272, "lng": -99.10677607010729}, "southwest": {"lat": 19.35512822010728, "lng": -99.10947572989272}}}, "icon": "https://maps.gstatic.com/mapfiles/place_api/icons/v1/png_71/shopping-71.png", "name": "whatshome", "opening_hours": {"open_now": false}, "photos": [{"height": 4160, "html_attributions": ["<a href=\"https://maps.google.com/maps/contrib/101053748943745485317\">Brenda Torres</a>"], "photo_reference": "CmRaAAAAUjcOh2JLk7rbSVP8qQ84EdGDTN5nTIjGpiCCgBzVb1dQU8QNcqv8zpUZUi0ygoyTU2HbjjRkfQOSeP3Nj71OstR057HQAn0v1T_iNddHjSBFfP4JnLIW5sShk-EUSd9nEhD9-NrarnGfjd8jXfFrnWYKGhR2oiKawNpNd7KlqSSvkbid-9UzzQ", "width": 2340}], "place_id": "ChIJkyOFwA7-0YURiw-rJ6Kqaqc", "plus_code": {"compound_code": "9V4R+JQ Mexico City", "global_code": "76F29V4R+JQ"}, "rating": 4.7, "reference": "ChIJkyOFwA7-0YURiw-rJ6Kqaqc", "types": ["home_goods_store", "point_of_interest", "store", "establishment"], "user_ratings_total": 59}, {"business_status": "OPERATIONAL", "formatted_address": "Av, Camino Real a San Lorenzo 42, El Manto, Iztapalapa, 09830 CDMX", "geometry": {"location": {"lat": 19.3544124, "lng": -99.0849803}, "viewport": {"northeast": {"lat": 19.35599202989272, "lng": -99.08348337010729}, "southwest": {"lat": 19.35329237010728, "lng": -99.08618302989272}}}, "icon": "https://maps.gstatic.com/mapfiles/place_api/icons/v1/png_71/shopping-71.png", "name": "Compa\u00f1\u00eda DiB de M\u00e9xico", "photos": [{"height": 2250, "html_attributions": ["<a href=\"https://maps.google.com/maps/contrib/113075107859397825709\">A Google User</a>"], "photo_reference": "CmRaAAAAAPHfke69ncy0WO_wYQE1Dbv1xuzRPm0PjQGifGklaP7ZQN3a1otTPUg3efJw3E9XIEXAMI958ls3g_DsN4lLWpoRxKtrLPQk_GhyuUnUQDT-W865QZFnToo6NEeNx19FEhAzOum3Gc_H3_SNBnvLpJ_3GhTjUZJzgH3bVTs42v-pRHyAGcxRPQ", "width": 3000}], "place_id": "ChIJTw1dde790YURjyBItJOEPVU", "plus_code": {"compound_code": "9W38+Q2 El Manto, Mexico City", "global_code": "76F29W38+Q2"}, "rating": 4.6, "reference": "ChIJTw1dde790YURjyBItJOEPVU", "types": ["home_goods_store", "point_of_interest", "store", "establishment"], "user_ratings_total": 20}, {"business_status": "OPERATIONAL", "formatted_address": "Av Canal de Tezontle 1512, \u00c1rea Federal Central de Abastos, Iztapalapa, 09040 Ciudad de M\u00e9xico, CDMX", "geometry": {"location": {"lat": 19.3831995, "lng": -99.0831867}, "viewport": {"northeast": {"lat": 19.38445347989273, "lng": -99.08204182010726}, "southwest": {"lat": 19.38175382010728, "lng": -99.08474147989271}}}, "icon": "https://maps.gstatic.com/mapfiles/place_api/icons/v1/png_71/shopping-71.png", "name": "The Home Store", "opening_hours": {"open_now": true}, "photos": [{"height": 2268, "html_attributions": ["<a href=\"https://maps.google.com/maps/contrib/113532466503959516920\">Rub\u00e9n Miranda</a>"], "photo_reference": "CmRaAAAAmmT6bIBVG6KEwTNhgDxJHE24FI3nWjikZ8MGr7XVeagdhh0XeS7fJcx3SfyR_r8cJ6IOhdvDIEiXxARGCpfgknvO5A_Di_4jBvkWKwKpxn3xZsBXKHKe8rpuZObXGIKFEhB_2vwf-UJCLW3rnaefz1OdGhTFNHhUJ-aEimQL_13k6b6fiwax3Q", "width": 4032}], "place_id": "ChIJcZDCwsv90YURghBMxTsN1Fg", "plus_code": {"compound_code": "9WM8+7P Mexico City", "global_code": "76F29WM8+7P"}, "rating": 4.4, "reference": "ChIJcZDCwsv90YURghBMxTsN1Fg", "types": ["home_goods_store", "point_of_interest", "store", "establishment"], "user_ratings_total": 999}, {"business_status": "OPERATIONAL", "formatted_address": "Mercado Cabecera de Iztapalapa Local 19 entre Calle Ayuntamiento y, Cerrada Lerdo, San Pablo, 09000 Ciudad de M\u00e9xico, CDMX", "geometry": {"location": {"lat": 19.3606293, "lng": -99.0913138}, "viewport": {"northeast": {"lat": 19.36198637989272, "lng": -99.08999237010728}, "southwest": {"lat": 19.35928672010727, "lng": -99.09269202989273}}}, "icon": "https://maps.gstatic.com/mapfiles/place_api/icons/v1/png_71/shopping-71.png", "name": "Jarceria y Articulos de barro \"Don Agustin\"", "opening_hours": {"open_now": true}, "photos": [{"height": 3120, "html_attributions": ["<a href=\"https://maps.google.com/maps/contrib/110278901847584383571\">Harim Monta\u00f1o</a>"], "photo_reference": "CmRaAAAAaFlxm3Z1kg-MTHiR3VW8rXzenRsecXQD5zgsP5cEt3sIsin0ZTjQH1uMDQaJ8B56NXFzweskEmTtDTOUNLm5WUbts36-YiI28sqaGbiAr28DGkZummQEr5trrT4KS600EhCmE9q9MSxsniwVhPf9-B7ZGhR2hMahxaWkbVl4u8uHvRyyFoniLQ", "width": 4160}], "place_id": "ChIJRQXUPeb90YURfMN7D8F5qao", "plus_code": {"compound_code": "9W65+7F Mexico City", "global_code": "76F29W65+7F"}, "rating": 5, "reference": "ChIJRQXUPeb90YURfMN7D8F5qao", "types": ["home_goods_store", "point_of_interest", "store", "establishment"], "user_ratings_total": 1}, {"business_status": "OPERATIONAL", "formatted_address": "San Francisco 3, El Santuario, Iztapalapa, 09836 Ciudad de M\u00e9xico, CDMX", "geometry": {"location": {"lat": 19.353743, "lng": -99.09237189999999}, "viewport": {"northeast": {"lat": 19.35509282989273, "lng": -99.09102207010727}, "southwest": {"lat": 19.35239317010728, "lng": -99.09372172989272}}}, "icon": "https://maps.gstatic.com/mapfiles/place_api/icons/v1/png_71/shopping-71.png", "name": "La fiestecilla de la limpieza", "opening_hours": {"open_now": false}, "photos": [{"height": 1836, "html_attributions": ["<a href=\"https://maps.google.com/maps/contrib/102793796258688296517\">humberto trejo cruz</a>"], "photo_reference": "CmRaAAAAQKlAdTbEtliepKzlNI2YZ9oIOAidVi3viWZESvS3tVjqgtY9WtEsh1Dp4zj70YXrc2DQQlW4ETEhtF6hhVGF4zJHsrUXwWSEwDY5HCYiF1lBcmyOHD1zlX7XY1-EBiJ8EhA2ojDngc0w-WtTct5Vo-ANGhRO5cOSw7ukN0dRxuw3WeOAMlxXfQ", "width": 3264}], "place_id": "ChIJt406GOMDzoURK15YqD2vX5A", "plus_code": {"compound_code": "9W35+F3 Mexico City", "global_code": "76F29W35+F3"}, "rating": 4.5, "reference": "ChIJt406GOMDzoURK15YqD2vX5A", "types": ["home_goods_store", "point_of_interest", "store", "establishment"], "user_ratings_total": 2}, {"business_status": "OPERATIONAL", "formatted_address": "Av. Hidalgo # 128 Local L, Dentro de Plaza Hidalgo, San Pablo, 09000 Iztapalapa, CDMX", "geometry": {"location": {"lat": 19.359821, "lng": -99.09050599999999}, "viewport": {"northeast": {"lat": 19.36112527989272, "lng": -99.08917102010727}, "southwest": {"lat": 19.35842562010728, "lng": -99.09187067989272}}}, "icon": "https://maps.gstatic.com/mapfiles/place_api/icons/v1/png_71/shopping-71.png", "name": "Pl\u00e1sticos y Dulces \"Carry\"", "opening_hours": {"open_now": true}, "photos": [{"height": 1836, "html_attributions": ["<a href=\"https://maps.google.com/maps/contrib/106749126897685522445\">Pl\u00e1sticos y Dulces Mar\u00eda Del Carmen &quot;Carry&quot;</a>"], "photo_reference": "CmRaAAAApc5MoKquYRTBTI_3HBM54pfCbWVnFKwM_t6Qo95pRfszZLyI3vo1Bc3_8SBS8bsUUgSytnJr4OOeyYK8xRK_HFOC6BtGvc4canHKn0ZOMT0pIgVJyTrl7BDpKHEXfpmREhDq5ucKaMwIiAF9Z46_JjVvGhS6l8LcC3uMoJAO2bB89QSR2AZ-tQ", "width": 3264}], "place_id": "ChIJK3jvHOb90YURS0ruymrBmCE", "plus_code": {"compound_code": "9W55+WQ Mexico City", "global_code": "76F29W55+WQ"}, "rating": 5, "reference": "ChIJK3jvHOb90YURS0ruymrBmCE", "types": ["home_goods_store", "point_of_interest", "store", "establishment"], "user_ratings_total": 6}, {"business_status": "OPERATIONAL", "formatted_address": "Aldama 108, San Pablo, Iztapalapa, 09000 Ciudad de M\u00e9xico, CDMX", "geometry": {"location": {"lat": 19.358892, "lng": -99.0899615}, "viewport": {"northeast": {"lat": 19.36019902989272, "lng": -99.08862317010728}, "southwest": {"lat": 19.35749937010728, "lng": -99.09132282989272}}}, "icon": "https://maps.gstatic.com/mapfiles/place_api/icons/v1/png_71/shopping-71.png", "name": "Tupperware", "place_id": "ChIJp-ohBHb90YURMcziGqFBThw", "plus_code": {"compound_code": "9W56+H2 Mexico City", "global_code": "76F29W56+H2"}, "rating": 2, "reference": "ChIJp-ohBHb90YURMcziGqFBThw", "types": ["home_goods_store", "point_of_interest", "store", "establishment"], "user_ratings_total": 2}, {"business_status": "OPERATIONAL", "formatted_address": "09856, Oscar Loya 19, Amp Veracruzana, Iztapalapa, Ciudad de M\u00e9xico, CDMX", "geometry": {"location": {"lat": 19.3502876, "lng": -99.0900053}, "viewport": {"northeast": {"lat": 19.35161157989272, "lng": -99.08865617010728}, "southwest": {"lat": 19.34891192010727, "lng": -99.09135582989272}}}, "icon": "https://maps.gstatic.com/mapfiles/place_api/icons/v1/png_71/shopping-71.png", "name": "MISCELANEA IVAN", "opening_hours": {"open_now": true}, "place_id": "ChIJJ-FlfvD90YURrjlbNx91LAo", "plus_code": {"compound_code": "9W25+4X Mexico City", "global_code": "76F29W25+4X"}, "rating": 3.9, "reference": "ChIJJ-FlfvD90YURrjlbNx91LAo", "types": ["home_goods_store", "point_of_interest", "store", "establishment"], "user_ratings_total": 11}, {"business_status": "OPERATIONAL", "formatted_address": "Mercado Iztapalapa Local 23-24, San Pablo, Iztapalapa, 09000 Ciudad de M\u00e9xico", "geometry": {"location": {"lat": 19.3605236, "lng": -99.0913118}, "viewport": {"northeast": {"lat": 19.36188507989272, "lng": -99.09000737010727}, "southwest": {"lat": 19.35918542010728, "lng": -99.09270702989272}}}, "icon": "https://maps.gstatic.com/mapfiles/place_api/icons/v1/png_71/shopping-71.png", "name": "Jarcier\u00eda Yanet", "opening_hours": {"open_now": true}, "photos": [{"height": 4032, "html_attributions": ["<a href=\"https://maps.google.com/maps/contrib/108066775386258575153\">A Google User</a>"], "photo_reference": "CmRaAAAAfrE8T2qPUzT59vA0N4wsf23e-ACLTMFLZJ9bKk3jbMLfBPfHyPx9lhc_I-0DvgPhayuObogqg1wU5rCozAeMx2zzjitqgGeiDF5YXhFiPzSBWminHEhmfwaOmn2STIlyEhD4zK9GkQ6UD8g-Z6uB4weSGhRQ0WO3-4BYx95P9h-_hBZM9-lkPQ", "width": 3024}], "place_id": "ChIJ56pGSRP90YURvtr6KoX-pqs", "plus_code": {"compound_code": "9W65+6F Mexico City", "global_code": "76F29W65+6F"}, "rating": 5, "reference": "ChIJ56pGSRP90YURvtr6KoX-pqs", "types": ["home_goods_store", "point_of_interest", "store", "establishment"], "user_ratings_total": 1}, {"business_status": "OPERATIONAL", "formatted_address": "CALLE DE MICHOACAN No. 20 MODULO 14, CENTRO COMERCIAL PRICE SHOES IZTAPALAPA RENOVACION PARQUE, Complejo Industrial Tecnol\u00f3gico, Iztapalapa, 09220 CDMX", "geometry": {"location": {"lat": 19.353409, "lng": -99.0797631}, "viewport": {"northeast": {"lat": 19.35470292989272, "lng": -99.07844187010728}, "southwest": {"lat": 19.35200327010728, "lng": -99.08114152989273}}}, "icon": "https://maps.gstatic.com/mapfiles/place_api/icons/v1/png_71/shopping-71.png", "name": "INTIMA HOGAR", "opening_hours": {"open_now": false}, "photos": [{"height": 3120, "html_attributions": ["<a href=\"https://maps.google.com/maps/contrib/117238907925946526386\">maria teresa Floresreyes</a>"], "photo_reference": "CmRaAAAAEuGdkM1vfM9o2S41aQuCyWG8lDp-Y1HPgcwUwFaWM7y38Un1kPkT8C45CdIxv12NBC4_sI5-hFiZmw0bNOzFopAeLR5TpXflm8COQS5f6rTGT8ehyiXRHgMBj6tHcICIEhAMHrY8MF3x8lpwwPPdpYEwGhStGz3IVkMZajnYlLZ_elD2drRE8Q", "width": 4160}], "place_id": "ChIJySX_qPL90YURANLU8c917AQ", "plus_code": {"compound_code": "9W3C+93 Complejo Industrial Tecnol\u00f3gico, Mexico City", "global_code": "76F29W3C+93"}, "rating": 4.5, "reference": "ChIJySX_qPL90YURANLU8c917AQ", "types": ["home_goods_store", "point_of_interest", "clothing_store", "store", "establishment"], "user_ratings_total": 2}, {"business_status": "OPERATIONAL", "formatted_address": "Barranca, Plan de Iguala, Iztapalapa, 09838 Ciudad de M\u00e9xico, CDMX", "geometry": {"location": {"lat": 19.3518482, "lng": -99.0855428}, "viewport": {"northeast": {"lat": 19.35319802989272, "lng": -99.08419297010727}, "southwest": {"lat": 19.35049837010727, "lng": -99.08689262989272}}}, "icon": "https://maps.gstatic.com/mapfiles/place_api/icons/v1/png_71/shopping-71.png", "name": "vi", "place_id": "ChIJpehL3rD90YUR_aInuS27luM", "plus_code": {"compound_code": "9W27+PQ Mexico City", "global_code": "76F29W27+PQ"}, "rating": 0, "reference": "ChIJpehL3rD90YUR_aInuS27luM", "types": ["home_goods_store", "point_of_interest", "store", "establishment"], "user_ratings_total": 0}, {"business_status": "OPERATIONAL", "formatted_address": "CALLEJON SEGUNDO CAPILLA DE COL, 2a Cerrada de San Juan 10, Ricardo Flores Mag\u00f3n, Iztapalapa, 09820 Ciudad de M\u00e9xico, CDMX", "geometry": {"location": {"lat": 19.355007, "lng": -99.09796890000001}, "viewport": {"northeast": {"lat": 19.35632222989272, "lng": -99.09655382010729}, "southwest": {"lat": 19.35362257010728, "lng": -99.09925347989272}}}, "icon": "https://maps.gstatic.com/mapfiles/place_api/icons/v1/png_71/shopping-71.png", "name": "REJILLAS Y ALAMBRES PULIDOS SA DE CV", "place_id": "ChIJ1QZrBeP90YUR_6SmMBj6ka0", "plus_code": {"compound_code": "9W42+2R Mexico City", "global_code": "76F29W42+2R"}, "rating": 4.3, "reference": "ChIJ1QZrBeP90YUR_6SmMBj6ka0", "types": ["home_goods_store", "point_of_interest", "store", "establishment"], "user_ratings_total": 9}, {"business_status": "OPERATIONAL", "formatted_address": "Libertad, San Sim\u00f3n, Benito Ju\u00e1rez, 03660 Ciudad de M\u00e9xico, CDMX", "geometry": {"location": {"lat": 19.3722859, "lng": -99.14319619999999}, "viewport": {"northeast": {"lat": 19.37370857989272, "lng": -99.14183347010727}, "southwest": {"lat": 19.37100892010727, "lng": -99.14453312989272}}}, "icon": "https://maps.gstatic.com/mapfiles/place_api/icons/v1/png_71/shopping-71.png", "name": "Articulos para hogar y jarcieria local 110", "opening_hours": {"open_now": false}, "photos": [{"height": 1960, "html_attributions": ["<a href=\"https://maps.google.com/maps/contrib/104622068511202789573\">Carlos Hernandez</a>"], "photo_reference": "CmRaAAAACnfw4de1p1dFhofigLdLIajS9-Y7GHdy_BKgu3XtLxSBxueL3VsJRIsJ1y4MJ0paOtY5_HWOo_M_LgunQ_-dhbo922hes9fTZFLFJHkywtccBNf6vtMai56OCX6WdzGJEhBd1rVvUKi_z4mPbvqZaGw6GhSYqP5O4r-_rPktie5kzaNNTCEC5A", "width": 4032}], "place_id": "ChIJWXoFTvb_0YUR2aULMOxLPVg", "plus_code": {"compound_code": "9VC4+WP Mexico City", "global_code": "76F29VC4+WP"}, "rating": 0, "reference": "ChIJWXoFTvb_0YUR2aULMOxLPVg", "types": ["home_goods_store", "point_of_interest", "store", "establishment"], "user_ratings_total": 0}, {"business_status": "OPERATIONAL", "formatted_address": "Capilla del Carmen 31, El Santuario, Iztapalapa, 09820 Ciudad de M\u00e9xico, CDMX", "geometry": {"location": {"lat": 19.354088, "lng": -99.094447}, "viewport": {"northeast": {"lat": 19.35543592989272, "lng": -99.09309642010727}, "southwest": {"lat": 19.35273627010728, "lng": -99.09579607989272}}}, "icon": "https://maps.gstatic.com/mapfiles/place_api/icons/v1/png_71/shopping-71.png", "name": "Quantum IT & Furnitures", "photos": [{"height": 1836, "html_attributions": ["<a href=\"https://maps.google.com/maps/contrib/110507996501409451044\">Josue Cervantes</a>"], "photo_reference": "CmRaAAAAwzUW1X4AbQx1euXP3qiAYkdhYlDCVaVgvBXrMyW_5mvs4NCyxnkf9OP47sy_r5QbEiFZPLQUY-c7wc-f3azUMAKhS8IgFO5oQEBxcpStKZeiT3B36bxW0HsbbhoHF6mtEhD19oaOOmBWCTgCVsljymTZGhSW-0gcFxsDixH_BqwHzevcTIdFNg", "width": 3264}], "place_id": "ChIJxadRfZj90YURkUjw8EePSo8", "plus_code": {"compound_code": "9W34+J6 Mexico City", "global_code": "76F29W34+J6"}, "rating": 5, "reference": "ChIJxadRfZj90YURkUjw8EePSo8", "types": ["home_goods_store", "point_of_interest", "store", "establishment"], "user_ratings_total": 1}, {"business_status": "OPERATIONAL", "formatted_address": "Ayuntamiento No. 18 O, Iztapalapa, 09000 Ciudad de M\u00e9xico", "geometry": {"location": {"lat": 19.3588846, "lng": -99.09176029999999}, "viewport": {"northeast": {"lat": 19.36024862989272, "lng": -99.09046562010728}, "southwest": {"lat": 19.35754897010727, "lng": -99.09316527989272}}}, "icon": "https://maps.gstatic.com/mapfiles/place_api/icons/v1/png_71/shopping-71.png", "name": "Almacenes Anfora", "place_id": "ChIJ1Z-Gdeb90YURRBFgkBkukdo", "plus_code": {"compound_code": "9W55+H7 Mexico City", "global_code": "76F29W55+H7"}, "rating": 4, "reference": "ChIJ1Z-Gdeb90YURRBFgkBkukdo", "types": ["home_goods_store", "point_of_interest", "store", "establishment"], "user_ratings_total": 1}, {"business_status": "OPERATIONAL", "formatted_address": "Ermita Iztapalapa 1551E, 8va Amp San Miguel, Iztapalapa, 09837 Ciudad de M\u00e9xico, CDMX", "geometry": {"location": {"lat": 19.3546854, "lng": -99.08346929999999}, "viewport": {"northeast": {"lat": 19.35609757989272, "lng": -99.08208767010727}, "southwest": {"lat": 19.35339792010727, "lng": -99.08478732989272}}}, "icon": "https://maps.gstatic.com/mapfiles/place_api/icons/v1/png_71/shopping-71.png", "name": "SecTec", "opening_hours": {"open_now": false}, "photos": [{"height": 2448, "html_attributions": ["<a href=\"https://maps.google.com/maps/contrib/100766813613988829402\">sandra pi\u00f1a</a>"], "photo_reference": "CmRaAAAAOO4_qm8uSTRBXWmBFfHzCYGZb6cGdrEYZGch9fjixQ38bqVRbIwpzvf8zzdXkSst7TS28KICvWjvhMhN4jxfMrMLs8_aS4qLPjVgUdN-Kue6r48iR61DUWNxAE95eADfEhA3-WxJyfzAOIxrIwzMkFJPGhSMJZYrMbA2UP3x6VLzT7fKan0b1g", "width": 3264}], "place_id": "ChIJGa8y6-390YURQmfWT27wOCw", "plus_code": {"compound_code": "9W38+VJ Mexico City", "global_code": "76F29W38+VJ"}, "rating": 4.7, "reference": "ChIJGa8y6-390YURQmfWT27wOCw", "types": ["home_goods_store", "point_of_interest", "store", "establishment"], "user_ratings_total": 12}, {"business_status": "OPERATIONAL", "formatted_address": "Calle San Pablo 7, El Santuario, Iztapalapa, 09836 Ciudad de M\u00e9xico, CDMX", "geometry": {"location": {"lat": 19.3550708, "lng": -99.0937805}, "viewport": {"northeast": {"lat": 19.35641312989272, "lng": -99.09245467010727}, "southwest": {"lat": 19.35371347010727, "lng": -99.09515432989272}}}, "icon": "https://maps.gstatic.com/mapfiles/place_api/icons/v1/png_71/shopping-71.png", "name": "Comercializadora Y Ferretera Shuma Sa De Cv", "opening_hours": {"open_now": false}, "place_id": "ChIJyxG-7-T90YURDhlq4JMwlws", "plus_code": {"compound_code": "9W44+2F Mexico City", "global_code": "76F29W44+2F"}, "rating": 4.6, "reference": "ChIJyxG-7-T90YURDhlq4JMwlws", "types": ["home_goods_store", "point_of_interest", "store", "establishment"], "user_ratings_total": 16}, {"business_status": "OPERATIONAL", "formatted_address": "Artemio Alpizar Ruz 322, San Miguel, Iztapalapa, 09360 Ciudad de M\u00e9xico, CDMX", "geometry": {"location": {"lat": 19.3574025, "lng": -99.0817018}, "viewport": {"northeast": {"lat": 19.35875232989272, "lng": -99.08035197010727}, "southwest": {"lat": 19.35605267010728, "lng": -99.08305162989272}}}, "icon": "https://maps.gstatic.com/mapfiles/place_api/icons/v1/png_71/shopping-71.png", "name": "Limpieza Facil", "opening_hours": {"open_now": false}, "photos": [{"height": 809, "html_attributions": ["<a href=\"https://maps.google.com/maps/contrib/100240286821906056584\">A Google User</a>"], "photo_reference": "CmRaAAAAY578e6Xu8GeHZHw9Ew4oWwkTUfsHZQiixECHHp-sQDDiiL39Qjgns80TZAH9UgltEUdrkR_gyZWCgQR3fpp8uu-9MTC_iD4IISk9xf2bkp266jBaKjuXSbjUReZShpd4EhAig1Qcw17sFzzXVTPqvMOmGhTKP7DlzmCDVNUs_iaVLgvy11UppQ", "width": 1440}], "place_id": "ChIJj0E8Jcn90YURM0AbUaqX5ro", "plus_code": {"compound_code": "9W49+X8 Mexico City", "global_code": "76F29W49+X8"}, "rating": 4.9, "reference": "ChIJj0E8Jcn90YURM0AbUaqX5ro", "types": ["home_goods_store", "point_of_interest", "store", "establishment"], "user_ratings_total": 29}]