[{"business_status": "OPERATIONAL", "formatted_address": "San Lucas, Iztapalapa, 09640 Mexico City", "geometry": {"location": {"lat": 19.3595258, "lng": -99.09192279999999}, "viewport": {"northeast": {"lat": 19.36087562989272, "lng": -99.09057297010727}, "southwest": {"lat": 19.35817597010728, "lng": -99.09327262989271}}}, "icon": "https://maps.gstatic.com/mapfiles/place_api/icons/v1/png_71/generic_business-71.png", "name": "Banquetes Julianni's", "opening_hours": {"open_now": true}, "photos": [{"height": 1280, "html_attributions": ["<a href=\"https://maps.google.com/maps/contrib/115096853565339728141\">A Google User</a>"], "photo_reference": "CmRaAAAA2VfMas6f_Y76PeiSe-A-8MPQAj4E8MjaRGGYk16mnkSmhdd3IJGh60hSP0-QlHdtfh_mpmSMBIh41MejHlfb0ewicNcDhzQWa7zPQZY7SFNkZjPUEIM76eaoNTd-eIDzEhAvq-lAUZ3_kIRf6NWPr1-aGhTTq15pDGbplmFkH8v6dioMCPS-QA", "width": 720}], "place_id": "ChIJcT3tM8odzoURwEnrP63YmLg", "plus_code": {"compound_code": "9W55+R6 Mexico City", "global_code": "76F29W55+R6"}, "rating": 5, "reference": "ChIJcT3tM8odzoURwEnrP63YmLg", "types": ["meal_delivery", "food", "point_of_interest", "establishment"], "user_ratings_total": 3}, {"business_status": "OPERATIONAL", "formatted_address": "Catedral de Quer\u00e9taro 50, El Santuario, Iztapalapa, 09820 Ciudad de M\u00e9xico, CDMX", "geometry": {"location": {"lat": 19.3546883, "lng": -99.09281279999999}, "viewport": {"northeast": {"lat": 19.35542585, "lng": -99.08868585000002}, "southwest": {"lat": 19.35247565, "lng": -99.09418844999998}}}, "icon": "https://maps.gstatic.com/mapfiles/place_api/icons/v1/png_71/generic_business-71.png", "name": "Comida para eventos y fiestas", "opening_hours": {"open_now": true}, "photos": [{"height": 2448, "html_attributions": ["<a href=\"https://maps.google.com/maps/contrib/114682679976555546062\">A Google User</a>"], "photo_reference": "CmRaAAAA7Hi-nhdA89N07ApBCPbeO-4yHUPgE_8oG5yLd34m0ehCouDskyvE7kEkQHdelFbm7NA81s61Gc1djQ0GpmGsmG8u2B5CEVWeo1ps-YGA7Y7uhdTOb8xKENWFb2QUXx9aEhBytkjiLU1367CW5RpuIguyGhSptRjPOb45ZPTedNCsa_OVLETv3Q", "width": 3264}], "place_id": "ChIJ0To1Xcz90YUR89mdfCry_Qs", "plus_code": {"compound_code": "9W34+VV Mexico City", "global_code": "76F29W34+VV"}, "rating": 5, "reference": "ChIJ0To1Xcz90YUR89mdfCry_Qs", "types": ["meal_delivery", "restaurant", "food", "point_of_interest", "establishment"], "user_ratings_total": 1}, {"business_status": "OPERATIONAL", "formatted_address": "Quinto Callej\u00f3n Moctezuma 64, San Miguel, Iztapalapa, 09360 Ciudad de M\u00e9xico, CDMX", "geometry": {"location": {"lat": 19.3591074, "lng": -99.0805006}, "viewport": {"northeast": {"lat": 19.36045022989273, "lng": -99.07913167010727}, "southwest": {"lat": 19.35775057010729, "lng": -99.08183132989271}}}, "icon": "https://maps.gstatic.com/mapfiles/place_api/icons/v1/png_71/generic_business-71.png", "name": "BURRITOS Y TACONES SAN CHARBEL", "opening_hours": {"open_now": false}, "photos": [{"height": 857, "html_attributions": ["<a href=\"https://maps.google.com/maps/contrib/117504510414477179365\">A Google User</a>"], "photo_reference": "CmRaAAAALKCCy_3gjgbN8MJVob2bd4rZRjQvMIzWaUJt9ztRVX6_KC1trxzrE6rnxWLN1BfboUQd_rNTgZ65EwMeiEkK3cYPenTQzH8xN_IKtub0LC604a3zFAqYvUzuCg4giZW-EhD93WITOHL8MptcQTIUMGiFGhTeu7YBTuJIc0Q_PC47Swhnie3AXQ", "width": 1280}], "place_id": "ChIJXbxk37j90YURRuFV_fIPFGk", "plus_code": {"compound_code": "9W59+JQ Mexico City", "global_code": "76F29W59+JQ"}, "rating": 5, "reference": "ChIJXbxk37j90YURRuFV_fIPFGk", "types": ["meal_delivery", "food", "point_of_interest", "establishment"], "user_ratings_total": 1}, {"business_status": "OPERATIONAL", "formatted_address": "Hortencia 521, Los \u00c1ngeles, Iztapalapa, 09830 Ciudad de M\u00e9xico, CDMX", "geometry": {"location": {"lat": 19.3462465, "lng": -99.06642810000001}, "viewport": {"northeast": {"lat": 19.34758287989272, "lng": -99.06502187010729}, "southwest": {"lat": 19.34488322010727, "lng": -99.06772152989272}}}, "icon": "https://maps.gstatic.com/mapfiles/place_api/icons/v1/png_71/generic_business-71.png", "name": "La cocina de mi Aby", "opening_hours": {"open_now": false}, "photos": [{"height": 576, "html_attributions": ["<a href=\"https://maps.google.com/maps/contrib/103940616951528728759\">A Google User</a>"], "photo_reference": "CmRaAAAA_bG4pl1CZBfJQ9lWjzV3Y1850BKaCtmSkJ-pJzlagqn4vgiTDgdyrepTH92fh_lwaHR3hxBr5-OezZ4BDUmIkDw_6Im5mCS9frrJKHt13IEh9Dv1YkomFDkhm_h8vDJvEhDbL_7UOlXZk3NideN0Lo_6GhTN86jOpOrphhIbzTZNWrEFldrZig", "width": 1024}], "place_id": "ChIJ8ZuhKAr90YURl_CtIz5A-4k", "plus_code": {"compound_code": "8WWM+FC Mexico City", "global_code": "76F28WWM+FC"}, "rating": 0, "reference": "ChIJ8ZuhKAr90YURl_CtIz5A-4k", "types": ["meal_delivery", "food", "point_of_interest", "establishment"], "user_ratings_total": 0}, {"business_status": "OPERATIONAL", "formatted_address": "Ermita Iztapalapa 844, Sta B\u00e1rbara, Iztapalapa, 09000 Ciudad de M\u00e9xico, CDMX", "geometry": {"location": {"lat": 19.3559948, "lng": -99.10370479999999}, "viewport": {"northeast": {"lat": 19.35735827989272, "lng": -99.10235362010727}, "southwest": {"lat": 19.35465862010728, "lng": -99.10505327989272}}}, "icon": "https://maps.gstatic.com/mapfiles/place_api/icons/v1/png_71/generic_business-71.png", "name": "Los Bocadillos", "opening_hours": {"open_now": false}, "place_id": "ChIJw1Q_rwn-0YURrdxHHqg4PIw", "plus_code": {"compound_code": "9V4W+9G Mexico City", "global_code": "76F29V4W+9G"}, "rating": 0, "reference": "ChIJw1Q_rwn-0YURrdxHHqg4PIw", "types": ["meal_delivery", "food", "point_of_interest", "establishment"], "user_ratings_total": 0}, {"business_status": "OPERATIONAL", "formatted_address": "Av. Revoluci\u00f3n Soc., Constituci\u00f3n de 1917, Iztapalapa, 09260 Ciudad de M\u00e9xico, CDMX", "geometry": {"location": {"lat": 19.3528513, "lng": -99.05884309999999}, "viewport": {"northeast": {"lat": 19.35417147989272, "lng": -99.05749977010727}, "southwest": {"lat": 19.35147182010727, "lng": -99.06019942989272}}}, "icon": "https://maps.gstatic.com/mapfiles/place_api/icons/v1/png_71/generic_business-71.png", "name": "Grim Delivery", "opening_hours": {"open_now": true}, "photos": [{"height": 4160, "html_attributions": ["<a href=\"https://maps.google.com/maps/contrib/112153379637371685596\">A Google User</a>"], "photo_reference": "CmRaAAAAs8GYAhawTh1Dbsf8iApp2L5-2ZGWvYPfWP7Fp-NTkCSSF-gwTM2mKI3Yxdau56erPHu851Q0RroD0dlG6RdffDY-9P2IG9NJjazefWpn8euz7Bri3f0D0gsqhnmE6S50EhCG5nsTe4OgdU2EzeRyafH_GhTTEZKz0WmJgr-QBa9H-Gk4DiuNWA", "width": 3120}], "place_id": "ChIJb3V4ANj90YURUnmsc-kY9rA", "plus_code": {"compound_code": "9W3R+4F Mexico City", "global_code": "76F29W3R+4F"}, "rating": 4.7, "reference": "ChIJb3V4ANj90YURUnmsc-kY9rA", "types": ["meal_delivery", "food", "point_of_interest", "establishment"], "user_ratings_total": 15}, {"business_status": "OPERATIONAL", "formatted_address": "Av gavilan num 101 Entre calle javier mina, Av. Gavil\u00e1n y, Iztapalapa, 09360 Ciudad de M\u00e9xico, CDMX", "geometry": {"location": {"lat": 19.362685, "lng": -99.0797571}, "viewport": {"northeast": {"lat": 19.36399377989272, "lng": -99.07842292010729}, "southwest": {"lat": 19.36129412010728, "lng": -99.08112257989272}}}, "icon": "https://maps.gstatic.com/mapfiles/place_api/icons/v1/png_71/generic_business-71.png", "name": "Antojitos Susi", "opening_hours": {"open_now": false}, "photos": [{"height": 3120, "html_attributions": ["<a href=\"https://maps.google.com/maps/contrib/109916819176362216796\">A Google User</a>"], "photo_reference": "CmRaAAAAdKkO9O03KtHmyxCBrwgDQg6XckgO9HdlpbVo6CJlXjSY7JITp1H30AFzsg9TilhDoaFaj4Ev7S3OaC6G7ozAQnj-B_Ouv2-PsGYYex_UNS9IKHaszPvPMooUbQD5cmvdEhDjAY6FwCfDamnKDYGnI0YvGhT6aK1LCCgv5EXGYK6oHcEEflhe2w", "width": 4160}], "place_id": "ChIJqRBrnT_90YUR9BE2qTBR8P4", "plus_code": {"compound_code": "9W7C+33 Mexico City", "global_code": "76F29W7C+33"}, "rating": 0, "reference": "ChIJqRBrnT_90YUR9BE2qTBR8P4", "types": ["meal_delivery", "food", "point_of_interest", "establishment"], "user_ratings_total": 0}, {"business_status": "OPERATIONAL", "formatted_address": "Clavelina 48 Planta baja, Iztapalapa, 09830 CDMX", "geometry": {"location": {"lat": 19.3466622, "lng": -99.0727797}, "viewport": {"northeast": {"lat": 19.34795197989272, "lng": -99.07147167010729}, "southwest": {"lat": 19.34525232010727, "lng": -99.07417132989274}}}, "icon": "https://maps.gstatic.com/mapfiles/place_api/icons/v1/png_71/generic_business-71.png", "name": "ALITAZ Y HAMBURGUETAZ", "opening_hours": {"open_now": true}, "photos": [{"height": 4608, "html_attributions": ["<a href=\"https://maps.google.com/maps/contrib/115387023707668505031\">A Google User</a>"], "photo_reference": "CmRaAAAAF0sqRZogGv604hD-GFfIVq2r2Q7LGpSOpG03FH9wUZf_MAkQuxDP3D-Xl6vvwSkEyhR6jXiHuPefho7aliMm1dddUEr1JbcBwEvDEY8YaBdOE57YFcuqIzKGsaXu1wwPEhBZovuXQ1eTkxbcpUKraZT3GhRjGm48Xvcjlr9VQ3zuRhqIjDOKSg", "width": 3456}], "place_id": "ChIJTfevpZX_0YURWD8AmXdEiAg", "plus_code": {"compound_code": "8WWG+MV Mexico City", "global_code": "76F28WWG+MV"}, "rating": 4.3, "reference": "ChIJTfevpZX_0YURWD8AmXdEiAg", "types": ["meal_delivery", "food", "point_of_interest", "establishment"], "user_ratings_total": 8}, {"business_status": "OPERATIONAL", "formatted_address": "De La Loma mz10 lt183, Parque Nacional Cerro de la Estrella, Xochimilco, 09800 Ciudad de M\u00e9xico, CDMX", "geometry": {"location": {"lat": 19.3383347, "lng": -99.09287340000002}, "viewport": {"northeast": {"lat": 19.33966587989272, "lng": -99.09153182010729}, "southwest": {"lat": 19.33696622010727, "lng": -99.09423147989273}}}, "icon": "https://maps.gstatic.com/mapfiles/place_api/icons/v1/png_71/generic_business-71.png", "name": "ia-hamburguesas", "opening_hours": {"open_now": true}, "photos": [{"height": 1040, "html_attributions": ["<a href=\"https://maps.google.com/maps/contrib/102553641158426686351\">A Google User</a>"], "photo_reference": "CmRaAAAA66lL_fXo2XuoVWUiV77Im3kJMssU7-CUkBFCuDULxMSMeAgnAJH_zmkkx8_UD99GYuN4wlb3on-zXPAhAxJ96kW3T7t4nNrPvLePQ_1oO81r-dL_ntq9XvnHM8xZrStqEhA0TrR_rRLs6Crte9j__9fTGhTsKE7BEPUPHXGg-kwUAklY0TTp2w", "width": 780}], "place_id": "ChIJQzBeQhYDzoURvt55pLcQwlw", "plus_code": {"compound_code": "8WQ4+8V Mexico City", "global_code": "76F28WQ4+8V"}, "rating": 4.5, "reference": "ChIJQzBeQhYDzoURvt55pLcQwlw", "types": ["meal_delivery", "food", "point_of_interest", "establishment"], "user_ratings_total": 2}, {"business_status": "OPERATIONAL", "formatted_address": "Ermita Iztapalapa 1853, Los \u00c1ngeles, Iztapalapa, 09830 Ciudad de M\u00e9xico, CDMX", "geometry": {"location": {"lat": 19.3499744, "lng": -99.07565059999999}, "viewport": {"northeast": {"lat": 19.35129617989272, "lng": -99.07424862010727}, "southwest": {"lat": 19.34859652010728, "lng": -99.07694827989272}}}, "icon": "https://maps.gstatic.com/mapfiles/place_api/icons/v1/png_71/restaurant-71.png", "name": "Domino's", "opening_hours": {"open_now": true}, "photos": [{"height": 3464, "html_attributions": ["<a href=\"https://maps.google.com/maps/contrib/105995060777046145744\">axel toxqui</a>"], "photo_reference": "CmRaAAAAEbHNXFmpiywz9az4_bslVL9zP4QWj5scyE2xNndFQw8ewoEriSUbC5kGt6HAuocZjVVG0mFBwZKyPGbRbJbAP4tyZZUo4yNoSK3mfKQuH3B2WgGY0Lj2H7zGCpwK9RDVEhCZ_XqntmjzMaIuMsLgxTX3GhRruCQrnVCATpjj0k2H-9UrUzzSbg", "width": 4618}], "place_id": "ChIJH9WqIYz90YURiAXTir9K8KY", "plus_code": {"compound_code": "8WXF+XP Mexico City", "global_code": "76F28WXF+XP"}, "price_level": 2, "rating": 3.4, "reference": "ChIJH9WqIYz90YURiAXTir9K8KY", "types": ["meal_delivery", "meal_takeaway", "restaurant", "food", "point_of_interest", "establishment"], "user_ratings_total": 889}, {"business_status": "OPERATIONAL", "formatted_address": "09310 Av, La Pur\u00edsima, 09310 Ciudad de M\u00e9xico, CDMX", "geometry": {"location": {"lat": 19.3592983, "lng": -99.0717493}, "viewport": {"northeast": {"lat": 19.36065727989272, "lng": -99.07043142010727}, "southwest": {"lat": 19.35795762010728, "lng": -99.07313107989272}}}, "icon": "https://maps.gstatic.com/mapfiles/place_api/icons/v1/png_71/generic_business-71.png", "name": "Ensaladas ALE", "opening_hours": {"open_now": true}, "photos": [{"height": 2289, "html_attributions": ["<a href=\"https://maps.google.com/maps/contrib/103454513455299603923\">A Google User</a>"], "photo_reference": "CmRaAAAAZnfmsUjspnVFX9oEIkMO4aCqTu0Ym1XDJlSxlzqtTK8wNSFj4l1r_zBNC6mo81eHYNCMSzUU6pIoSwLpm72LfkBSn-TVRoZPAP_DsYafI9Ppxm0qy8Rii41jnJjr6PLiEhAhZPzR4e7kzxGfPpVN4pzqGhTaNod_ET_GRJlasmhYfAkqmuYvpA", "width": 2289}], "place_id": "ChIJbRzybOH90YUREJXwoVYU90Q", "plus_code": {"compound_code": "9W5H+P8 Mexico City", "global_code": "76F29W5H+P8"}, "rating": 3.7, "reference": "ChIJbRzybOH90YUREJXwoVYU90Q", "types": ["meal_delivery", "food", "point_of_interest", "establishment"], "user_ratings_total": 15}, {"business_status": "OPERATIONAL", "formatted_address": "Lluvia de Oro #10, Los \u00c1ngeles Apanoaya, Iztapalapa, 09710 Ciudad de M\u00e9xico, CDMX", "geometry": {"location": {"lat": 19.3407409, "lng": -99.0618657}, "viewport": {"northeast": {"lat": 19.34208247989272, "lng": -99.0604957201073}, "southwest": {"lat": 19.33938282010728, "lng": -99.06319537989273}}}, "icon": "https://maps.gstatic.com/mapfiles/place_api/icons/v1/png_71/generic_business-71.png", "name": "Brayan he asociados", "opening_hours": {"open_now": true}, "photos": [{"height": 4160, "html_attributions": ["<a href=\"https://maps.google.com/maps/contrib/101790452277909006948\">A Google User</a>"], "photo_reference": "CmRaAAAA59cEP8zih7jgkcvbI0Vt7fWCFMLNy_1MjT_Vn0FLlbCDZDOf-7xRVPi7dvAB7dd6uIW12nwdLASwbja1xo1EVP0bgm6ZKyCUQXSufAg4O1BCRXY7RZ_cDXcFvZtSq1EgEhAwtIPSiC0tneG4-lk8m_CdGhSdD53w5AjbIX0JRlBsHPJo7v4FUg", "width": 3120}], "place_id": "ChIJZ-NCMPgDzoURkO885py3E2g", "plus_code": {"compound_code": "8WRQ+77 Mexico City", "global_code": "76F28WRQ+77"}, "rating": 3.7, "reference": "ChIJZ-NCMPgDzoURkO885py3E2g", "types": ["meal_delivery", "food", "point_of_interest", "establishment"], "user_ratings_total": 3}, {"business_status": "OPERATIONAL", "formatted_address": "TAXIMETROS EJE 6, Av. de las Torres MZ 1, Zona Urbana Ejidal Santa Mar\u00eda Aztahuacan, Iztapalapa, 09500 Ciudad de M\u00e9xico, CDMX", "geometry": {"location": {"lat": 19.3610473, "lng": -99.03977859999999}, "viewport": {"northeast": {"lat": 19.36245977989272, "lng": -99.03842067010729}, "southwest": {"lat": 19.35976012010728, "lng": -99.04112032989272}}}, "icon": "https://maps.gstatic.com/mapfiles/place_api/icons/v1/png_71/generic_business-71.png", "name": "Pollos", "place_id": "ChIJ-YHxXDn90YURgaIh8Vgptx8", "plus_code": {"compound_code": "9X66+C3 Mexico City", "global_code": "76F29X66+C3"}, "rating": 0, "reference": "ChIJ-YHxXDn90YURgaIh8Vgptx8", "types": ["meal_delivery", "food", "point_of_interest", "establishment"], "user_ratings_total": 0}, {"business_status": "OPERATIONAL", "formatted_address": "Gregorio Torres Quintero, Gavil\u00e1n, Barrio de San Miguel, Iztapalapa, 09300 Ciudad de M\u00e9xico, CDMX", "geometry": {"location": {"lat": 19.3579654, "lng": -99.0764821}, "viewport": {"northeast": {"lat": 19.35927912989272, "lng": -99.07514617010727}, "southwest": {"lat": 19.35657947010728, "lng": -99.07784582989271}}}, "icon": "https://maps.gstatic.com/mapfiles/place_api/icons/v1/png_71/generic_business-71.png", "name": "Taquer\u00eda Los Chuletones", "photos": [{"height": 606, "html_attributions": ["<a href=\"https://maps.google.com/maps/contrib/112357140616184144058\">A Google User</a>"], "photo_reference": "CmRaAAAAdFvn8q7SGC5KjNHt55I8irgv8WuHNoEcgXyhwKTQ1hRq_ZRgKBUpkXJO2pxUieril5cfz3-JWPv3NclzEBuEjQac7Zn-HgxLFdySvdX70BsQ4fWLimeqKJpeEtccfz7vEhBUTRqySHyeVyOkd0JOzKx_GhQiHnaXs4munLzsdoLPgVoLrgiunA", "width": 1280}], "place_id": "ChIJIXf13rb90YUR1aHZ5XG_qmQ", "plus_code": {"compound_code": "9W5F+5C Mexico City", "global_code": "76F29W5F+5C"}, "rating": 5, "reference": "ChIJIXf13rb90YUR1aHZ5XG_qmQ", "types": ["meal_delivery", "food", "point_of_interest", "establishment"], "user_ratings_total": 1}, {"business_status": "OPERATIONAL", "formatted_address": "Sur 24 216, Agr\u00edcola Oriental, Iztacalco, 08500 Ciudad de M\u00e9xico, CDMX", "geometry": {"location": {"lat": 19.3874245, "lng": -99.0679073}, "viewport": {"northeast": {"lat": 19.38871452989272, "lng": -99.0665685701073}, "southwest": {"lat": 19.38601487010728, "lng": -99.06926822989273}}}, "icon": "https://maps.gstatic.com/mapfiles/place_api/icons/v1/png_71/generic_business-71.png", "name": "El Pollito Campesino", "opening_hours": {"open_now": true}, "photos": [{"height": 800, "html_attributions": ["<a href=\"https://maps.google.com/maps/contrib/103747544290538722820\">A Google User</a>"], "photo_reference": "CmRaAAAAkGk7AestX4OYyKtGBl_trdzIqdevUAQ06jzgLty81aB90HI5mGKvtO337eVI17QIeTaw19mvOsywFyII3NkfX0mZGKJBiHeQtlv5c4mcToGWTKM2eExZ-fz6sdHtt-2XEhAHZqq8dF82OCFWRAExDS12GhS2fQffI4YMgttE-emVGXdq3PjwJA", "width": 800}], "place_id": "ChIJy74xnbL90YURzCc7N7zMGBI", "plus_code": {"compound_code": "9WPJ+XR Mexico City", "global_code": "76F29WPJ+XR"}, "rating": 3.6, "reference": "ChIJy74xnbL90YURzCc7N7zMGBI", "types": ["meal_delivery", "food", "point_of_interest", "establishment"], "user_ratings_total": 59}, {"business_status": "OPERATIONAL", "formatted_address": "San Antonio, San Ignacio, Iztapalapa, 09000 Ciudad de M\u00e9xico, CDMX", "geometry": {"location": {"lat": 19.3631397, "lng": -99.0974267}, "viewport": {"northeast": {"lat": 19.36448922989272, "lng": -99.09609047010728}, "southwest": {"lat": 19.36178957010728, "lng": -99.09879012989272}}}, "icon": "https://maps.gstatic.com/mapfiles/place_api/icons/v1/png_71/generic_business-71.png", "name": "Yun comida japonesa", "opening_hours": {"open_now": true}, "photos": [{"height": 810, "html_attributions": ["<a href=\"https://maps.google.com/maps/contrib/103410421039469619512\">A Google User</a>"], "photo_reference": "CmRaAAAAZar91-Tgl6JYMPykTfBA9Q2vm8D4dGYn1lcGrS62qtFMmXdq4soh30ld4wj6yLB70shIU7pFwogK58ocXEODHP22UhEUMDwrt8b-8K5sY0SrmJ6fY5WTddypMM8xWyPQEhA4aMWzhuEQ9pA5TNdRy0Y4GhR2J_lUZW23GrrLjSY_u1iyWjVxMA", "width": 1440}], "place_id": "ChIJ661m13390YURWKpdxuRF0GY", "plus_code": {"compound_code": "9W73+72 Mexico City", "global_code": "76F29W73+72"}, "rating": 5, "reference": "ChIJ661m13390YURWKpdxuRF0GY", "types": ["meal_delivery", "food", "point_of_interest", "establishment"], "user_ratings_total": 1}, {"business_status": "OPERATIONAL", "formatted_address": "Avenida Universidad 156, Ej\u00e9rcito Constitucionalista I II y III, Iztapalapa, 09220 Ciudad de M\u00e9xico, CDMX", "geometry": {"location": {"lat": 19.3836604, "lng": -99.05192699999999}, "viewport": {"northeast": {"lat": 19.38471587989272, "lng": -99.05051422010727}, "southwest": {"lat": 19.38201622010728, "lng": -99.05321387989272}}}, "icon": "https://maps.gstatic.com/mapfiles/place_api/icons/v1/png_71/generic_business-71.png", "name": "Comida R\u00e1pida MABIS Saz\u00f3n De Hogar", "opening_hours": {"open_now": true}, "photos": [{"height": 3024, "html_attributions": ["<a href=\"https://maps.google.com/maps/contrib/104488755855794611384\">A Google User</a>"], "photo_reference": "CmRaAAAASXu8B0WMwH09IWm0pHWX0pCzSab33yLEypYhfDv1NuHHZy06g7tb379YQY7l3zuU1jqi7zSwbZc-_NXKnSET7wQ2Qjd0Cor5D_fmzbZe5Zigg2OSrpWMg-d-3TDsUsJoEhCyi_04rYJpGwYsLncAOkIDGhRd3zv8TSxZO1FxIOVYP-YAh3t4yA", "width": 4032}], "place_id": "ChIJs8nDpD_90YUROF_KlasRn2w", "plus_code": {"compound_code": "9WMX+F6 Mexico City", "global_code": "76F29WMX+F6"}, "rating": 5, "reference": "ChIJs8nDpD_90YUROF_KlasRn2w", "types": ["meal_delivery", "food", "point_of_interest", "establishment"], "user_ratings_total": 5}, {"business_status": "OPERATIONAL", "formatted_address": "Clavelina, Los \u00c1ngeles, Iztapalapa, 09830 Ciudad de M\u00e9xico, CDMX", "geometry": {"location": {"lat": 19.3458643, "lng": -99.0730028}, "viewport": {"northeast": {"lat": 19.34721582989272, "lng": -99.07165992010728}, "southwest": {"lat": 19.34451617010728, "lng": -99.07435957989273}}}, "icon": "https://maps.gstatic.com/mapfiles/place_api/icons/v1/png_71/generic_business-71.png", "name": "Birria el Gordo", "photos": [{"height": 3264, "html_attributions": ["<a href=\"https://maps.google.com/maps/contrib/112645381564361109952\">raul alvarez ortega</a>"], "photo_reference": "CmRaAAAAoHecVMLJdLT-j2mLp0LGDMfj40an8Bfqqa0Nya0Jpw0r9JhMG-Ahj5tYojzi00T2-n1xpcL4PeQ-HtFT_I4iOFSF_ORwT7FiVGqEEgtjTtvyX6xry5s5Yz6it69y5tLEEhALPkYDnM6jIpLRCROgL9q-GhSVy6QNXOcxA3tb35QDDtgRPedMrg", "width": 2448}], "place_id": "ChIJR98VdHD90YUR6n7K4EF6ing", "plus_code": {"compound_code": "8WWG+8Q Mexico City", "global_code": "76F28WWG+8Q"}, "rating": 0, "reference": "ChIJR98VdHD90YUR6n7K4EF6ing", "types": ["meal_delivery", "food", "point_of_interest", "establishment"], "user_ratings_total": 0}, {"business_status": "OPERATIONAL", "formatted_address": "Privada Germanio 18, San Juan Cerro, Iztapalapa, 09839 Ciudad de M\u00e9xico, CDMX", "geometry": {"location": {"lat": 19.3461104, "lng": -99.0789703}, "viewport": {"northeast": {"lat": 19.34749407989272, "lng": -99.07761557010728}, "southwest": {"lat": 19.34479442010728, "lng": -99.08031522989272}}}, "icon": "https://maps.gstatic.com/mapfiles/place_api/icons/v1/png_71/generic_business-71.png", "name": "Don Porfirio Rosticerias", "opening_hours": {"open_now": true}, "photos": [{"height": 3024, "html_attributions": ["<a href=\"https://maps.google.com/maps/contrib/102073163604452570956\">Samuel Alfaro</a>"], "photo_reference": "CmRaAAAAFTDnF_LeeMACP0DvjMt3hwTnqqb16c7F4HAqM705xluv5G5HkKrATwB2PkEPJXINWwLoY5yLm94LkY3s7gYx9L4dBetQOQlHYhN6--qIxtgm9tm-pthh5WGqmnyHFBTSEhB55I6g3l_TfhFzcF0iz-tXGhQcDLGw63MSqqfnJj08A0goXJh1VQ", "width": 4032}], "place_id": "ChIJ_-mgoFH90YURWndF7oyqlSM", "plus_code": {"compound_code": "8WWC+CC Mexico City", "global_code": "76F28WWC+CC"}, "rating": 3, "reference": "ChIJ_-mgoFH90YURWndF7oyqlSM", "types": ["meal_delivery", "food", "point_of_interest", "establishment"], "user_ratings_total": 2}, {"business_status": "OPERATIONAL", "formatted_address": "Magnolia Mz1 Lt10, Los \u00c1ngeles, Iztapalapa, 09830 Ciudad de M\u00e9xico, CDMX", "geometry": {"location": {"lat": 19.343983, "lng": -99.06958399999999}, "viewport": {"northeast": {"lat": 19.34531937989272, "lng": -99.06817877010728}, "southwest": {"lat": 19.34261972010728, "lng": -99.07087842989272}}}, "icon": "https://maps.gstatic.com/mapfiles/place_api/icons/v1/png_71/generic_business-71.png", "name": "Nenes Pizza", "opening_hours": {"open_now": true}, "photos": [{"height": 3120, "html_attributions": ["<a href=\"https://maps.google.com/maps/contrib/106858914625608647344\">A Google User</a>"], "photo_reference": "CmRaAAAAyi0mfH_WN48EVajv6Dj9fqtudE_JVzfAdhO5C3kfEOZNSU0XTPpVY2D4xxpsurmqi-c332OtjHH7xIHQU8IPHrAGS-8LX3FjyvpvDWiJwhc6bxg-Pb-U4pb0TUxif1WJEhAD5pjiZ4oT_z71SDSAhQagGhQRefAA1riHRdMoz81jMq5dMJWN1g", "width": 4160}], "place_id": "ChIJt9LSQYj90YURo4WrlgcAovE", "plus_code": {"compound_code": "8WVJ+H5 Los \u00c1ngeles, Mexico City", "global_code": "76F28WVJ+H5"}, "rating": 3.9, "reference": "ChIJt9LSQYj90YURo4WrlgcAovE", "types": ["meal_delivery", "restaurant", "food", "point_of_interest", "establishment"], "user_ratings_total": 13}]