[{"business_status": "OPERATIONAL", "formatted_address": "Ometecutli 24, Amp Ricardo Flores Mag\u00f3n, Iztapalapa, 09828 Ciudad de M\u00e9xico, CDMX, Mexico", "geometry": {"location": {"lat": 19.3529993, "lng": -99.1001314}, "viewport": {"northeast": {"lat": 19.3543474302915, "lng": -99.09877961970848}, "southwest": {"lat": 19.3516494697085, "lng": -99.1014775802915}}}, "icon": "https://maps.gstatic.com/mapfiles/place_api/icons/v1/png_71/generic_business-71.png", "name": "asesorias Y Soluciones Contables, Fiscales y Legales", "opening_hours": {"open_now": true}, "photos": [{"height": 720, "html_attributions": ["<a href=\"https://maps.google.com/maps/contrib/101540227311844195349\">Lalo Tocayo</a>"], "photo_reference": "CmRaAAAAfrJBe9gvQj7S911iODY7dO0MjmISCa9QXt3iHqJ8idR6ECUQMFWiIfu8J1dTm0YyTgRe8ZPH9sI1HRacLF-i42ggcAdMaYYYHJHdEAsfBRVkc-n7Idcvs0ayWtUFzY37EhC4lxW9XlEClzjXWD6mGXdgGhRorhf59YJwrG86knrybXeImMZ4Tw", "width": 720}], "place_id": "ChIJ90y8DVz90YURUctHz8CO_js", "plus_code": {"compound_code": "9V3X+5W Mexico City, CDMX, Mexico", "global_code": "76F29V3X+5W"}, "rating": 5, "reference": "ChIJ90y8DVz90YURUctHz8CO_js", "types": ["accounting", "finance", "point_of_interest", "establishment"], "user_ratings_total": 1}, {"business_status": "OPERATIONAL", "formatted_address": "Cacama 16, Estrella del Sur, Iztapalapa, 09820 Ciudad de M\u00e9xico, CDMX, Mexico", "geometry": {"location": {"lat": 19.3474213, "lng": -99.1029581}, "viewport": {"northeast": {"lat": 19.34880383029151, "lng": -99.10159871970849}, "southwest": {"lat": 19.3461058697085, "lng": -99.1042966802915}}}, "icon": "https://maps.gstatic.com/mapfiles/place_api/icons/v1/png_71/generic_business-71.png", "name": "Catena Consultores", "opening_hours": {"open_now": false}, "photos": [{"height": 640, "html_attributions": ["<a href=\"https://maps.google.com/maps/contrib/115153593244828230723\">Catena Consultores</a>"], "photo_reference": "CmRaAAAAvnde-xf9E_E6XdE7gn8OJM1O2YvC_2rHmtxbLgXBoJtzz23DInwcp-5bFNe2erlRadIyfQBckc00lSbqZEkiJajjGVwIGGRRGvnVx6UifyakgaD7gQI9PHIWzNiewJnKEhA14zQyNVECp8rSB_8enQOPGhQhqs8gOohFOak5NtxS9hUUOfM-ZQ", "width": 1137}], "place_id": "ChIJ5_DSci3_0YUROS-ul3mqRo8", "plus_code": {"compound_code": "8VWW+XR Mexico City, CDMX, Mexico", "global_code": "76F28VWW+XR"}, "reference": "ChIJ5_DSci3_0YUROS-ul3mqRo8", "types": ["accounting", "finance", "point_of_interest", "establishment"]}, {"business_status": "OPERATIONAL", "formatted_address": "Pastores 24, Santa Isabel Industrial, Iztapalapa, 09820 Ciudad de M\u00e9xico, CDMX, Mexico", "geometry": {"location": {"lat": 19.3540861, "lng": -99.10506649999999}, "viewport": {"northeast": {"lat": 19.3555883302915, "lng": -99.10368951970848}, "southwest": {"lat": 19.3528903697085, "lng": -99.1063874802915}}}, "icon": "https://maps.gstatic.com/mapfiles/place_api/icons/v1/png_71/generic_business-71.png", "name": "Pardo Morales y Asociados", "place_id": "ChIJgzas7wj-0YURkAZwbEu2Ays", "plus_code": {"compound_code": "9V3V+JX Mexico City, CDMX, Mexico", "global_code": "76F29V3V+JX"}, "reference": "ChIJgzas7wj-0YURkAZwbEu2Ays", "types": ["accounting", "finance", "point_of_interest", "establishment"]}]