[{"business_status": "OPERATIONAL", "formatted_address": "Av. Canal de Garay 3278, La Esperanza, Iztapalapa, 09910 Ciudad de M\u00e9xico, CDMX", "geometry": {"location": {"lat": 19.3127289, "lng": -99.0748394}, "viewport": {"northeast": {"lat": 19.3153629, "lng": -99.07376027010727}, "southwest": {"lat": 19.3118509, "lng": -99.07645992989272}}}, "icon": "https://maps.gstatic.com/mapfiles/place_api/icons/v1/png_71/generic_business-71.png", "name": "\u00a1Kataplum!", "opening_hours": {}, "photos": [{"height": 2322, "html_attributions": ["<a href=\"https://maps.google.com/maps/contrib/108863078906235132129\">oezocar</a>"], "photo_reference": "CmRaAAAAY3O3ZDYuGEDGJhkaXsBZo_whPE4Qi11FzEGamrwAYB8dM5MREWFhy-Y6OvZe0UUdhbidyxsA_8ye7j5-WMaXpjfeg5_YHZhgRaYwr5wlXVVL6OOL3RuQRqyYZaBpLw2wEhBxnFn9w6ACAQ8GS8B2GggLGhT_cJgU3VFP9rFoQvAysWkE1GuUfw", "width": 4128}], "place_id": "ChIJnWNMN0ECzoURbeVqSx2e_po", "plus_code": {"compound_code": "8W7G+33 La Esperanza, Mexico City", "global_code": "76F28W7G+33"}, "rating": 4.3, "reference": "ChIJnWNMN0ECzoURbeVqSx2e_po", "types": ["amusement_park", "tourist_attraction", "point_of_interest", "establishment"], "user_ratings_total": 8954}, {"business_status": "OPERATIONAL", "formatted_address": "Esq. Ricardo Monges L\u00f3pez Texmelucan, Educaci\u00f3n, 04400 Ciudad de M\u00e9xico", "geometry": {"location": {"lat": 19.3364507, "lng": -99.13211439999999}, "viewport": {"northeast": {"lat": 19.33780052989272, "lng": -99.13076457010729}, "southwest": {"lat": 19.33510087010728, "lng": -99.13346422989272}}}, "icon": "https://maps.gstatic.com/mapfiles/place_api/icons/v1/png_71/generic_business-71.png", "name": "PARK EDUCATION MARKET SET", "opening_hours": {"open_now": true}, "photos": [{"height": 2560, "html_attributions": ["<a href=\"https://maps.google.com/maps/contrib/111689045529529676166\">A Google User</a>"], "photo_reference": "CmRaAAAAhikvbPXoiPFv9XcgS4EojsTk6vMPNeStYNTQE7Ux8sy81xxF91n1xo-BpBvfL32N1PD7Wm13oRk_6IvRg-0VSUv8N2GGzvOMegaiHcLb3urMq08zjEShwDJJOMWd2VluEhBwA9dIDQkawlqiVqtzjs_TGhRdHRYqAk-tWvBea9oqnmEKZf3TFw", "width": 1440}], "place_id": "ChIJs1miU9gBzoUR8ggjgy5GlEI", "plus_code": {"compound_code": "8VP9+H5 Mexico City", "global_code": "76F28VP9+H5"}, "rating": 4.2, "reference": "ChIJs1miU9gBzoUR8ggjgy5GlEI", "types": ["amusement_park", "point_of_interest", "establishment"], "user_ratings_total": 39}, {"business_status": "OPERATIONAL", "formatted_address": "Carr. Picacho-Ajusco Km 1.5, Jardines del Ajusco, Tlalpan, 14200 Ciudad de M\u00e9xico, CDMX", "geometry": {"location": {"lat": 19.2956057, "lng": -99.21056519999999}, "viewport": {"northeast": {"lat": 19.29689957989272, "lng": -99.20984127010728}, "southwest": {"lat": 19.29419992010728, "lng": -99.21254092989273}}}, "icon": "https://maps.gstatic.com/mapfiles/place_api/icons/v1/png_71/generic_business-71.png", "name": "Six Flags M\u00e9xico", "opening_hours": {}, "photos": [{"height": 2988, "html_attributions": ["<a href=\"https://maps.google.com/maps/contrib/105101789035411922145\">ERICK ANDRES ALANIS VILLEGAS</a>"], "photo_reference": "CmRaAAAAFt9UUJsfVFNrQBr7CoyZiWv4PHzbKsup7MGfSivhDJRI0L3l0ErWl9yp4coKdLKAvQoCrYdd7TdNhnkvITG_mjj8YBS62ke0czMvaTw4bXQjzJypFUtjwkTJEfkYAG-MEhBigwXJYl7HM_FqjQhjy2MqGhS-DdovQ2sWTNny2iuJUsQDmGFvkw", "width": 5312}], "place_id": "ChIJGZTVlcn_zYURRZxrmu06Qto", "plus_code": {"compound_code": "7QWQ+6Q Mexico City", "global_code": "76F27QWQ+6Q"}, "rating": 4.6, "reference": "ChIJGZTVlcn_zYURRZxrmu06Qto", "types": ["amusement_park", "tourist_attraction", "point_of_interest", "establishment"], "user_ratings_total": 110565}, {"business_status": "OPERATIONAL", "formatted_address": "San Ricardo MZ925 LT15(49, Pedregal de Sta \u00darsula, Coyoac\u00e1n, 04600 Ciudad de M\u00e9xico, CDMX", "geometry": {"location": {"lat": 19.3159584, "lng": -99.1550013}, "viewport": {"northeast": {"lat": 19.31730822989272, "lng": -99.15365147010728}, "southwest": {"lat": 19.31460857010727, "lng": -99.15635112989273}}}, "icon": "https://maps.gstatic.com/mapfiles/place_api/icons/v1/png_71/generic_business-71.png", "name": "Juegos infantiles", "photos": [{"height": 2592, "html_attributions": ["<a href=\"https://maps.google.com/maps/contrib/110658884939245348805\">Miguel Angel Valera M\u00e1rquez</a>"], "photo_reference": "CmRaAAAA2gXAI257sLTUb8rA3aPMeprFOSY1fQrIFbxOncj_dL6JgrZrutPn1Q6GXcQpcrp_7BNgmG0b6WKeSchajzx4jD9xsLmTLZ_axD3QM7ENraPz82qNZ8aUbeOFVxhXWwmHEhBVwPl-5IpvQJtxjAVM62vfGhRefY0UF8n1BAZDIkmBU08VZcXsiA", "width": 4608}], "place_id": "ChIJP0K0aUIBzoUR3S1WtVwoy6g", "plus_code": {"compound_code": "8R8V+9X Mexico City", "global_code": "76F28R8V+9X"}, "rating": 0, "reference": "ChIJP0K0aUIBzoUR3S1WtVwoy6g", "types": ["amusement_park", "point_of_interest", "establishment"], "user_ratings_total": 0}, {"business_status": "OPERATIONAL", "formatted_address": "Anillo Perif. 3278, Vaso de Regulaci\u00f3n, Iztapalapa, 09910 Ciudad de M\u00e9xico, CDMX", "geometry": {"location": {"lat": 19.3144359, "lng": -99.0769152}, "viewport": {"northeast": {"lat": 19.31608397989272, "lng": -99.07594492010729}, "southwest": {"lat": 19.31338432010728, "lng": -99.07864457989274}}}, "icon": "https://maps.gstatic.com/mapfiles/place_api/icons/v1/png_71/generic_business-71.png", "name": "Las Antenas", "opening_hours": {"open_now": true}, "photos": [{"height": 3456, "html_attributions": ["<a href=\"https://maps.google.com/maps/contrib/110524700479690301119\">Corvus Clan Parkour</a>"], "photo_reference": "CmRaAAAArCoE0BWVhC8CNXW8l4YUtqd4s8DUxXSh9YxVmVsySkivM-D0Hk3X7owwAv7jwFSmYWeEOBqAM3YjkoZtGhpFI1qWH9eOQn6nyGPCDv-VEW7Evbi41JJNQrnO1LbKHo6CEhAZBJbdnXKji70Y6H3O0B0MGhT7qtMFuqpUcBQXGDqyYgA_8ou3HQ", "width": 4608}], "place_id": "ChIJr2z54cIDzoUR3Lup21LBJ7k", "plus_code": {"compound_code": "8W7F+Q6 Mexico City", "global_code": "76F28W7F+Q6"}, "rating": 4.4, "reference": "ChIJr2z54cIDzoUR3Lup21LBJ7k", "types": ["amusement_park", "point_of_interest", "establishment"], "user_ratings_total": 69}, {"business_status": "OPERATIONAL", "formatted_address": "Carr Panor\u00e1mica Picacho-Ajusco Km11.2 km11.2, 14749 Ciudad de M\u00e9xico", "geometry": {"location": {"lat": 19.2562612, "lng": -99.2424582}, "viewport": {"northeast": {"lat": 19.25761022989272, "lng": -99.24111042010728}, "southwest": {"lat": 19.25491057010728, "lng": -99.24381007989273}}}, "icon": "https://maps.gstatic.com/mapfiles/place_api/icons/v1/png_71/generic_business-71.png", "name": "Dragon Gotcha", "opening_hours": {"open_now": false}, "photos": [{"height": 4608, "html_attributions": ["<a href=\"https://maps.google.com/maps/contrib/110111854316226022815\">Gabriel Ricardo Gonzalez Romo</a>"], "photo_reference": "CmRaAAAABw0nJcT69A_l6730mJH15R7OkDK67NEF-K3NGNOX8I6fuK5MCd0pfqaRNcILDYB_7shsWEpp0gcpO4YrJQQk2yDsobIRqIwpNEUYJixYVqWdn9leXTzNCxBABxSyfQB2EhDNBPoXwI7FcII_LlVd6p5JGhSn7aAtttJ-LWMr7V5q32IuCiAaUw", "width": 3456}], "place_id": "ChIJHUu5f47-zYUR7eMILVZJNKU", "plus_code": {"compound_code": "7Q45+G2 Mexico City", "global_code": "76F27Q45+G2"}, "rating": 4.4, "reference": "ChIJHUu5f47-zYUR7eMILVZJNKU", "types": ["amusement_park", "point_of_interest", "establishment"], "user_ratings_total": 324}, {"business_status": "OPERATIONAL", "formatted_address": "Unnamed Road, Santiago, 56615 Valle de Chalco Solidaridad, M\u00e9x.", "geometry": {"location": {"lat": 19.3009315, "lng": -98.95373939999999}, "viewport": {"northeast": {"lat": 19.30241562989272, "lng": -98.95223282010728}, "southwest": {"lat": 19.29971597010728, "lng": -98.95493247989273}}}, "icon": "https://maps.gstatic.com/mapfiles/place_api/icons/v1/png_71/generic_business-71.png", "name": "JumpinKids", "opening_hours": {"open_now": true}, "photos": [{"height": 720, "html_attributions": ["<a href=\"https://maps.google.com/maps/contrib/107243733359009687377\">Kevin Gallagher</a>"], "photo_reference": "CmRaAAAA4ZdqN0hT0DP8IOvH2S4U3nFfulOyP4_Aj6XJAOFBlpSnTNsX33xK88gZNv6lQqkrWEXczdwQwYtdtz0oQixPnUWEUcQH8awwSraKtOEtMs-oAfsjNBeX5WzI_hw0izHTEhA8UkDnAHrlRBq1lAupYPuDGhQPsZGKpfG_nWHQM0XtCJVETXDjfA", "width": 1280}], "place_id": "ChIJPZni4mEdzoURbj2TFcmOEOc", "plus_code": {"compound_code": "822W+9G Valle de Chalco, State of Mexico", "global_code": "76F3822W+9G"}, "rating": 4.1, "reference": "ChIJPZni4mEdzoURbj2TFcmOEOc", "types": ["amusement_park", "point_of_interest", "establishment"], "user_ratings_total": 19}, {"business_status": "OPERATIONAL", "formatted_address": "La Pista, Xochiaca, Chimalhuac\u00e1n, M\u00e9x.", "geometry": {"location": {"lat": 19.4074875, "lng": -98.962356}, "viewport": {"northeast": {"lat": 19.40883732989272, "lng": -98.9610061701073}, "southwest": {"lat": 19.40613767010728, "lng": -98.96370582989275}}}, "icon": "https://maps.gstatic.com/mapfiles/place_api/icons/v1/png_71/generic_business-71.png", "name": "Parque Ecotur\u00edstico Chimalhuache", "opening_hours": {"open_now": false}, "photos": [{"height": 3024, "html_attributions": ["<a href=\"https://maps.google.com/maps/contrib/109665489881101333504\">edgar santiago</a>"], "photo_reference": "CmRaAAAAipx-GppEIT7ggw3vabSxteNHQX1CQ-1C4g7LQXmcK-ycYx4XiptxLnEMeSIQ1yDCwj0DZW33lwJ4hJ08QK41wAZe69WSK7gA0qfjDRZSG1OJVetlGStEZmljE-OItYrCEhBbKLdkMbnjF1HHcTAcCP06GhRYhyFCvsfSyCUW3wA4HtWkYeg_7g", "width": 4032}], "place_id": "ChIJVabE6aXj0YURuFipBQoEELI", "plus_code": {"compound_code": "C24Q+X3 Chimalhuacan, State of Mexico", "global_code": "76F3C24Q+X3"}, "rating": 4.4, "reference": "ChIJVabE6aXj0YURuFipBQoEELI", "types": ["amusement_park", "point_of_interest", "establishment"], "user_ratings_total": 474}, {"business_status": "OPERATIONAL", "formatted_address": "Hacienda de Sierra Vieja 2, Hacienda del Parque, 54769 Cuautitl\u00e1n Izcalli, M\u00e9x.", "geometry": {"location": {"lat": 19.6025482, "lng": -99.1916849}, "viewport": {"northeast": {"lat": 19.60412847989272, "lng": -99.18998797010728}, "southwest": {"lat": 19.60142882010727, "lng": -99.19268762989273}}}, "icon": "https://maps.gstatic.com/mapfiles/place_api/icons/v1/png_71/generic_business-71.png", "name": "Perimagico", "opening_hours": {"open_now": true}, "photos": [{"height": 2160, "html_attributions": ["<a href=\"https://maps.google.com/maps/contrib/105506701571318380274\">Carlos Gonzalez</a>"], "photo_reference": "CmRaAAAA4YzR5335AhrH0wc6YhvOvDVviwkKSWGEX2oHnDwxbkLbPtzvp5h-GhoXUCgLBAxdJqOSs5p10_fRHsPipKc_FajtwDyDDQ8NtFzHeO68clnRjIfuBbqBS4nWgTygKfZiEhCc3uLNwfh9aNA6DpN9r9WYGhRmMgqJaW-ZAO03iutZkkGWyB0B-A", "width": 2880}], "place_id": "ChIJrfuANvQd0oURV1M6VT7sC7U", "plus_code": {"compound_code": "JR35+28 Cuautitl\u00e1n Izcalli, State of Mexico", "global_code": "76F2JR35+28"}, "rating": 4.1, "reference": "ChIJrfuANvQd0oURV1M6VT7sC7U", "types": ["amusement_park", "tourist_attraction", "point_of_interest", "establishment"], "user_ratings_total": 1497}, {"business_status": "OPERATIONAL", "formatted_address": "Valle de las Palmas, 52787 Naucalpan de Ju\u00e1rez, State of Mexico", "geometry": {"location": {"lat": 19.3925331, "lng": -99.28029}, "viewport": {"northeast": {"lat": 19.39395532989272, "lng": -99.27882352010728}, "southwest": {"lat": 19.39125567010727, "lng": -99.28152317989273}}}, "icon": "https://maps.gstatic.com/mapfiles/place_api/icons/v1/png_71/generic_business-71.png", "name": "IMAGIC PARK", "photos": [{"height": 3024, "html_attributions": ["<a href=\"https://maps.google.com/maps/contrib/112271148745331143318\">Yadira Ortega</a>"], "photo_reference": "CmRaAAAAt0Ye32Bu7q_Y2NL8YX3DiKSPIoJwl4j1WSeG0Ggp_9T2_VGjqn1jbzBIyn_0hi5M_4bd9OhXB8kEng3ZWwAf1BIXTr_yjpY36ALkeUdfxzjsii6aKlnLdTqjHqtZOPzrEhDXQWEo3OR_Vl98BcTEBdN_GhTxTmR0Kdg9qqrrJ2NqkpNtZt3G9w", "width": 4032}], "place_id": "ChIJncpiTyAH0oURr2BYcK4LQnw", "plus_code": {"compound_code": "9PV9+2V Naucalpan de Ju\u00e1rez, State of Mexico", "global_code": "76F29PV9+2V"}, "rating": 5, "reference": "ChIJncpiTyAH0oURr2BYcK4LQnw", "types": ["amusement_park", "point_of_interest", "establishment"], "user_ratings_total": 4}, {"business_status": "OPERATIONAL", "formatted_address": "Calle 28 149, Estado de Mexico, 57210 Nezahualc\u00f3yotl, M\u00e9x.", "geometry": {"location": {"lat": 19.424555, "lng": -99.037042}, "viewport": {"northeast": {"lat": 19.42590482989272, "lng": -99.0356921701073}, "southwest": {"lat": 19.42320517010728, "lng": -99.03839182989275}}}, "icon": "https://maps.gstatic.com/mapfiles/place_api/icons/v1/png_71/generic_business-71.png", "name": "Juegos, Espumas La Buda", "place_id": "ChIJidMkTc_90YURGJcGbV7lJE0", "plus_code": {"compound_code": "CXF7+R5 Ciudad Nezahualc\u00f3yotl, State of Mexico", "global_code": "76F2CXF7+R5"}, "rating": 0, "reference": "ChIJidMkTc_90YURGJcGbV7lJE0", "types": ["amusement_park", "point_of_interest", "establishment"], "user_ratings_total": 0}, {"business_status": "OPERATIONAL", "formatted_address": "Morelos, Venustiano Carranza, 15270 Mexico City", "geometry": {"location": {"lat": 19.4425069, "lng": -99.11675969999999}, "viewport": {"northeast": {"lat": 19.44385672989272, "lng": -99.11540987010727}, "southwest": {"lat": 19.44115707010728, "lng": -99.1181095298927}}}, "icon": "https://maps.gstatic.com/mapfiles/place_api/icons/v1/png_71/generic_business-71.png", "name": "Parque Recreativo Francisco I Madero", "opening_hours": {"open_now": true}, "photos": [{"height": 1024, "html_attributions": ["<a href=\"https://maps.google.com/maps/contrib/112764817626230449984\">Hugo Garcia</a>"], "photo_reference": "CmRaAAAAgwCLaONFuBN_OkwhtI5lO6AMqRr8YIWbZhwG9EUqJumwcZyCMl0Lcq1NwiE_BjTA2p_IEGLl0WcD6BLaG7bi75ovcz6gCR1JNvz20FVAFUE1UvAe7LDihEIoXEf1AnRVEhD3eoc41qgia3R90p8QB2_JGhRjySzxwFjg2zuwq0YJ6cD7vA_JxQ", "width": 768}], "place_id": "ChIJ-8IkB0H50YURwZBGcnUADUQ", "plus_code": {"compound_code": "CVVM+27 Mexico City", "global_code": "76F2CVVM+27"}, "rating": 0, "reference": "ChIJ-8IkB0H50YURwZBGcnUADUQ", "types": ["amusement_park", "point_of_interest", "establishment"], "user_ratings_total": 0}, {"business_status": "OPERATIONAL", "formatted_address": "Picacho-Ajusco km 11200, Jardines del Ajusco, Tlalpan, 14200 CDMX", "geometry": {"location": {"lat": 19.255175, "lng": -99.24464640000001}, "viewport": {"northeast": {"lat": 19.25651527989272, "lng": -99.24325552010728}, "southwest": {"lat": 19.25381562010728, "lng": -99.24595517989273}}}, "icon": "https://maps.gstatic.com/mapfiles/place_api/icons/v1/png_71/generic_business-71.png", "name": "Base A\u00e9rea", "opening_hours": {"open_now": false}, "photos": [{"height": 3456, "html_attributions": ["<a href=\"https://maps.google.com/maps/contrib/103487369601054050633\">Mario Maker</a>"], "photo_reference": "CmRaAAAAquFmZr39cmxthCMRS9agutS-hbASknR-xxP_nrnLj7ExqUDxlVAfQbTnna8HahhNq9OqrrkcXMfRUQAqB7CxzJUNl7_9QbLKdk4QlPT5fQRKhPdqshb5VIw6RqP_bZJgEhCtPEalFye7RSicVBEcu28sGhTAJeMPolKD3biHjGz0saVBwfXg_w", "width": 4608}], "place_id": "ChIJuVFFkUD-zYURcdwwJ2xhV6A", "plus_code": {"compound_code": "7Q44+34 Jardines del Ajusco, Mexico City", "global_code": "76F27Q44+34"}, "rating": 4.5, "reference": "ChIJuVFFkUD-zYURcdwwJ2xhV6A", "types": ["amusement_park", "point_of_interest", "establishment"], "user_ratings_total": 72}, {"business_status": "OPERATIONAL", "formatted_address": "Blvd. Lomas Verdes N\u00ba 2400 Locales 110A y 110B, Boulevares, 53140 Naucalpan de Ju\u00e1rez, M\u00e9x.", "geometry": {"location": {"lat": 19.4951579, "lng": -99.2466309}, "viewport": {"northeast": {"lat": 19.49792505, "lng": -99.24552100000001}, "southwest": {"lat": 19.49341565, "lng": -99.24859060000001}}}, "icon": "https://maps.gstatic.com/mapfiles/place_api/icons/v1/png_71/generic_business-71.png", "name": "Sky Zone Lomas Verdes", "opening_hours": {"open_now": true}, "photos": [{"height": 3120, "html_attributions": ["<a href=\"https://maps.google.com/maps/contrib/102832503669451970653\">julian M</a>"], "photo_reference": "CmRaAAAAWib0yqKpEwytyWMupqIPU7Tptm11vHLN3iFmjqEaLZeHYhg39IqcIrridw8UvmyQOyBsC1Y1APe-7GIxhu_WuT1PUlMlNytGoM0kuICQMjXu7GkI1xZtF1xXQH2o9_W-EhBmJWIIx8Us5ta8ATSozbgjGhTQgU9NLLED4sYgYaRqCJRmbLw3CQ", "width": 4160}], "place_id": "ChIJ4fXNdBcD0oURscg-0Ia2Bx4", "plus_code": {"compound_code": "FQW3+38 Naucalpan de Ju\u00e1rez, State of Mexico", "global_code": "76F2FQW3+38"}, "rating": 4.3, "reference": "ChIJ4fXNdBcD0oURscg-0Ia2Bx4", "types": ["amusement_park", "point_of_interest", "establishment"], "user_ratings_total": 813}, {"business_status": "OPERATIONAL", "formatted_address": "\u00c1lvaro Obreg\u00f3n 13, San Miguel, 56604 San Mateo Huitzilzingo, M\u00e9x.", "geometry": {"location": {"lat": 19.2284977, "lng": -98.92712689999999}, "viewport": {"northeast": {"lat": 19.22983567989272, "lng": -98.92574337010728}, "southwest": {"lat": 19.22713602010728, "lng": -98.92844302989273}}}, "icon": "https://maps.gstatic.com/mapfiles/place_api/icons/v1/png_71/generic_business-71.png", "name": "Casa Rosales", "opening_hours": {"open_now": true}, "photos": [{"height": 1080, "html_attributions": ["<a href=\"https://maps.google.com/maps/contrib/111768079915081363871\">A Google User</a>"], "photo_reference": "CmRaAAAALI9lLdn3euXWJEhhfoauC7xrEV4kRhlhfbIKoUE6fFkrq0dH1gOKGZOYQSvoHUbfRdkA1znn-hgepoDeyEuS6vNeEF-81H_AFNTSbU0Fs4SuLWsEHoxVf_QDNc2awT4mEhBhqYcAAeAdDFmHR_WvZ4mPGhQgHuzzrIWgt2Nz9n4fJ-L_gr4L8w", "width": 1080}], "place_id": "ChIJoTwxDsobzoURFh5Cg35vgiM", "plus_code": {"compound_code": "63HF+94 San Mateo Huitzilzingo, State of Mexico", "global_code": "76F363HF+94"}, "rating": 1, "reference": "ChIJoTwxDsobzoURFh5Cg35vgiM", "types": ["amusement_park", "point_of_interest", "establishment"], "user_ratings_total": 1}, {"business_status": "OPERATIONAL", "formatted_address": "C. Cnel. Ahumada, Lomas del Mirador, 62350 Cuernavaca, Mor.", "geometry": {"location": {"lat": 18.9267289, "lng": -99.21563359999999}, "viewport": {"northeast": {"lat": 18.92807342989272, "lng": -99.21426722010727}, "southwest": {"lat": 18.92537377010727, "lng": -99.21696687989272}}}, "icon": "https://maps.gstatic.com/mapfiles/place_api/icons/v1/png_71/generic_business-71.png", "name": "Pipilitzin", "opening_hours": {"open_now": false}, "photos": [{"height": 2976, "html_attributions": ["<a href=\"https://maps.google.com/maps/contrib/100624757401196368542\">Ricardo Costilla</a>"], "photo_reference": "CmRaAAAAiMhOAgp48zbA1Tc8LfC00ArXs6UVZbeFaAJTgAzgiDXonTYfYB86VFrSiWpltQS12Zzyf_nEZWhlYtoNF9Ngxn0vilp9YRI7tMjTADflBaNawT6264GcLyaHzYGbZYjCEhC4Y0ZVWpCsFea6-E21RLwvGhTQm1P3AyED9FcvgFXJvV_S2IOqqQ", "width": 3968}], "place_id": "ChIJc267RbzfzYURPEyS1ouYFXU", "plus_code": {"compound_code": "WQGM+MP Cuernavaca, Morelos", "global_code": "76C2WQGM+MP"}, "rating": 4.2, "reference": "ChIJc267RbzfzYURPEyS1ouYFXU", "types": ["amusement_park", "point_of_interest", "establishment"], "user_ratings_total": 218}, {"business_status": "OPERATIONAL", "formatted_address": "Carr Federal M\u00e9xico-Cuautla Km 58, Panoaya, 56900 Amecameca de Ju\u00e1rez, M\u00e9x.", "geometry": {"location": {"lat": 19.1403001, "lng": -98.7725224}, "viewport": {"northeast": {"lat": 19.14170672989272, "lng": -98.77143017010728}, "southwest": {"lat": 19.13900707010728, "lng": -98.77412982989273}}}, "icon": "https://maps.gstatic.com/mapfiles/place_api/icons/v1/png_71/generic_business-71.png", "name": "Hacienda Panoaya", "opening_hours": {"open_now": false}, "photos": [{"height": 1536, "html_attributions": ["<a href=\"https://maps.google.com/maps/contrib/113518026755069023742\">Carmen Rosas M13456</a>"], "photo_reference": "CmRaAAAAkXNrHLLC4VeFxTQVcodK8oAFTKpMYBQIPYrh8PgiBZCyVHsvKCwfcrfhfPsrui5Qld9db3aEbws5QzbkFWMjHbx2iV_4gMz090HUH2-Isb_DXV9CLW-0NpZ2tOSl4LEhEhB9Rfk7xJ7h4drV4mP6hRp1GhSnOdw3lolujmgUIz-9YBjldj_xDA", "width": 2048}], "place_id": "ChIJVVVVVYg8zoURRFWKaR5djMo", "plus_code": {"compound_code": "46RG+4X Amecameca, State of Mexico", "global_code": "76F346RG+4X"}, "rating": 4.5, "reference": "ChIJVVVVVYg8zoURRFWKaR5djMo", "types": ["amusement_park", "lodging", "restaurant", "food", "point_of_interest", "establishment"], "user_ratings_total": 19713}, {"business_status": "OPERATIONAL", "formatted_address": "R\u00edo Grande de San Juan, Estado de M\u00e9xico", "geometry": {"location": {"lat": 19.6497836, "lng": -98.90927149999999}, "viewport": {"northeast": {"lat": 19.65143867989272, "lng": -98.90783027010727}, "southwest": {"lat": 19.64873902010728, "lng": -98.91052992989272}}}, "icon": "https://maps.gstatic.com/mapfiles/place_api/icons/v1/png_71/generic_business-71.png", "name": "Centro recreativo el zooligo de acolman", "opening_hours": {"open_now": false}, "photos": [{"height": 5376, "html_attributions": ["<a href=\"https://maps.google.com/maps/contrib/107470859645123211569\">mario moreno</a>"], "photo_reference": "CmRaAAAAV3dSTnuhFcF3do8Z6sOoEtEY3WfDKoyygQpKDiK_usY07P3Ty8YBIh4Vd5wockeaK9kSn55wq1M6eNiAYbmvX2AjS8K9kyvXPnDAZj4DWnKRChBcfj7X_i6MqbwBd_rpEhCj18Uu8i3gfv2T876QDoXvGhRcH2uFkttV7lnkl-CmHOyiNE1NGA", "width": 3024}], "place_id": "ChIJMxJciO7r0YURD14KmjRJNBM", "plus_code": {"compound_code": "J3XR+W7 San Bartolo, State of Mexico", "global_code": "76F3J3XR+W7"}, "rating": 4.5, "reference": "ChIJMxJciO7r0YURD14KmjRJNBM", "types": ["amusement_park", "point_of_interest", "establishment"], "user_ratings_total": 50}, {"business_status": "OPERATIONAL", "formatted_address": "Camino Real a San Jer\u00f3nimo # 13, 56080 Santo Tom\u00e1s Apipilhuasco, M\u00e9x.", "geometry": {"location": {"lat": 19.5381672, "lng": -98.752968}, "viewport": {"northeast": {"lat": 19.53954067989272, "lng": -98.75161707010729}, "southwest": {"lat": 19.53684102010727, "lng": -98.75431672989272}}}, "icon": "https://maps.gstatic.com/mapfiles/place_api/icons/v1/png_71/generic_business-71.png", "name": "Apipilpark", "opening_hours": {"open_now": false}, "photos": [{"height": 3024, "html_attributions": ["<a href=\"https://maps.google.com/maps/contrib/110360415497520646194\">Christian Camacho</a>"], "photo_reference": "CmRaAAAAcpvdEgrNISDxEzn_gXEGJlWlkGdbokN0uVEIpT4mMBXgHGqfwZVP6hKzboOIzIfuMoyyXWzX6z_Xim-Ld7bF4nMBMnwJiYml5gCNpzH7I9lvmX4Gbi1EXjP_1lTh391GEhBF6s5dgrNPHyxEnR7Euy5xGhTrJ7CtYJLKfccLwkQvgVr3EIIkKA", "width": 4032}], "place_id": "ChIJnf-Vza7c0YURPY3ZA2M18Hs", "plus_code": {"compound_code": "G6QW+7R Santo Tom\u00e1s Apipilhuasco, State of Mexico", "global_code": "76F3G6QW+7R"}, "rating": 4.4, "reference": "ChIJnf-Vza7c0YURPY3ZA2M18Hs", "types": ["tourist_attraction", "amusement_park", "point_of_interest", "establishment"], "user_ratings_total": 926}, {"business_status": "OPERATIONAL", "formatted_address": "Calle Jacarandas 103, Ricardo Flores Magon, 62370 Cuernavaca, Mor.", "geometry": {"location": {"lat": 18.9264207, "lng": -99.19940919999999}, "viewport": {"northeast": {"lat": 18.92771052989272, "lng": -99.19806992010729}, "southwest": {"lat": 18.92501087010728, "lng": -99.20076957989272}}}, "icon": "https://maps.gstatic.com/mapfiles/place_api/icons/v1/png_71/generic_business-71.png", "name": "Viva La Feria", "opening_hours": {"open_now": true}, "photos": [{"height": 2988, "html_attributions": ["<a href=\"https://maps.google.com/maps/contrib/109789934439749794303\">Omar Villanueva</a>"], "photo_reference": "CmRaAAAAUVOItQU9cj5xfXZwhVASYDAa1e1js2p818CyxLTOC3ylyDbdDWRrndLrOxRVIs6G5ezpZuUArADEZFJZf3j_g_njtB3jm3j58sN9xrzTFkRpjMmh8NNxuLg_8o8l3DEcEhBhemzt3Xk14kcJOYT2Wt_rGhRy-MTPvQf0uOG7eXfZ0aWnU-lVDg", "width": 5312}], "place_id": "ChIJk4hNtI_fzYURIg2oF2cc1Qc", "plus_code": {"compound_code": "WRG2+H6 Cuernavaca, Morelos", "global_code": "76C2WRG2+H6"}, "rating": 4.3, "reference": "ChIJk4hNtI_fzYURIg2oF2cc1Qc", "types": ["amusement_park", "point_of_interest", "establishment"], "user_ratings_total": 1143}]