[{"business_status": "OPERATIONAL", "formatted_address": "Huitzilihuitl Mz 3, Zona Urbana Ejidal los Reyes Culhuacan, Iztapalapa, 09840 Ciudad de M\u00e9xico, CDMX", "geometry": {"location": {"lat": 19.3463299, "lng": -99.1072477}, "viewport": {"northeast": {"lat": 19.34765507989272, "lng": -99.10582032010728}, "southwest": {"lat": 19.34495542010728, "lng": -99.10851997989273}}}, "icon": "https://maps.gstatic.com/mapfiles/place_api/icons/v1/png_71/generic_business-71.png", "name": "AUTO LAVADO", "opening_hours": {"open_now": false}, "place_id": "ChIJa2kEqAb-0YURRreZDMMTqOM", "plus_code": {"compound_code": "8VWV+G4 Mexico City", "global_code": "76F28VWV+G4"}, "rating": 5, "reference": "ChIJa2kEqAb-0YURRreZDMMTqOM", "types": ["car_wash", "point_of_interest", "establishment"], "user_ratings_total": 2}, {"business_status": "OPERATIONAL", "formatted_address": "Fco. Pascual Garcia 12, San Lucas, Iztapalapa, 09000 Ciudad de M\u00e9xico, CDMX", "geometry": {"location": {"lat": 19.3563, "lng": -99.096054}, "viewport": {"northeast": {"lat": 19.35763987989272, "lng": -99.09458012010727}, "southwest": {"lat": 19.35494022010728, "lng": -99.09727977989272}}}, "icon": "https://maps.gstatic.com/mapfiles/place_api/icons/v1/png_71/generic_business-71.png", "name": "Auto Lavado Vane", "opening_hours": {"open_now": false}, "photos": [{"height": 1200, "html_attributions": ["<a href=\"https://maps.google.com/maps/contrib/112625069448625314712\">A Google User</a>"], "photo_reference": "CmRaAAAAgCF1BOuyZ9xuHoy_afYkzEm1DTKXTU54l4DoSoFQ6YtPYMq7hW1ub1u1O4YbnIlQn8GhhHPlIyN0ygXNCjdSNWmc2jfKYswJsTqQA3DOIY_7lu4M_4wZgp0L7Own4mPHEhBBMPlbtqOtI9dy27439urmGhT9FTxZdik3M7CsT3bceNtL7A_U0Q", "width": 1600}], "place_id": "ChIJvSTGoTP90YURkaxbgSm5XXI", "plus_code": {"compound_code": "9W43+GH Mexico City", "global_code": "76F29W43+GH"}, "rating": 0, "reference": "ChIJvSTGoTP90YURkaxbgSm5XXI", "types": ["car_wash", "point_of_interest", "establishment"], "user_ratings_total": 0}, {"business_status": "OPERATIONAL", "formatted_address": "Av. Tlahuac 328, Los Reyes Culhuacan, Iztapalapa, 09840 Ciudad de M\u00e9xico, CDMX", "geometry": {"location": {"lat": 19.3471819, "lng": -99.1071027}, "viewport": {"northeast": {"lat": 19.34853747989272, "lng": -99.10578847010729}, "southwest": {"lat": 19.34583782010727, "lng": -99.10848812989273}}}, "icon": "https://maps.gstatic.com/mapfiles/place_api/icons/v1/png_71/generic_business-71.png", "name": "El Lavadero De Los Reyes", "opening_hours": {"open_now": false}, "photos": [{"height": 4032, "html_attributions": ["<a href=\"https://maps.google.com/maps/contrib/102894817559299402346\">A Google User</a>"], "photo_reference": "CmRaAAAADwPvWv_74dkpgnP1KAoP4DfjTJnWRrS1CzDg2w5WeGr_CHDs54eHl7y4Vx-FyOsRVa4OzuMASScSkS_Pnah7sioeIc8HBepXONLdSHM0mtb5F7_MvFFHRiA359C9RTm_EhCMVuPHMTTpVPwinQCSmQWHGhTLTrRJxb8YWisSq6gguIUDhScQSg", "width": 3024}], "place_id": "ChIJr20xBRb_0YURZ3Sb25vmwHw", "plus_code": {"compound_code": "8VWV+V5 Mexico City", "global_code": "76F28VWV+V5"}, "rating": 0, "reference": "ChIJr20xBRb_0YURZ3Sb25vmwHw", "types": ["car_wash", "point_of_interest", "establishment"], "user_ratings_total": 0}, {"business_status": "OPERATIONAL", "formatted_address": "Fco. Pascual Garcia numero 12, San Lucas, Iztapalapa, 09000 Ciudad de M\u00e9xico, CDMX", "geometry": {"location": {"lat": 19.356235, "lng": -99.09583699999999}, "viewport": {"northeast": {"lat": 19.35758537989272, "lng": -99.09449362010727}, "southwest": {"lat": 19.35488572010728, "lng": -99.09719327989272}}}, "icon": "https://maps.gstatic.com/mapfiles/place_api/icons/v1/png_71/generic_business-71.png", "name": "Car Wash \"Vane\"", "opening_hours": {"open_now": false}, "photos": [{"height": 1080, "html_attributions": ["<a href=\"https://maps.google.com/maps/contrib/106957391242888419851\">Angel Osorio</a>"], "photo_reference": "CmRaAAAAb4Ubcy6nixXsgqFxQIYH_rWZr8lyEvNZCVL8Utu_AkaYZfYXnRtupj-QpHQ2LFYS_RscxGi8ZlUHZJ_A0kcvzIF-1jBmisU7PRyx6URiGGgwvm788swhVtjlJos-mljeEhDp8o7VZ3yE_4JXAkNOm5F3GhSl7Rdi27ZAWq_cuA13Ht_r4_itdg", "width": 1920}], "place_id": "ChIJEdQYvNP90YURGTUzdpVZHNc", "plus_code": {"compound_code": "9W43+FM Mexico City", "global_code": "76F29W43+FM"}, "rating": 5, "reference": "ChIJEdQYvNP90YURGTUzdpVZHNc", "types": ["car_wash", "point_of_interest", "establishment"], "user_ratings_total": 2}, {"business_status": "OPERATIONAL", "formatted_address": "Los Reyes Culhuacan, 09840 Mexico City, CDMX", "geometry": {"location": {"lat": 19.346526, "lng": -99.1074474}, "viewport": {"northeast": {"lat": 19.34787882989272, "lng": -99.10611657010728}, "southwest": {"lat": 19.34517917010728, "lng": -99.10881622989272}}}, "icon": "https://maps.gstatic.com/mapfiles/place_api/icons/v1/png_71/generic_business-71.png", "name": "Autolavado Los Reyes Estetica Automotriz", "place_id": "ChIJZ5NNBgT-0YUR5NzVV8wllfc", "plus_code": {"compound_code": "8VWV+J2 Mexico City", "global_code": "76F28VWV+J2"}, "rating": 0, "reference": "ChIJZ5NNBgT-0YUR5NzVV8wllfc", "types": ["car_wash", "point_of_interest", "establishment"], "user_ratings_total": 0}, {"business_status": "OPERATIONAL", "formatted_address": "Arneses 4, Minerva, Iztapalapa, 09810 Ciudad de M\u00e9xico, CDMX", "geometry": {"location": {"lat": 19.356335, "lng": -99.11010379999999}, "viewport": {"northeast": {"lat": 19.35768812989272, "lng": -99.10878952010727}, "southwest": {"lat": 19.35498847010728, "lng": -99.11148917989271}}}, "icon": "https://maps.gstatic.com/mapfiles/place_api/icons/v1/png_71/generic_business-71.png", "name": "Auto Lavado Expres QUICKLY CAR WASH", "photos": [{"height": 3472, "html_attributions": ["<a href=\"https://maps.google.com/maps/contrib/110507996501409451044\">Josue Cervantes</a>"], "photo_reference": "CmRaAAAAG9x2e4ET2sW7JnHpnd_YEhCKIdxCICAVFuxfk8AnzNDJ6fv_TW0u0ueHvLUzwZRtlJdp_4i5cbJzSmT0uIbqjqc8ZvoaAPeN3SCly0IEmv1aBkw0qyxsMnUn4ULD0eAlEhASw0BWdKavKPm1Dpa1ONdkGhS5TN6tt3r3nx1deJyNoBfL-83cuA", "width": 4640}], "place_id": "ChIJ79t42Lj_0YURO0q-hZ9vmlY", "plus_code": {"compound_code": "9V4Q+GX Mexico City", "global_code": "76F29V4Q+GX"}, "rating": 5, "reference": "ChIJ79t42Lj_0YURO0q-hZ9vmlY", "types": ["car_wash", "point_of_interest", "establishment"], "user_ratings_total": 5}, {"business_status": "OPERATIONAL", "formatted_address": "5 de Mayo 106, San Lucas, Iztapalapa, 09000 Ciudad de M\u00e9xico, CDMX", "geometry": {"location": {"lat": 19.361947, "lng": -99.0968}, "viewport": {"northeast": {"lat": 19.36334437989272, "lng": -99.09543512010728}, "southwest": {"lat": 19.36064472010728, "lng": -99.09813477989273}}}, "icon": "https://maps.gstatic.com/mapfiles/place_api/icons/v1/png_71/generic_business-71.png", "name": "Autolavado Vallort", "opening_hours": {"open_now": false}, "photos": [{"height": 4160, "html_attributions": ["<a href=\"https://maps.google.com/maps/contrib/102517006521792939096\">Isma Pe\u00f1a</a>"], "photo_reference": "CmRaAAAAZCfkwp3EQq1qKSAWkA8zt34F6yRk0SX8o8_QrwMSbDR-P5kd6UwLgv6DYLs-yEVeNbcPwQm9hBlBFhEDpY4nOr7NijDPXvdV7Zm3OdYOAXWZy4KlPNSSIlD4l4Y_9s8bEhD82pXHAwjuPlpcuFW4GEXnGhRDL9ydbEHutSW8mCWTPneyYP_-9Q", "width": 3120}], "place_id": "ChIJ_azZ2-D90YURQKNY7Uz1nAc", "plus_code": {"compound_code": "9W63+Q7 Mexico City", "global_code": "76F29W63+Q7"}, "rating": 3.8, "reference": "ChIJ_azZ2-D90YURQKNY7Uz1nAc", "types": ["car_wash", "point_of_interest", "establishment"], "user_ratings_total": 93}, {"business_status": "OPERATIONAL", "formatted_address": "Jose Ma. Morels Manzana 4 Lote 14, Valle de Luces 1ra Secc, Iztapalapa, 09800 Ciudad de M\u00e9xico, CDMX", "geometry": {"location": {"lat": 19.3379571, "lng": -99.1007211}, "viewport": {"northeast": {"lat": 19.33927302989272, "lng": -99.09938047010729}, "southwest": {"lat": 19.33657337010728, "lng": -99.10208012989273}}}, "icon": "https://maps.gstatic.com/mapfiles/place_api/icons/v1/png_71/generic_business-71.png", "name": "CAR WASH", "opening_hours": {"open_now": false}, "place_id": "ChIJfw5uLQACzoUR_x71DHVc8Xg", "plus_code": {"compound_code": "8VQX+5P Mexico City", "global_code": "76F28VQX+5P"}, "rating": 0, "reference": "ChIJfw5uLQACzoUR_x71DHVc8Xg", "types": ["car_wash", "point_of_interest", "establishment"], "user_ratings_total": 0}, {"business_status": "OPERATIONAL", "formatted_address": "Esquina Francisco I. Madero, Av. Arneses S/N, Valle del Sur, Iztapalapa, 09819 Ciudad de M\u00e9xico, CDMX", "geometry": {"location": {"lat": 19.3458146, "lng": -99.1120363}, "viewport": {"northeast": {"lat": 19.34715592989272, "lng": -99.11064102010727}, "southwest": {"lat": 19.34445627010728, "lng": -99.11334067989272}}}, "icon": "https://maps.gstatic.com/mapfiles/place_api/icons/v1/png_71/generic_business-71.png", "name": "El Padrino: lavado a Presi\u00f3n", "opening_hours": {"open_now": true}, "photos": [{"height": 3264, "html_attributions": ["<a href=\"https://maps.google.com/maps/contrib/108097050589654776415\">Iv\u00e1n P\u00e9rez</a>"], "photo_reference": "CmRaAAAA4H08L_x1BcgKR2uvq-JpwAG-qPyPGmKNc3P1CLZcOrt3YitB3IEy8pUMCeiC2MrPuMOMGFDdV33uOBpZW6k1MLGHwar5ykKlMa03yCXXWw9yTzucQiBVvWEPFNC3sIGGEhC7xLuA5b51N6mHeblbgQOkGhRg5pDVN9YYFGV-7Wr8CniyVQ1SbA", "width": 1568}], "place_id": "ChIJLWKiVgP-0YURMR734f1YL2E", "plus_code": {"compound_code": "8VWQ+85 Mexico City", "global_code": "76F28VWQ+85"}, "rating": 4.4, "reference": "ChIJLWKiVgP-0YURMR734f1YL2E", "types": ["car_wash", "point_of_interest", "establishment"], "user_ratings_total": 31}, {"business_status": "OPERATIONAL", "formatted_address": "Eje 3 Oriente (Av. 5), Granjas San Antonio, Iztapalapa, 09070 Ciudad de M\u00e9xico, CDMX", "geometry": {"location": {"lat": 19.3633748, "lng": -99.10961239999999}, "viewport": {"northeast": {"lat": 19.36467542989272, "lng": -99.10827417010728}, "southwest": {"lat": 19.36197577010728, "lng": -99.11097382989271}}}, "icon": "https://maps.gstatic.com/mapfiles/place_api/icons/v1/png_71/generic_business-71.png", "name": "AUTO LAVADO A PRESION", "opening_hours": {"open_now": true}, "place_id": "ChIJee7TKQ3-0YURF9SoJFV1GVg", "plus_code": {"compound_code": "9V7R+85 Mexico City", "global_code": "76F29V7R+85"}, "rating": 4, "reference": "ChIJee7TKQ3-0YURF9SoJFV1GVg", "types": ["car_wash", "point_of_interest", "establishment"], "user_ratings_total": 13}, {"business_status": "OPERATIONAL", "formatted_address": "Atanasio G. Sarabia 1669, H\u00e9roes de Churubusco, Iztapalapa, 09060 Ciudad de M\u00e9xico, CDMX", "geometry": {"location": {"lat": 19.360786, "lng": -99.11453329999999}, "viewport": {"northeast": {"lat": 19.36225522989272, "lng": -99.11316912010727}, "southwest": {"lat": 19.35955557010728, "lng": -99.11586877989272}}}, "icon": "https://maps.gstatic.com/mapfiles/place_api/icons/v1/png_71/generic_business-71.png", "name": "Lavado de autos", "opening_hours": {"open_now": false}, "place_id": "ChIJ1aX7uGX_0YUR8ZMyJxf10_w", "plus_code": {"compound_code": "9V6P+85 Mexico City", "global_code": "76F29V6P+85"}, "rating": 0, "reference": "ChIJ1aX7uGX_0YUR8ZMyJxf10_w", "types": ["car_wash", "point_of_interest", "establishment"], "user_ratings_total": 0}, {"business_status": "OPERATIONAL", "formatted_address": "5 de Mayo 267, Sta B\u00e1rbara, Iztapalapa, 09000 Ciudad de M\u00e9xico, CDMX", "geometry": {"location": {"lat": 19.3632224, "lng": -99.10056850000001}, "viewport": {"northeast": {"lat": 19.36452022989272, "lng": -99.09923477010727}, "southwest": {"lat": 19.36182057010727, "lng": -99.10193442989272}}}, "icon": "https://maps.gstatic.com/mapfiles/place_api/icons/v1/png_71/generic_business-71.png", "name": "LAVADO Y ENGRASADO", "opening_hours": {"open_now": false}, "photos": [{"height": 3072, "html_attributions": ["<a href=\"https://maps.google.com/maps/contrib/113802000917676876238\">A Google User</a>"], "photo_reference": "CmRaAAAAHZsbaedAWmE7c6VERe5NtTKzo-xOipXhkf38BtrfXbc_9FSd4QkmcP8eHV5cnMBNAk-w126vR8ny-uTG4vwVZQr1SJZ3ZLaIuak8SPIkotxzA2tg5RAiMP-xgBiM_v9gEhDxmmoHB8TMD4bNygFKPgN5GhTGJy8qmpOrka6O1fGWBpsNoiki3Q", "width": 4608}], "place_id": "ChIJQfY5F-D90YURNooR0Iy57mg", "plus_code": {"compound_code": "9V7X+7Q Mexico City", "global_code": "76F29V7X+7Q"}, "rating": 4.3, "reference": "ChIJQfY5F-D90YURNooR0Iy57mg", "types": ["car_wash", "point_of_interest", "establishment"], "user_ratings_total": 83}, {"business_status": "OPERATIONAL", "formatted_address": "Arneses, Los Reyes Culhuacan, Iztapalapa, 09840 Ciudad de M\u00e9xico, CDMX", "geometry": {"location": {"lat": 19.344139, "lng": -99.11197399999999}, "viewport": {"northeast": {"lat": 19.34552947989272, "lng": -99.11061417010727}, "southwest": {"lat": 19.34282982010728, "lng": -99.1133138298927}}}, "icon": "https://maps.gstatic.com/mapfiles/place_api/icons/v1/png_71/generic_business-71.png", "name": "AutoLavado Los Pericos", "opening_hours": {"open_now": false}, "photos": [{"height": 3104, "html_attributions": ["<a href=\"https://maps.google.com/maps/contrib/117488830055679521522\">jacinto barradas</a>"], "photo_reference": "CmRaAAAAtuC_FPIKOBWPFNHBspbNWjZs7JwlhIkGeDSNmCL17FKYPD9lQ-domhEJojXD5M6IqERWUd_0w_xRWLm9aBkCTGsQU3ScmDm_vOdcrnxGEJc6z3Id43t-vfsC1qKN1ticEhDJeAnd4sJrBBAj1aWVyEsVGhSwoXbivPI0aKXQeA6Nraa_0Z5jmQ", "width": 3104}], "place_id": "ChIJb2UTMQP-0YURwLhblTn2vbo", "plus_code": {"compound_code": "8VVQ+M6 Mexico City", "global_code": "76F28VVQ+M6"}, "rating": 4.2, "reference": "ChIJb2UTMQP-0YURwLhblTn2vbo", "types": ["car_wash", "point_of_interest", "establishment"], "user_ratings_total": 21}, {"business_status": "OPERATIONAL", "formatted_address": "09060 de, Atanasio G. Sarabia 1765, Escuadr\u00f3n 201, Iztapalapa, Ciudad de M\u00e9xico, CDMX", "geometry": {"location": {"lat": 19.360553, "lng": -99.11256979999999}, "viewport": {"northeast": {"lat": 19.36203917989272, "lng": -99.11120557010727}, "southwest": {"lat": 19.35933952010728, "lng": -99.11390522989272}}}, "icon": "https://maps.gstatic.com/mapfiles/place_api/icons/v1/png_71/generic_business-71.png", "name": "autolavado", "opening_hours": {"open_now": true}, "photos": [{"height": 12000, "html_attributions": ["<a href=\"https://maps.google.com/maps/contrib/106970683039229310164\">Alan Colunga</a>"], "photo_reference": "CmRaAAAANWgPnvOXNcBAcS-t_wzVuQTKg149AHupta0_DlA6kKSK9b9vBGVT2LRot0TkNt7wdkm8jLUwDoyP380cVHzSJ0uZc4qBoPc4tb7bZsM1dQd34rxRf1cK3mcbd8ZR9akUEhBM7P88xUVcgyen9dBpN7ExGhScTNSZihwGwlG8srOjl4SVCbAvjw", "width": 9000}], "place_id": "ChIJbf64fxL-0YURjn0nqnwt6hc", "plus_code": {"compound_code": "9V6P+6X Mexico City", "global_code": "76F29V6P+6X"}, "rating": 4.1, "reference": "ChIJbf64fxL-0YURjn0nqnwt6hc", "types": ["car_wash", "point_of_interest", "establishment"], "user_ratings_total": 27}, {"business_status": "OPERATIONAL", "formatted_address": "5 de Mayo 359, Sta B\u00e1rbara, Iztapalapa, 09000 Ciudad de M\u00e9xico, CDMX", "geometry": {"location": {"lat": 19.3642386, "lng": -99.104205}, "viewport": {"northeast": {"lat": 19.36553767989273, "lng": -99.10287167010728}, "southwest": {"lat": 19.36283802010728, "lng": -99.10557132989271}}}, "icon": "https://maps.gstatic.com/mapfiles/place_api/icons/v1/png_71/generic_business-71.png", "name": "TORNEL AUTO LAVADO", "place_id": "ChIJs3RO1XT-0YURvnsHT2h5-_k", "plus_code": {"compound_code": "9V7W+M8 Mexico City", "global_code": "76F29V7W+M8"}, "rating": 4.1, "reference": "ChIJs3RO1XT-0YURvnsHT2h5-_k", "types": ["car_wash", "point_of_interest", "establishment"], "user_ratings_total": 9}, {"business_status": "OPERATIONAL", "formatted_address": "Aztecas 18, La Asunci\u00f3n, Iztapalapa, 09000 Ciudad de M\u00e9xico, CDMX", "geometry": {"location": {"lat": 19.361457, "lng": -99.092699}, "viewport": {"northeast": {"lat": 19.36279557989272, "lng": -99.09131842010729}, "southwest": {"lat": 19.36009592010728, "lng": -99.09401807989272}}}, "icon": "https://maps.gstatic.com/mapfiles/place_api/icons/v1/png_71/generic_business-71.png", "name": "Super Cars Wash Los Primos", "opening_hours": {"open_now": true}, "photos": [{"height": 4096, "html_attributions": ["<a href=\"https://maps.google.com/maps/contrib/113764616750501932229\">A Google User</a>"], "photo_reference": "CmRaAAAAK8rZaNXFDkJ8TMMZRqu0w8HaQvYePNrVVD819k6VVseXEOkKTr9K7Y1_vU8yYq7YCnlnWyCPh418Uljr0QPBSGwRUrLwiEkvQtCjPth8G5Tf95Kp_wx6Pgfzsu7k04HQEhCfS5xSb9qX78ZmkZ1ZPRTKGhTMhnNsh9Ake2B7gM2RMEqgGitwtg", "width": 2304}], "place_id": "ChIJVe_4U-b90YUR6YB5HhjRKe4", "plus_code": {"compound_code": "9W64+HW Mexico City", "global_code": "76F29W64+HW"}, "rating": 4.2, "reference": "ChIJVe_4U-b90YUR6YB5HhjRKe4", "types": ["car_wash", "point_of_interest", "establishment"], "user_ratings_total": 14}, {"business_status": "OPERATIONAL", "formatted_address": "Calle Cuauht\u00e9moc, Los Reyes Culhuacan, Iztapalapa, 09840 Ciudad de M\u00e9xico, CDMX", "geometry": {"location": {"lat": 19.3444877, "lng": -99.1121373}, "viewport": {"northeast": {"lat": 19.34584057989272, "lng": -99.11080552010728}, "southwest": {"lat": 19.34314092010728, "lng": -99.11350517989271}}}, "icon": "https://maps.gstatic.com/mapfiles/place_api/icons/v1/png_71/generic_business-71.png", "name": "Super Wash", "photos": [{"height": 4224, "html_attributions": ["<a href=\"https://maps.google.com/maps/contrib/111167323537451202872\">Hugo Mendoza Santillan</a>"], "photo_reference": "CmRaAAAACYuw7TCgC7Hu_lMTRPuR8Zlk4t4vgR3lu6SPcDBNaEizbKKQDZ0HeCe9q45n_WLqq90h96sOe8LrP-cQ9THVcRiT0rL8_s0JCZbEaiHAZ8RIhdK5QaTIlNzil2-2wNY-EhBCBxYstUdShHkZ_F_vH5zdGhSnGDNOOc5PNLmzCS2B73kqbJUmIA", "width": 5632}], "place_id": "ChIJF2bGNQP-0YURw2JNcpuB68I", "plus_code": {"compound_code": "8VVQ+Q4 Mexico City", "global_code": "76F28VVQ+Q4"}, "rating": 0, "reference": "ChIJF2bGNQP-0YURw2JNcpuB68I", "types": ["car_wash", "point_of_interest", "establishment"], "user_ratings_total": 0}, {"business_status": "OPERATIONAL", "formatted_address": "Calle 8 215B, Granjas San Antonio, Iztapalapa, 09070 Ciudad de M\u00e9xico, CDMX", "geometry": {"location": {"lat": 19.3652953, "lng": -99.10519}, "viewport": {"northeast": {"lat": 19.36664512989272, "lng": -99.10384017010728}, "southwest": {"lat": 19.36394547010728, "lng": -99.10653982989271}}}, "icon": "https://maps.gstatic.com/mapfiles/place_api/icons/v1/png_71/generic_business-71.png", "name": "Auto lavado a Presion LA 8", "opening_hours": {"open_now": true}, "photos": [{"height": 4656, "html_attributions": ["<a href=\"https://maps.google.com/maps/contrib/102582929238426189301\">sock106</a>"], "photo_reference": "CmRaAAAAnCUyc_OlPNxeTIEsf4dHdJrll5TVNIW20JjmCn0AUjGTgDlecO_G5ti2_HzwgCSxshsTPxjM9ZkJLJEN9TF7XxcNN3pvL-2ryWeYOZm2v-wyzmhM7qapAC0iETppRnpbEhAAN4hUOFo0eC_9IqwJeE-pGhS_N1ycNaW3zDj45bGsFxAbDiggdg", "width": 3492}], "place_id": "ChIJWeKFl4r_0YURJopHLMX3iOc", "plus_code": {"compound_code": "9V8V+4W Mexico City", "global_code": "76F29V8V+4W"}, "rating": 5, "reference": "ChIJWeKFl4r_0YURJopHLMX3iOc", "types": ["car_wash", "point_of_interest", "establishment"], "user_ratings_total": 1}, {"business_status": "OPERATIONAL", "formatted_address": "09830, Espuela 37, Los \u00c1ngeles, Iztapalapa, Ciudad de M\u00e9xico, CDMX", "geometry": {"location": {"lat": 19.3453319, "lng": -99.0716319}, "viewport": {"northeast": {"lat": 19.34667962989272, "lng": -99.07027307010729}, "southwest": {"lat": 19.34397997010728, "lng": -99.07297272989274}}}, "icon": "https://maps.gstatic.com/mapfiles/place_api/icons/v1/png_71/generic_business-71.png", "name": "Lavado de Autos en Seco", "opening_hours": {"open_now": false}, "photos": [{"height": 2988, "html_attributions": ["<a href=\"https://maps.google.com/maps/contrib/111724889729966410643\">jav pingo</a>"], "photo_reference": "CmRaAAAA67lMsOC7geKbcLGkwE5CT4uLL0tM5BUYj6XHigT6bermrkn_fMdO52gI0OMf3D209PeiPsSRRviagZueCWMuGY9o39NrZH71eaK4Bh3cMuH_9XbCWUtBcydwhsSR8grUEhDcyOp74pSkcR-wtQHUT18qGhRBOxq6Qf_w-wqPgia86CG47PKgRQ", "width": 3984}], "place_id": "ChIJayx_CIn90YUR1gYed7Xt1tw", "plus_code": {"compound_code": "8WWH+48 Mexico City", "global_code": "76F28WWH+48"}, "rating": 5, "reference": "ChIJayx_CIn90YUR1gYed7Xt1tw", "types": ["car_wash", "point_of_interest", "establishment"], "user_ratings_total": 4}, {"business_status": "OPERATIONAL", "formatted_address": "Av. Tlahuac 3563, San Antonio Culhuacan, Iztapalapa, 09800 Ciudad de M\u00e9xico, CDMX", "geometry": {"location": {"lat": 19.3404474, "lng": -99.1087913}, "viewport": {"northeast": {"lat": 19.34178662989272, "lng": -99.10740157010727}, "southwest": {"lat": 19.33908697010727, "lng": -99.11010122989272}}}, "icon": "https://maps.gstatic.com/mapfiles/place_api/icons/v1/png_71/generic_business-71.png", "name": "Hi-Tech Car Care Center", "opening_hours": {"open_now": false}, "photos": [{"height": 3000, "html_attributions": ["<a href=\"https://maps.google.com/maps/contrib/112611804121578280348\">Luisro Guerrero</a>"], "photo_reference": "CmRaAAAAJg-OdMZQ-NMlpRPTEgM-z8ZuvUrRmdsIOhdNSuJc6oZcVMKAAIiIekyikJ7-4vnXxGv8FGheHtVNIccw_DpJiIDxfbJBctWscUUoUqVngUuIf87Ass3_pzFrPga_taLWEhD2OEI1cLdy9P_WidfqvhIOGhRLCswdVEudUhMvYloP0IQK2MFsXg", "width": 4000}], "place_id": "ChIJYyFmOZj_0YUR5XsyS75RX10", "plus_code": {"compound_code": "8VRR+5F Mexico City", "global_code": "76F28VRR+5F"}, "rating": 3.9, "reference": "ChIJYyFmOZj_0YUR5XsyS75RX10", "types": ["car_wash", "car_repair", "point_of_interest", "establishment"], "user_ratings_total": 46}]