[{"business_status": "OPERATIONAL", "formatted_address": "Av. Paseo de la Reforma 305, Cuauht\u00e9moc, 06500 Ciudad de M\u00e9xico, CDMX", "geometry": {"location": {"lat": 19.4281775, "lng": -99.1663135}, "viewport": {"northeast": {"lat": 19.42948742989272, "lng": -99.16494257010729}, "southwest": {"lat": 19.42678777010728, "lng": -99.16764222989273}}}, "icon": "https://maps.gstatic.com/mapfiles/place_api/icons/v1/png_71/civic_building-71.png", "name": "Embassy of the United States of America", "opening_hours": {"open_now": false}, "photos": [{"height": 3024, "html_attributions": ["<a href=\"https://maps.google.com/maps/contrib/116671323850773947745\">Luis Goicoechea</a>"], "photo_reference": "CmRaAAAAkCMZ7vcJmzO8XqEJlkm4cGYjIf9ly0y7mZnaLvL-VAU1mHAhf_GgWM_3nRwHwabfOKGqkEz0KKZSckg1DycFXZI0OKwexiEwzm1mn6azvHTNgTCVAGzSuBUAEryy7EImEhAs60JOLIT4gSkETAE6GrfnGhRhc_OM8s7GjWEgvypFbm_iIs_zSw", "width": 4032}], "place_id": "ChIJf5NQmTX_0YURDQIIwsoJq2Y", "plus_code": {"compound_code": "CRHM+7F Mexico City", "global_code": "76F2CRHM+7F"}, "rating": 4.1, "reference": "ChIJf5NQmTX_0YURDQIIwsoJq2Y", "types": ["embassy", "point_of_interest", "establishment"], "user_ratings_total": 708}, {"business_status": "OPERATIONAL", "formatted_address": "Av. Paseo de la Reforma 412, Ju\u00e1rez, Cuauht\u00e9moc, 06600 Ciudad de M\u00e9xico, CDMX", "geometry": {"location": {"lat": 19.4248089, "lng": -99.1709144}, "viewport": {"northeast": {"lat": 19.42623112989272, "lng": -99.1696368701073}, "southwest": {"lat": 19.42353147010727, "lng": -99.17233652989275}}}, "icon": "https://maps.gstatic.com/mapfiles/place_api/icons/v1/png_71/civic_building-71.png", "name": "Embassy of Colombia", "opening_hours": {"open_now": false}, "photos": [{"height": 1620, "html_attributions": ["<a href=\"https://maps.google.com/maps/contrib/117465785877487076776\">Fernando Emiliano Dominguez Balderas</a>"], "photo_reference": "CmRaAAAAXNK-Hy-p470JZ2DRAXkf7z6cFwr2GvKwd3EA0t7bpSq8cgz-kgHnMb_gHZSzoofxolzCwUQVeE8dZQIMRm-L9DQQ3jcQldt7TDbns9wTihEoNu3t37qHTPOrxs6eInD3EhCMJUA5Bhd-HXRAb91FkylKGhT4xty_MMVQjrHyCPADEgK-piUzVw", "width": 1080}], "place_id": "ChIJVVVVVUr_0YURZuQcNtuUDzc", "plus_code": {"compound_code": "CRFH+WJ Mexico City", "global_code": "76F2CRFH+WJ"}, "rating": 3.8, "reference": "ChIJVVVVVUr_0YURZuQcNtuUDzc", "types": ["embassy", "point_of_interest", "establishment"], "user_ratings_total": 20}, {"business_status": "OPERATIONAL", "formatted_address": "Calle R\u00edo Lerma 71, Cuauht\u00e9moc, 06500 Ciudad de M\u00e9xico, CDMX", "geometry": {"location": {"lat": 19.4302647, "lng": -99.16575809999999}, "viewport": {"northeast": {"lat": 19.43150562989272, "lng": -99.16435222010728}, "southwest": {"lat": 19.42880597010728, "lng": -99.16705187989272}}}, "icon": "https://maps.gstatic.com/mapfiles/place_api/icons/v1/png_71/civic_building-71.png", "name": "British Embassy Mexico City", "opening_hours": {"open_now": true}, "photos": [{"height": 4640, "html_attributions": ["<a href=\"https://maps.google.com/maps/contrib/101902002275279905311\">Adri\u00e1n S.</a>"], "photo_reference": "CmRaAAAAKc_Jd0H3YcWNlXUf44rABryVC0jqRb7skd3cxyZ_lDUSFC82TM0EYp32Ym7YFrD3Neoh7IMUX6RtnkfAphHFXg-4pNCEQthki4nq3KUzbOMBBNs-VdPzxKvwYHZ-ZUJkEhBmvu0626YLlElN_bxYso8KGhT7ty7_vXhVQvIbzRAP6HrfZbFz-Q", "width": 3480}], "place_id": "ChIJzxtKGDX_0YURP6ahu_P3vUc", "plus_code": {"compound_code": "CRJM+4M Mexico City", "global_code": "76F2CRJM+4M"}, "rating": 4.2, "reference": "ChIJzxtKGDX_0YURP6ahu_P3vUc", "types": ["embassy", "point_of_interest", "establishment"], "user_ratings_total": 32}, {"business_status": "OPERATIONAL", "formatted_address": "Av. San Jer\u00f3nimo 217b, Tizap\u00e1n San \u00c1ngel, La Otra Banda, \u00c1lvaro Obreg\u00f3n, 01090 Ciudad de M\u00e9xico, CDMX", "geometry": {"location": {"lat": 19.3361265, "lng": -99.19747439999999}, "viewport": {"northeast": {"lat": 19.33726642989272, "lng": -99.19590117010729}, "southwest": {"lat": 19.33456677010728, "lng": -99.19860082989273}}}, "icon": "https://maps.gstatic.com/mapfiles/place_api/icons/v1/png_71/civic_building-71.png", "name": "Embajada de la Rep\u00fablica Popular de China", "opening_hours": {"open_now": false}, "photos": [{"height": 2340, "html_attributions": ["<a href=\"https://maps.google.com/maps/contrib/114875802607141334771\">samuel aparicio</a>"], "photo_reference": "CmRaAAAAzucUQsRMGxaN-D0TzW4AJFA-AVBFAUvr4PCHUVvoa2qQY-owZWLNm2hZaDl8VC53Z5danAID53Uvp0rto8U_V8xbDrhye1f_VDoAufxwjisnWuPGtDg_SpLEpvwSaeYmEhBlTRBMI0MkvibkNsom3yQWGhT_jK9vzr7mQeloL2lDtSx6GvZn5g", "width": 4160}], "place_id": "ChIJQxgVbAcA0oURgLnvehkHD7A", "plus_code": {"compound_code": "8RP3+F2 Mexico City", "global_code": "76F28RP3+F2"}, "rating": 3.4, "reference": "ChIJQxgVbAcA0oURgLnvehkHD7A", "types": ["embassy", "point_of_interest", "establishment"], "user_ratings_total": 80}, {"business_status": "OPERATIONAL", "formatted_address": "Calle Cracovia 40, San \u00c1ngel, \u00c1lvaro Obreg\u00f3n, 01000 Ciudad de M\u00e9xico, CDMX", "geometry": {"location": {"lat": 19.3487814, "lng": -99.188211}, "viewport": {"northeast": {"lat": 19.35017157989272, "lng": -99.18687867010729}, "southwest": {"lat": 19.34747192010728, "lng": -99.18957832989273}}}, "icon": "https://maps.gstatic.com/mapfiles/place_api/icons/v1/png_71/civic_building-71.png", "name": "Embassy of Poland", "opening_hours": {"open_now": false}, "photos": [{"height": 1200, "html_attributions": ["<a href=\"https://maps.google.com/maps/contrib/101053979734404497107\">A Google User</a>"], "photo_reference": "CmRaAAAALWZP1Sq1Um7182AZ8l7HgkGEIsiMHuBhBmVwSUqSGB4_Z7sMfoA7pSe9AyuBuWzxk7Us_IIuNELEKfGv9z-WEd_93PrZLq1Dm53541z7AW6GPIhCdNDq0MwBV1Qd3FR8EhA-dMCzflGruqQeSqy-PG6HGhTHB1eUbnVTaOAnqGcFrgchuW2dOA", "width": 1600}], "place_id": "ChIJW37qjff_0YURrUsikoP3BoU", "plus_code": {"compound_code": "8RX6+GP Mexico City", "global_code": "76F28RX6+GP"}, "rating": 5, "reference": "ChIJW37qjff_0YURrUsikoP3BoU", "types": ["embassy", "point_of_interest", "establishment"], "user_ratings_total": 10}, {"business_status": "OPERATIONAL", "formatted_address": "Bulgaria 14-A, Benito Ju\u00e1rez, 03300 Ciudad de M\u00e9xico, CDMX", "geometry": {"location": {"lat": 19.3595696, "lng": -99.14403639999999}, "viewport": {"northeast": {"lat": 19.36129297989272, "lng": -99.14282837010728}, "southwest": {"lat": 19.35859332010728, "lng": -99.14552802989273}}}, "icon": "https://maps.gstatic.com/mapfiles/place_api/icons/v1/png_71/civic_building-71.png", "name": "Embajada Gubernamental", "place_id": "ChIJ_4rTHjX-0YURYvbGtQ1_TYM", "plus_code": {"compound_code": "9V54+R9 Mexico City", "global_code": "76F29V54+R9"}, "rating": 0, "reference": "ChIJ_4rTHjX-0YURYvbGtQ1_TYM", "types": ["embassy", "point_of_interest", "establishment"], "user_ratings_total": 0}, {"business_status": "OPERATIONAL", "formatted_address": "Maestro Jos\u00e9 Vasconcelos 204, Hip\u00f3dromo Condesa, 06140 Cuauht\u00e9moc, CDMX", "geometry": {"location": {"lat": 19.4096976, "lng": -99.1828644}, "viewport": {"northeast": {"lat": 19.41110737989272, "lng": -99.1816308701073}, "southwest": {"lat": 19.40840772010728, "lng": -99.18433052989273}}}, "icon": "https://maps.gstatic.com/mapfiles/place_api/icons/v1/png_71/civic_building-71.png", "name": "Embassy of Russia", "opening_hours": {"open_now": false}, "photos": [{"height": 3024, "html_attributions": ["<a href=\"https://maps.google.com/maps/contrib/112332229080647106861\">A Google User</a>"], "photo_reference": "CmRaAAAASkVx1qPRQdAQBWxn6WVVFZBf6FRpzvwPFGFLJA7LgTO-X7TRFGhfk5wwg1b9uQZPwTnolq6w3VlOpRAgahQ7JkBMue_OqDJqeJ2JXWVdIOHotrgOEjPjYgmIVmt8HM9PEhCToHfad6LVCSDYMsj5qoL7GhT1ruQz5iNujHNbBBfnGgk0dJvfNw", "width": 4032}], "place_id": "ChIJg_iwt13_0YURbm0hG9nw2QI", "plus_code": {"compound_code": "CR58+VV Mexico City", "global_code": "76F2CR58+VV"}, "rating": 4.4, "reference": "ChIJg_iwt13_0YURbm0hG9nw2QI", "types": ["embassy", "point_of_interest", "establishment"], "user_ratings_total": 64}, {"business_status": "OPERATIONAL", "formatted_address": "R\u00edo Poo 113, Cuauht\u00e9moc, 06500 Ciudad de M\u00e9xico, CDMX", "geometry": {"location": {"lat": 19.4296262, "lng": -99.168317}, "viewport": {"northeast": {"lat": 19.43099877989272, "lng": -99.16691852010727}, "southwest": {"lat": 19.42829912010728, "lng": -99.16961817989271}}}, "icon": "https://maps.gstatic.com/mapfiles/place_api/icons/v1/png_71/civic_building-71.png", "name": "Embassy of Costa Rica", "opening_hours": {"open_now": false}, "photos": [{"height": 4128, "html_attributions": ["<a href=\"https://maps.google.com/maps/contrib/111098684757406627257\">Hayden chamorro</a>"], "photo_reference": "CmRaAAAASPFF1RS1xuv81fUh-36b0-8rXVRmQIbw07sR9E9ngOeAbl0s81KEEloH8yb_Oj8PN4Joty52aCYlQlBO1BnslMKwx59UMJSR80M-UBCRo5y_ItGAe6XYLok299qykOanEhALcOYtbE3TpsSldu6YQFN3GhRrVbb6iSeviN72ka8dvRDvFToGhg", "width": 2322}], "place_id": "ChIJZbkcm0r_0YURCQifm_hhVL0", "plus_code": {"compound_code": "CRHJ+VM Mexico City", "global_code": "76F2CRHJ+VM"}, "rating": 4.3, "reference": "ChIJZbkcm0r_0YURCQifm_hhVL0", "types": ["embassy", "point_of_interest", "establishment"], "user_ratings_total": 19}, {"business_status": "OPERATIONAL", "formatted_address": "Av. Paseo de la Reforma 243, Col. Renacimiento, Cuauht\u00e9moc, 06500 Ciudad de M\u00e9xico, CDMX", "geometry": {"location": {"lat": 19.4298074, "lng": -99.16373490000001}, "viewport": {"northeast": {"lat": 19.43097632989272, "lng": -99.16238497010728}, "southwest": {"lat": 19.42827667010727, "lng": -99.16508462989273}}}, "icon": "https://maps.gstatic.com/mapfiles/place_api/icons/v1/png_71/civic_building-71.png", "name": "Embassy of Japan", "opening_hours": {"open_now": false}, "photos": [{"height": 3024, "html_attributions": ["<a href=\"https://maps.google.com/maps/contrib/111247960869643342497\">akatsukibrawl@hotmail.com</a>"], "photo_reference": "CmRaAAAA3MmO5uXtvpV_oJvZDVNwEXjlxuXKMieGswdQpwYehyds9cXk0Ix0PpCW_NGmbU1SDIsy0I4joa6oM4MyaRt7S8v1_BHLUqHm6yZU4aPCEVWRMjgyfjEXv6AM_FOyH9E4EhBlR3OJbcUgXP_yP1XESZfiGhQkfVAiNWC7XjiBODgyGQJuYKUUUg", "width": 4032}], "place_id": "ChIJIxqh00v_0YURFnVdSnQiRxg", "plus_code": {"compound_code": "CRHP+WG Mexico City", "global_code": "76F2CRHP+WG"}, "rating": 4.2, "reference": "ChIJIxqh00v_0YURFnVdSnQiRxg", "types": ["embassy", "point_of_interest", "establishment"], "user_ratings_total": 39}, {"business_status": "OPERATIONAL", "formatted_address": "Alfonso Reyes 220, Hip\u00f3dromo, Cuauht\u00e9moc, 06170 Ciudad de M\u00e9xico, CDMX", "geometry": {"location": {"lat": 19.4074384, "lng": -99.1736853}, "viewport": {"northeast": {"lat": 19.40871697989273, "lng": -99.17237527010728}, "southwest": {"lat": 19.40601732010728, "lng": -99.17507492989273}}}, "icon": "https://maps.gstatic.com/mapfiles/place_api/icons/v1/png_71/civic_building-71.png", "name": "Embassy of Honduras", "opening_hours": {"open_now": false}, "photos": [{"height": 2268, "html_attributions": ["<a href=\"https://maps.google.com/maps/contrib/116671323850773947745\">Luis Goico</a>"], "photo_reference": "CmRaAAAAsZmkA4Jtn6it4mkZLY8rGp31Y2FV2MjAOnWuzYb59m70E0AM05NuED3pr9n_j_B-ruQQ7ZdVAwiMOv-AMfydAu___12DVhGV5vNJMZnBhQ0B1hIhDE1YfthQhCDXn-khEhDAFyjKOgUxaqqRgNmCy7NZGhTtpOs-OXnLBRtAzZg7tXz3d_vDCQ", "width": 4032}], "place_id": "ChIJSSXo-2n_0YUR1vJwP4RRQ8U", "plus_code": {"compound_code": "CR4G+XG Mexico City", "global_code": "76F2CR4G+XG"}, "rating": 4, "reference": "ChIJSSXo-2n_0YUR1vJwP4RRQ8U", "types": ["embassy", "point_of_interest", "establishment"], "user_ratings_total": 63}, {"business_status": "OPERATIONAL", "formatted_address": "Andr\u00e9s Bello 10, Polanco, Polanco IV Secc, Miguel Hidalgo, 11560 Ciudad de M\u00e9xico, CDMX", "geometry": {"location": {"lat": 19.4268599, "lng": -99.1958248}, "viewport": {"northeast": {"lat": 19.42826292989272, "lng": -99.19436917010728}, "southwest": {"lat": 19.42556327010728, "lng": -99.19706882989273}}}, "icon": "https://maps.gstatic.com/mapfiles/place_api/icons/v1/png_71/civic_building-71.png", "name": "Embajada de Chile", "opening_hours": {"open_now": false}, "photos": [{"height": 3024, "html_attributions": ["<a href=\"https://maps.google.com/maps/contrib/113995401024282497538\">Arturchief</a>"], "photo_reference": "CmRaAAAAoUtjY8gFjSb6EkM5Mm8VxIyuAPYWFNSDvRFLfQGYj6LHIqqLqKFSiszVXlSBejBlNk3yTX7-IRnyc7-r6V8cX3pwoJaF2DBDuPoXO_9OoNVd2tQcH2pjLZllRRODAL00EhDTA1GdLe87DaSp2A5-5QlFGhR7Rv1gKLpruATZppdLNlGoJIke5w", "width": 4032}], "place_id": "ChIJYwTaK_kB0oURq3HuHx25eGQ", "plus_code": {"compound_code": "CRG3+PM Mexico City", "global_code": "76F2CRG3+PM"}, "rating": 4.5, "reference": "ChIJYwTaK_kB0oURq3HuHx25eGQ", "types": ["embassy", "point_of_interest", "establishment"], "user_ratings_total": 21}, {"business_status": "OPERATIONAL", "formatted_address": "Schiller No. 326, Chapultepec Morales, Polanco V Secc, Miguel Hidalgo, 11560 Ciudad de M\u00e9xico, CDMX", "geometry": {"location": {"lat": 19.4323188, "lng": -99.1862639}, "viewport": {"northeast": {"lat": 19.43367117989272, "lng": -99.18498312010729}, "southwest": {"lat": 19.43097152010728, "lng": -99.18768277989273}}}, "icon": "https://maps.gstatic.com/mapfiles/place_api/icons/v1/png_71/civic_building-71.png", "name": "Embajada de Venezuela", "opening_hours": {"open_now": false}, "photos": [{"height": 4032, "html_attributions": ["<a href=\"https://maps.google.com/maps/contrib/111099518285513877015\">Yoelvis Oses Sosa</a>"], "photo_reference": "CmRaAAAAzf3PbJnFkTAuvOLvIScw9Nbll3SnerD2Q3mAvrB76rrRPs2PgjxD5paE5y8LZLXkdOM4bf2AguD9ja3WMqpl_gg1twRre-JyRlo2pi2zYoRs0F7Bn3deBFnuZvTqI-lrEhBJtXnpt2j4FKIeSPzS5hZeGhT3wsTLUkl8m7s3XAz-_hRGJSxycA", "width": 3024}], "place_id": "ChIJbRklFqv40YUR1RIul36oP3w", "plus_code": {"compound_code": "CRJ7+WF Mexico City", "global_code": "76F2CRJ7+WF"}, "rating": 3.6, "reference": "ChIJbRklFqv40YUR1RIul36oP3w", "types": ["embassy", "point_of_interest", "establishment"], "user_ratings_total": 158}, {"business_status": "OPERATIONAL", "formatted_address": "Alfredo de Musset 41, Polanco, Polanco III Secc, Miguel Hidalgo, 11550 Ciudad de M\u00e9xico, CDMX", "geometry": {"location": {"lat": 19.4332319, "lng": -99.19637480000002}, "viewport": {"northeast": {"lat": 19.43458927989272, "lng": -99.19511547010728}, "southwest": {"lat": 19.43188962010728, "lng": -99.19781512989273}}}, "icon": "https://maps.gstatic.com/mapfiles/place_api/icons/v1/png_71/civic_building-71.png", "name": "Embassy of Belgium", "opening_hours": {"open_now": false}, "photos": [{"height": 2056, "html_attributions": ["<a href=\"https://maps.google.com/maps/contrib/112759080422637667248\">Uli Wooly</a>"], "photo_reference": "CmRaAAAAOLnVyTWMlPPRr7U17N8HjZQfhr8t7yHUo-bQQVrjQl9_yN1LTJQ42P2v3FI7LCv-nNIGDfhbO1AQXPUWF6MRkUI4wLukz2cq0rhH2VGKR78bymfdv3C1HY4btn54Dn1wEhBW7Ueoxs8DeuiDjpFdmM_jGhS8UIP2LvYQbH08tJMWqK8aktC5_g", "width": 3648}], "place_id": "ChIJc3AwNQIC0oURJfLYL0dqQWk", "plus_code": {"compound_code": "CRM3+7F Mexico City", "global_code": "76F2CRM3+7F"}, "rating": 5, "reference": "ChIJc3AwNQIC0oURJfLYL0dqQWk", "types": ["embassy", "point_of_interest", "establishment"], "user_ratings_total": 16}, {"business_status": "OPERATIONAL", "formatted_address": "Cuvier 22, Anzures, Miguel Hidalgo, 11590 Ciudad de M\u00e9xico, CDMX", "geometry": {"location": {"lat": 19.4327936, "lng": -99.1799743}, "viewport": {"northeast": {"lat": 19.43410997989272, "lng": -99.17861192010727}, "southwest": {"lat": 19.43141032010728, "lng": -99.18131157989272}}}, "icon": "https://maps.gstatic.com/mapfiles/place_api/icons/v1/png_71/civic_building-71.png", "name": "Embassy of the Czech Republic", "opening_hours": {"open_now": false}, "place_id": "ChIJrSasa6340YURYRs_A_3DV-U", "plus_code": {"compound_code": "CRMC+42 Mexico City", "global_code": "76F2CRMC+42"}, "rating": 2.7, "reference": "ChIJrSasa6340YURYRs_A_3DV-U", "types": ["embassy", "point_of_interest", "establishment"], "user_ratings_total": 21}, {"business_status": "OPERATIONAL", "formatted_address": "Secci\u00f3n Alameda, Av. Horacio 1506, Polanco, Polanco I Secc, Miguel Hidalgo, 11530 Ciudad de M\u00e9xico, CDMX", "geometry": {"location": {"lat": 19.4347024, "lng": -99.2051788}, "viewport": {"northeast": {"lat": 19.43615597989272, "lng": -99.20380887010728}, "southwest": {"lat": 19.43345632010728, "lng": -99.20650852989272}}}, "icon": "https://maps.gstatic.com/mapfiles/place_api/icons/v1/png_71/civic_building-71.png", "name": "Embassy of Germany", "photos": [{"height": 3024, "html_attributions": ["<a href=\"https://maps.google.com/maps/contrib/103874480096294211683\">Hugo Gerardo Far\u00edas Tovar</a>"], "photo_reference": "CmRaAAAATHc6O2t446JtP83Y8LbJ9tGM_hALTGS5Dqjx2m2k7aZgpadamSDuTHb5qpTz3t2FmqhajfmUQ4a4TKjJVyN7anUZeP8IBFgU4RprqBxNr--7usoW7aBd7dViNN-wmG7jEhB6KHgTt_aikdsD-rsO7ZbAGhQ8o1VuwCBbkIdfW3cAkxqI5bXnXA", "width": 4032}], "place_id": "ChIJk-wRExwC0oURdgMUw1zQmM8", "plus_code": {"compound_code": "CQMV+VW Mexico City", "global_code": "76F2CQMV+VW"}, "rating": 4.3, "reference": "ChIJk-wRExwC0oURdgMUw1zQmM8", "types": ["embassy", "point_of_interest", "establishment"], "user_ratings_total": 113}, {"business_status": "OPERATIONAL", "formatted_address": "Av. Paseo de la Reforma 505, Lomas - Virreyes, Lomas de Chapultepec, Miguel Hidalgo, 11000 Ciudad de M\u00e9xico, CDMX", "geometry": {"location": {"lat": 19.4250684, "lng": -99.2093448}, "viewport": {"northeast": {"lat": 19.42630747989272, "lng": -99.20796097010728}, "southwest": {"lat": 19.42360782010728, "lng": -99.21066062989273}}}, "icon": "https://maps.gstatic.com/mapfiles/place_api/icons/v1/png_71/civic_building-71.png", "name": "Embassy of the United Arab Emirates", "opening_hours": {"open_now": false}, "photos": [{"height": 3000, "html_attributions": ["<a href=\"https://maps.google.com/maps/contrib/118286610496170506827\">Mostafa karim</a>"], "photo_reference": "CmRaAAAAIlCQkrp7AXYsUA1WOaQDj4xIVFT876zsliBpWsvXa_NvT-vOH0Rb-CFGD_curUiNcNyCpJJ47GZ6tG9y4GP7-9_T68Z8fMoCBvZbZoNjTdcJN0n8hJc7RQY4p2j_VFk7EhD_BTUeiYJaX2Clile-JBWnGhSersieRrgEMuQB6mgp3tqjXvr-oQ", "width": 4512}], "place_id": "ChIJr6aqYfQB0oURN_AhhOb3-R8", "plus_code": {"compound_code": "CQGR+27 Mexico City", "global_code": "76F2CQGR+27"}, "rating": 3.4, "reference": "ChIJr6aqYfQB0oURN_AhhOb3-R8", "types": ["embassy", "point_of_interest", "establishment"], "user_ratings_total": 25}, {"business_status": "OPERATIONAL", "formatted_address": "Rub\u00e9n Dar\u00edo 55, Polanco, Polanco V Secc, Miguel Hidalgo, 11560 Ciudad de M\u00e9xico, CDMX", "geometry": {"location": {"lat": 19.4299428, "lng": -99.1833206}, "viewport": {"northeast": {"lat": 19.43111147989272, "lng": -99.18188332010729}, "southwest": {"lat": 19.42841182010728, "lng": -99.18458297989272}}}, "icon": "https://maps.gstatic.com/mapfiles/place_api/icons/v1/png_71/civic_building-71.png", "name": "Embassy of Australia", "opening_hours": {"open_now": false}, "photos": [{"height": 3840, "html_attributions": ["<a href=\"https://maps.google.com/maps/contrib/102873661990890994864\">BERNARDO FUENTES</a>"], "photo_reference": "CmRaAAAA1uTGWYpIf3qIhY-oZnOQ81p4crG9FEhcTqGAXgwfbqf-ylkXl4EEn7AjgKMbA78fC-uwU7qemB2QdQGGHnY-F_KLghOWxpxEJLujkfFqey931lidmIKa_mAeRR9WduhxEhBBqEc5hpgiQvVtMYMOV-b5GhRs0RzXGYPNmFpMD0-s_7g05KdGUw", "width": 2160}], "place_id": "ChIJd9-IQFP_0YURSMxpqgZQakk", "plus_code": {"compound_code": "CRH8+XM Mexico City", "global_code": "76F2CRH8+XM"}, "rating": 4, "reference": "ChIJd9-IQFP_0YURSMxpqgZQakk", "types": ["embassy", "point_of_interest", "establishment"], "user_ratings_total": 20}, {"business_status": "OPERATIONAL", "formatted_address": "Hegel 149, Polanco, Polanco V Secc, Miguel Hidalgo, 11560 Ciudad de M\u00e9xico, CDMX", "geometry": {"location": {"lat": 19.436171, "lng": -99.188143}, "viewport": {"northeast": {"lat": 19.43751942989272, "lng": -99.18672812010729}, "southwest": {"lat": 19.43481977010728, "lng": -99.18942777989272}}}, "icon": "https://maps.gstatic.com/mapfiles/place_api/icons/v1/png_71/civic_building-71.png", "name": "Embassy of Uruguay", "opening_hours": {"open_now": false}, "photos": [{"height": 4596, "html_attributions": ["<a href=\"https://maps.google.com/maps/contrib/111233746984936078654\">Claudio Daniel Caama\u00f1o</a>"], "photo_reference": "CmRaAAAAdv7fnFIGrpo5FHi5UvsmPQwvhzwDhsypUSNdocNW2mMjBaUWyBonLU8Na2qIFL8tkldDC0HszXAsXNg_yZ_YyL8z9b3JA3OxlTSu5RVB4cAB7XWPII8iwGjZAJhhHHqQEhAc3n1rd5WAGrqLwX6p4ruSGhQNpErHAjuFIdoawnvizxB1eBWZIw", "width": 3402}], "place_id": "ChIJdTNeL6r40YURCZufqlaB-8w", "plus_code": {"compound_code": "CRP6+FP Mexico City", "global_code": "76F2CRP6+FP"}, "rating": 4.3, "reference": "ChIJdTNeL6r40YURCZufqlaB-8w", "types": ["embassy", "point_of_interest", "establishment"], "user_ratings_total": 17}, {"business_status": "OPERATIONAL", "formatted_address": "Calle 3 Picos 43, Polanco, Polanco V Secc, Miguel Hidalgo, 11550 Ciudad de M\u00e9xico, CDMX", "geometry": {"location": {"lat": 19.4288883, "lng": -99.18836329999999}, "viewport": {"northeast": {"lat": 19.43016042989272, "lng": -99.18701757010727}, "southwest": {"lat": 19.42746077010728, "lng": -99.18971722989272}}}, "icon": "https://maps.gstatic.com/mapfiles/place_api/icons/v1/png_71/civic_building-71.png", "name": "Embassy of Denmark", "opening_hours": {"open_now": false}, "photos": [{"height": 3672, "html_attributions": ["<a href=\"https://maps.google.com/maps/contrib/103485957359236759995\">Alberto Lopez</a>"], "photo_reference": "CmRaAAAA4zfcp-CvZQvta69mqfdz9qbDbG5aSN7OUEN2oK_4vAOe1TVgbAh8zupzew_wvMRO7zdiDhgTB1yVirY8xqwW6AsLG-4fb-1VvX_llX8LxHXfpeNSlQv76MXlOM_CmZSQEhAqLBBeDbqWLHn9fBUUWYzXGhST1MOm8xbzjI7av0rTTrpbw2WWVg", "width": 4896}], "place_id": "ChIJdZydFFX_0YURpr7RLM90lWg", "plus_code": {"compound_code": "CRH6+HM Mexico City", "global_code": "76F2CRH6+HM"}, "rating": 4.2, "reference": "ChIJdZydFFX_0YURpr7RLM90lWg", "types": ["embassy", "point_of_interest", "establishment"], "user_ratings_total": 5}, {"business_status": "OPERATIONAL", "formatted_address": "Av. Homero 415, Polanco, Polanco V Secc, Miguel Hidalgo, 11560 Ciudad de M\u00e9xico, CDMX", "geometry": {"location": {"lat": 19.43569, "lng": -99.18786349999999}, "viewport": {"northeast": {"lat": 19.43697237989272, "lng": -99.18651752010727}, "southwest": {"lat": 19.43427272010728, "lng": -99.18921717989272}}}, "icon": "https://maps.gstatic.com/mapfiles/place_api/icons/v1/png_71/civic_building-71.png", "name": "Embassy of Paraguay", "opening_hours": {"open_now": false}, "place_id": "ChIJdX-BMKr40YURi8z372n1gmw", "plus_code": {"compound_code": "CRP6+7V Mexico City", "global_code": "76F2CRP6+7V"}, "rating": 4.6, "reference": "ChIJdX-BMKr40YURi8z372n1gmw", "types": ["embassy", "point_of_interest", "establishment"], "user_ratings_total": 7}]