[{"business_status": "OPERATIONAL", "formatted_address": "Pastores 12, Santa Isabel Industrial, Iztapalapa, 09820 Ciudad de M\u00e9xico, CDMX", "geometry": {"location": {"lat": 19.3536054, "lng": -99.1016514}, "viewport": {"northeast": {"lat": 19.35495567989272, "lng": -99.1003014201073}, "southwest": {"lat": 19.35225602010728, "lng": -99.10300107989273}}}, "icon": "https://maps.gstatic.com/mapfiles/place_api/icons/v1/png_71/generic_business-71.png", "name": "ABOGADOS", "place_id": "ChIJ4QSqHgj-0YURGmyNL2T2JQc", "plus_code": {"compound_code": "9V3X+C8 Mexico City", "global_code": "76F29V3X+C8"}, "rating": 0, "reference": "ChIJ4QSqHgj-0YURGmyNL2T2JQc", "types": ["lawyer", "point_of_interest", "establishment"], "user_ratings_total": 0}, {"business_status": "OPERATIONAL", "formatted_address": "entre los Reyes y Gral Anaya, Eje 8 Sur (Calz. Ermita Iztapalapa) 969, Iztapalapa, 09828 Ciudad de M\u00e9xico, CDMX", "geometry": {"location": {"lat": 19.3563807, "lng": -99.1006151}, "viewport": {"northeast": {"lat": 19.35770807989272, "lng": -99.09919367010728}, "southwest": {"lat": 19.35500842010727, "lng": -99.10189332989273}}}, "icon": "https://maps.gstatic.com/mapfiles/place_api/icons/v1/png_71/generic_business-71.png", "name": "ABOGADO", "opening_hours": {"open_now": false}, "place_id": "ChIJ6TvReuL90YURmYr_pCUSeiI", "plus_code": {"compound_code": "9V4X+HQ Mexico City", "global_code": "76F29V4X+HQ"}, "rating": 4, "reference": "ChIJ6TvReuL90YURmYr_pCUSeiI", "types": ["lawyer", "point_of_interest", "establishment"], "user_ratings_total": 1}, {"business_status": "OPERATIONAL", "formatted_address": "Ignacio Comonfort 202, San Lucas, Iztapalapa, 09000 Ciudad de M\u00e9xico, CDMX", "geometry": {"location": {"lat": 19.3601373, "lng": -99.09972549999999}, "viewport": {"northeast": {"lat": 19.36151857989272, "lng": -99.09836672010728}, "southwest": {"lat": 19.35881892010728, "lng": -99.10106637989273}}}, "icon": "https://maps.gstatic.com/mapfiles/place_api/icons/v1/png_71/generic_business-71.png", "name": "Bufete Ge & A Abogados", "place_id": "ChIJP8devuH90YURPMHNEzxl2dA", "plus_code": {"compound_code": "9W62+34 Mexico City", "global_code": "76F29W62+34"}, "rating": 0, "reference": "ChIJP8devuH90YURPMHNEzxl2dA", "types": ["lawyer", "point_of_interest", "establishment"], "user_ratings_total": 0}, {"business_status": "OPERATIONAL", "formatted_address": "Calle, Camino Cerro de la Estrella 4, San Pablo, Iztapalapa, 09000 Ciudad de M\u00e9xico", "geometry": {"location": {"lat": 19.3583684, "lng": -99.0899197}, "viewport": {"northeast": {"lat": 19.35975207989272, "lng": -99.08831392010727}, "southwest": {"lat": 19.35705242010728, "lng": -99.09101357989272}}}, "icon": "https://maps.gstatic.com/mapfiles/place_api/icons/v1/png_71/generic_business-71.png", "name": "Despacho de Abogados, Abogado en un Clic Asesor\u00eda Gratis", "opening_hours": {"open_now": false}, "photos": [{"height": 295, "html_attributions": ["<a href=\"https://maps.google.com/maps/contrib/111443399137940714353\">Despacho de Abogados, Abogado en un Clic Asesor\u00eda Gratis</a>"], "photo_reference": "CmRaAAAAshUekWsmRpyd0ePFgHiC6KUSO4TAeJwMhXN3-BI4BGoYc5FEZKtJwuFKrG1QoT3_-TG9M7UUW1m8Fve5Chv6ttpjsySxFuD3JGyHYqRkv4NWgfpLSTqbnmfJTVMcfD4qEhBo6HObSdNhJ0SwFtEdAUOkGhTITwIOV51TaEODm5MQYSFTV0TFNA", "width": 743}], "place_id": "ChIJmzc3Vu_90YURz97L0M-SWls", "plus_code": {"compound_code": "9W56+82 Mexico City", "global_code": "76F29W56+82"}, "rating": 4.3, "reference": "ChIJmzc3Vu_90YURz97L0M-SWls", "types": ["lawyer", "point_of_interest", "establishment"], "user_ratings_total": 10}, {"business_status": "OPERATIONAL", "formatted_address": "Entre Tezozomoc y Calle Cuauht\u00e9moc, Citlali Mz 31B Lt 9, Iztapalapa, 09820 Ciudad de M\u00e9xico, CDMX", "geometry": {"location": {"lat": 19.3465734, "lng": -99.0982318}, "viewport": {"northeast": {"lat": 19.34793467989272, "lng": -99.09691602010727}, "southwest": {"lat": 19.34523502010728, "lng": -99.09961567989272}}}, "icon": "https://maps.gstatic.com/mapfiles/place_api/icons/v1/png_71/generic_business-71.png", "name": "SERVICIOS JURIDICOS ESPECIALIZADOS", "place_id": "ChIJo_9vgf790YURvz3rVyBZlsM", "plus_code": {"compound_code": "8WW2+JP Mexico City", "global_code": "76F28WW2+JP"}, "rating": 5, "reference": "ChIJo_9vgf790YURvz3rVyBZlsM", "types": ["lawyer", "point_of_interest", "establishment"], "user_ratings_total": 1}, {"business_status": "OPERATIONAL", "formatted_address": "Ganaderos, Los Cipreses, Iztapalapa, 09810 Ciudad de M\u00e9xico, CDMX", "geometry": {"location": {"lat": 19.3495993, "lng": -99.1092323}, "viewport": {"northeast": {"lat": 19.35099247989272, "lng": -99.10788072010727}, "southwest": {"lat": 19.34829282010728, "lng": -99.11058037989272}}}, "icon": "https://maps.gstatic.com/mapfiles/place_api/icons/v1/png_71/generic_business-71.png", "name": "Asesor\u00eda Y Asistencia Legal Abogados", "place_id": "ChIJ5Qa9rgX-0YURKdIs_o9pxVY", "plus_code": {"compound_code": "8VXR+R8 Mexico City", "global_code": "76F28VXR+R8"}, "rating": 0, "reference": "ChIJ5Qa9rgX-0YURKdIs_o9pxVY", "types": ["lawyer", "point_of_interest", "establishment"], "user_ratings_total": 0}, {"business_status": "OPERATIONAL", "formatted_address": "5 de Mayo 17, La Asunci\u00f3n, Iztapalapa, 09000 Ciudad de M\u00e9xico, CDMX", "geometry": {"location": {"lat": 19.3612595, "lng": -99.0935056}, "viewport": {"northeast": {"lat": 19.36254962989272, "lng": -99.0921783201073}, "southwest": {"lat": 19.35984997010728, "lng": -99.09487797989273}}}, "icon": "https://maps.gstatic.com/mapfiles/place_api/icons/v1/png_71/generic_business-71.png", "name": "ABOGADOS", "opening_hours": {"open_now": false}, "place_id": "ChIJjTJG-ub90YURNlavOaX64Lc", "plus_code": {"compound_code": "9W64+GH Mexico City", "global_code": "76F29W64+GH"}, "rating": 0, "reference": "ChIJjTJG-ub90YURNlavOaX64Lc", "types": ["lawyer", "point_of_interest", "establishment"], "user_ratings_total": 0}, {"business_status": "OPERATIONAL", "formatted_address": "Ermita Iztapalapa 1129, San Lucas, Iztapalapa, 09000 Ciudad de M\u00e9xico, CDMX", "geometry": {"location": {"lat": 19.3570271, "lng": -99.0957871}, "viewport": {"northeast": {"lat": 19.35843967989272, "lng": -99.09445742010729}, "southwest": {"lat": 19.35574002010728, "lng": -99.09715707989274}}}, "icon": "https://maps.gstatic.com/mapfiles/place_api/icons/v1/png_71/generic_business-71.png", "name": "Morales Maguey Abogados, S.A. de C.V.", "opening_hours": {"open_now": false}, "place_id": "ChIJ26kJf-L90YURLwsfy8Edp2o", "plus_code": {"compound_code": "9W43+RM Mexico City", "global_code": "76F29W43+RM"}, "rating": 4.7, "reference": "ChIJ26kJf-L90YURLwsfy8Edp2o", "types": ["lawyer", "point_of_interest", "establishment"], "user_ratings_total": 12}, {"business_status": "OPERATIONAL", "formatted_address": "Ayuntamiento 60A, San Pablo, Iztapalapa, 09000 Ciudad de M\u00e9xico, CDMX", "geometry": {"location": {"lat": 19.358952, "lng": -99.091813}, "viewport": {"northeast": {"lat": 19.36030482989272, "lng": -99.09047397010727}, "southwest": {"lat": 19.35760517010728, "lng": -99.09317362989272}}}, "icon": "https://maps.gstatic.com/mapfiles/place_api/icons/v1/png_71/generic_business-71.png", "name": "Abogados B&M", "opening_hours": {"open_now": false}, "place_id": "ChIJcRO19Xb90YURF0yjcTkYPKU", "plus_code": {"compound_code": "9W55+H7 Mexico City", "global_code": "76F29W55+H7"}, "rating": 0, "reference": "ChIJcRO19Xb90YURF0yjcTkYPKU", "types": ["lawyer", "point_of_interest", "establishment"], "user_ratings_total": 0}, {"business_status": "OPERATIONAL", "formatted_address": "Tenexpa 1, Aculco, Iztapalapa, 09410 Ciudad de M\u00e9xico, CDMX", "geometry": {"location": {"lat": 19.3771683, "lng": -99.10220699999999}, "viewport": {"northeast": {"lat": 19.37856677989272, "lng": -99.10085157010728}, "southwest": {"lat": 19.37586712010728, "lng": -99.10355122989272}}}, "icon": "https://maps.gstatic.com/mapfiles/place_api/icons/v1/png_71/generic_business-71.png", "name": "Sigler Abogados", "opening_hours": {"open_now": true}, "place_id": "ChIJZ8MXEnj-0YURMNnoKWSBevo", "plus_code": {"compound_code": "9VGX+V4 Mexico City", "global_code": "76F29VGX+V4"}, "rating": 0, "reference": "ChIJZ8MXEnj-0YURMNnoKWSBevo", "types": ["lawyer", "point_of_interest", "establishment"], "user_ratings_total": 0}, {"business_status": "OPERATIONAL", "formatted_address": "5 de Mayo 203, San Ignacio, Iztapalapa, 09000 Ciudad de M\u00e9xico, CDMX", "geometry": {"location": {"lat": 19.362804, "lng": -99.0987002}, "viewport": {"northeast": {"lat": 19.36405362989272, "lng": -99.09738182010727}, "southwest": {"lat": 19.36135397010728, "lng": -99.10008147989272}}}, "icon": "https://maps.gstatic.com/mapfiles/place_api/icons/v1/png_71/generic_business-71.png", "name": "Consultor\u00eda Jur\u00eddica Olvera Abogados", "opening_hours": {"open_now": false}, "place_id": "ChIJxwnT9eD90YURoYy8WiSSfOg", "plus_code": {"compound_code": "9W72+4G Mexico City", "global_code": "76F29W72+4G"}, "rating": 3, "reference": "ChIJxwnT9eD90YURoYy8WiSSfOg", "types": ["lawyer", "point_of_interest", "establishment"], "user_ratings_total": 1}, {"business_status": "OPERATIONAL", "formatted_address": "Av. A\u00f1o de Ju\u00e1rez 275, Granjas San Antonio, Iztapalapa, 09070 Ciudad de M\u00e9xico, CDMX", "geometry": {"location": {"lat": 19.3664044, "lng": -99.1059092}, "viewport": {"northeast": {"lat": 19.36777842989272, "lng": -99.10463062010729}, "southwest": {"lat": 19.36507877010728, "lng": -99.10733027989272}}}, "icon": "https://maps.gstatic.com/mapfiles/place_api/icons/v1/png_71/generic_business-71.png", "name": "ABOGADO", "opening_hours": {"open_now": false}, "place_id": "ChIJ8XH_jnT-0YUR88SewG040Gc", "plus_code": {"compound_code": "9V8V+HJ Mexico City", "global_code": "76F29V8V+HJ"}, "rating": 0, "reference": "ChIJ8XH_jnT-0YUR88SewG040Gc", "types": ["lawyer", "point_of_interest", "establishment"], "user_ratings_total": 0}, {"business_status": "OPERATIONAL", "formatted_address": "Francisco Sarabia 37, Plan de Iguala, Iztapalapa, 16880 Ciudad de M\u00e9xico, CDMX", "geometry": {"location": {"lat": 19.3548053, "lng": -99.0863574}, "viewport": {"northeast": {"lat": 19.35615812989272, "lng": -99.08501357010726}, "southwest": {"lat": 19.35345847010728, "lng": -99.08771322989271}}}, "icon": "https://maps.gstatic.com/mapfiles/place_api/icons/v1/png_71/generic_business-71.png", "name": "Abogados M\u00e9xico Solutions", "place_id": "ChIJkRGwy7nj0YURxwgDf9I-Cbc", "plus_code": {"compound_code": "9W37+WF Mexico City", "global_code": "76F29W37+WF"}, "rating": 0, "reference": "ChIJkRGwy7nj0YURxwgDf9I-Cbc", "types": ["lawyer", "point_of_interest", "establishment"], "user_ratings_total": 0}, {"business_status": "OPERATIONAL", "formatted_address": "Av. Luis Hidalgo Monroy 489, San Miguel, Iztapalapa, 09360 Ciudad de M\u00e9xico, CDMX", "geometry": {"location": {"lat": 19.3540732, "lng": -99.07468879999999}, "viewport": {"northeast": {"lat": 19.35545917989272, "lng": -99.07333162010728}, "southwest": {"lat": 19.35275952010728, "lng": -99.07603127989273}}}, "icon": "https://maps.gstatic.com/mapfiles/place_api/icons/v1/png_71/generic_business-71.png", "name": "Abogados", "place_id": "ChIJiY9oCZL90YURh7_g4bSoCZ0", "plus_code": {"compound_code": "9W3G+J4 Mexico City", "global_code": "76F29W3G+J4"}, "rating": 0, "reference": "ChIJiY9oCZL90YURh7_g4bSoCZ0", "types": ["lawyer", "point_of_interest", "establishment"], "user_ratings_total": 0}, {"business_status": "OPERATIONAL", "formatted_address": "Av. Carlota Armero 536, Tula, Iztapalapa, 09800 Ciudad de M\u00e9xico, CDMX", "geometry": {"location": {"lat": 19.3359801, "lng": -99.11293560000001}, "viewport": {"northeast": {"lat": 19.33733012989272, "lng": -99.11158817010727}, "southwest": {"lat": 19.33463047010728, "lng": -99.11428782989272}}}, "icon": "https://maps.gstatic.com/mapfiles/place_api/icons/v1/png_71/generic_business-71.png", "name": "Abogados Asociados A&J", "opening_hours": {"open_now": false}, "photos": [{"height": 1200, "html_attributions": ["<a href=\"https://maps.google.com/maps/contrib/108080594077579215383\">A Google User</a>"], "photo_reference": "CmRaAAAAsZTCll8XaI4yuBrS2_fx2ITuicwNGNddjvfbeKWjtOvkynumBFa2iUoqE7cyBu1UNRGWOOW1m23FeP7QzZWJsSx3fQyl-R26tv_G6QGM855SCx2bu-jy9iOf7xD9Oz2eEhCiq35CnTMwWLNjzPUnf_WNGhRKiwMlaGvqNvN71xqZHT7XfMvYaA", "width": 1600}], "place_id": "ChIJT2hWcY8BzoURXD059bE8cbI", "plus_code": {"compound_code": "8VPP+9R Mexico City", "global_code": "76F28VPP+9R"}, "rating": 0, "reference": "ChIJT2hWcY8BzoURXD059bE8cbI", "types": ["lawyer", "point_of_interest", "establishment"], "user_ratings_total": 0}, {"business_status": "OPERATIONAL", "formatted_address": "Luis Francisco Breguet 21, Zona Urbana Ejidal San Andr\u00e9s Tomatlan, Iztapalapa, 09870 Ciudad de M\u00e9xico, CDMX", "geometry": {"location": {"lat": 19.3296, "lng": -99.1045262}, "viewport": {"northeast": {"lat": 19.33096407989272, "lng": -99.10322442010728}, "southwest": {"lat": 19.32826442010728, "lng": -99.10592407989273}}}, "icon": "https://maps.gstatic.com/mapfiles/place_api/icons/v1/png_71/generic_business-71.png", "name": "ABOGADOS", "opening_hours": {"open_now": false}, "place_id": "ChIJU0kpzvkBzoURAtikEcmPZgk", "plus_code": {"compound_code": "8VHW+R5 Mexico City", "global_code": "76F28VHW+R5"}, "rating": 0, "reference": "ChIJU0kpzvkBzoURAtikEcmPZgk", "types": ["lawyer", "point_of_interest", "establishment"], "user_ratings_total": 0}, {"business_status": "OPERATIONAL", "formatted_address": "Teniente Fausto Vega Santander 405, Escuadr\u00f3n 201, Iztapalapa, 09060 Ciudad de M\u00e9xico, CDMX", "geometry": {"location": {"lat": 19.36104, "lng": -99.112641}, "viewport": {"northeast": {"lat": 19.36240362989272, "lng": -99.11136837010729}, "southwest": {"lat": 19.35970397010728, "lng": -99.11406802989274}}}, "icon": "https://maps.gstatic.com/mapfiles/place_api/icons/v1/png_71/generic_business-71.png", "name": "Aje Abogados", "place_id": "ChIJ1zIAFMX_0YURE7YJBIXrEao", "plus_code": {"compound_code": "9V6P+CW Mexico City", "global_code": "76F29V6P+CW"}, "rating": 0, "reference": "ChIJ1zIAFMX_0YURE7YJBIXrEao", "types": ["lawyer", "point_of_interest", "establishment"], "user_ratings_total": 0}, {"business_status": "OPERATIONAL", "formatted_address": "Campamento 2 de Octubre, 08930 Mexico City, CDMX", "geometry": {"location": {"lat": 19.3823685, "lng": -99.1175392}, "viewport": {"northeast": {"lat": 19.38372472989272, "lng": -99.11623107010729}, "southwest": {"lat": 19.38102507010727, "lng": -99.11893072989272}}}, "icon": "https://maps.gstatic.com/mapfiles/place_api/icons/v1/png_71/generic_business-71.png", "name": "Abogado", "place_id": "ChIJHaW45mP-0YURnJgnyCFN5sE", "plus_code": {"compound_code": "9VJJ+WX Mexico City", "global_code": "76F29VJJ+WX"}, "rating": 1, "reference": "ChIJHaW45mP-0YURnJgnyCFN5sE", "types": ["lawyer", "point_of_interest", "establishment"], "user_ratings_total": 1}, {"business_status": "OPERATIONAL", "formatted_address": "Lic. David Pastrana James 1, Constituci\u00f3n de 1917, Iztapalapa, 09260 Ciudad de M\u00e9xico, CDMX", "geometry": {"location": {"lat": 19.346066, "lng": -99.06331899999999}, "viewport": {"northeast": {"lat": 19.34744622989273, "lng": -99.06199692010728}, "southwest": {"lat": 19.34474657010728, "lng": -99.06469657989271}}}, "icon": "https://maps.gstatic.com/mapfiles/place_api/icons/v1/png_71/generic_business-71.png", "name": "Abogados y Contadores en IZTAPALAPA", "opening_hours": {"open_now": true}, "place_id": "ChIJ87J90Ib90YURTJajpzjZ9JI", "plus_code": {"compound_code": "8WWP+CM Mexico City", "global_code": "76F28WWP+CM"}, "rating": 5, "reference": "ChIJ87J90Ib90YURTJajpzjZ9JI", "types": ["lawyer", "point_of_interest", "establishment"], "user_ratings_total": 2}, {"business_status": "OPERATIONAL", "formatted_address": "Calle Fausto Vega Santander, n\u00famero 721, colonia Escuadron 201, delegaci\u00f3n Iztapalapa, Distrito Federal, M\u00e9xico., 09060 CDMX", "geometry": {"location": {"lat": 19.3682297, "lng": -99.1111822}, "viewport": {"northeast": {"lat": 19.36958242989272, "lng": -99.10984607010728}, "southwest": {"lat": 19.36688277010727, "lng": -99.11254572989273}}}, "icon": "https://maps.gstatic.com/mapfiles/place_api/icons/v1/png_71/generic_business-71.png", "name": "Bufete Juridico PBT ABogados, Especialistas en Derecho Penal", "place_id": "ChIJhaDUanL-0YUR_lryUO_RXRU", "plus_code": {"compound_code": "9V9Q+7G Mexico City", "global_code": "76F29V9Q+7G"}, "rating": 0, "reference": "ChIJhaDUanL-0YUR_lryUO_RXRU", "types": ["lawyer", "finance", "point_of_interest", "establishment"], "user_ratings_total": 0}]