[{"business_status": "OPERATIONAL", "formatted_address": "Esquina Puente Titla, Mz-721, Lt-26, Cacama, Estrella del Sur, Iztapalapa, 09820 Ciudad de M\u00e9xico, CDMX", "geometry": {"location": {"lat": 19.3473213, "lng": -99.1018036}, "viewport": {"northeast": {"lat": 19.34868037989272, "lng": -99.10049207010728}, "southwest": {"lat": 19.34598072010728, "lng": -99.10319172989273}}}, "icon": "https://maps.gstatic.com/mapfiles/place_api/icons/v1/png_71/park-71.png", "name": "Parque", "opening_hours": {"open_now": true}, "photos": [{"height": 720, "html_attributions": ["<a href=\"https://maps.google.com/maps/contrib/113194594309422445091\">Noemi Morales</a>"], "photo_reference": "CmRaAAAAhSR44HSVdNV4Z6ugSE0P0yOhOiLQqrCQuzoXpuaFCNTfQ4ZhtBK1Si85RN67qGA8dY6n1PCfd4QQjaNAxKVIvmQMUg0Rf_PYwNpxs451e0CXYNy_fCFviOLEUOQBStYDEhDWEHEHc5HYsr8tNlLJyYU7GhRSNwIXwSpeQD2SobELMfSiNPu16A", "width": 1280}], "place_id": "ChIJhYvyUAf-0YURhIs3eInozt4", "plus_code": {"compound_code": "8VWX+W7 Mexico City", "global_code": "76F28VWX+W7"}, "rating": 3.7, "reference": "ChIJhYvyUAf-0YURhIs3eInozt4", "types": ["park", "point_of_interest", "establishment"], "user_ratings_total": 70}, {"business_status": "OPERATIONAL", "formatted_address": "Carretera Escenica al Cerro de la Estrella, Amp Veracruzana, 09856 Ciudad de M\u00e9xico", "geometry": {"location": {"lat": 19.3439269, "lng": -99.0914995}, "viewport": {"northeast": {"lat": 19.34517327989272, "lng": -99.09018807010727}, "southwest": {"lat": 19.34247362010728, "lng": -99.09288772989272}}}, "icon": "https://maps.gstatic.com/mapfiles/place_api/icons/v1/png_71/park-71.png", "name": "Cerro de la Estrella National Park", "opening_hours": {"open_now": true}, "photos": [{"height": 1836, "html_attributions": ["<a href=\"https://maps.google.com/maps/contrib/114872835343913214740\">Israel Dur\u00e1nM</a>"], "photo_reference": "CmRaAAAAKxwgiZtshaq5OiWDt_L4X3jqhC_eUSRwxrlSGvcwyz1DkXWpfNaJHVwgQK9dPLP8TRIdh8NNG7UDyOVThYuBo3UdnzFFezBYRXTeCKys0Q4nCJUIlIRtjpg0TkNRiT4BEhB_wmkPtr-hK2mvQqwoJq5jGhR9oSqSm31qgJZdD3OJ58UNXAwdkw", "width": 3264}], "place_id": "ChIJReq3x_n90YURox5y-FjNIRM", "plus_code": {"compound_code": "8WV5+HC Mexico City", "global_code": "76F28WV5+HC"}, "rating": 4.4, "reference": "ChIJReq3x_n90YURox5y-FjNIRM", "types": ["tourist_attraction", "park", "point_of_interest", "establishment"], "user_ratings_total": 7575}, {"business_status": "OPERATIONAL", "formatted_address": "Camino Al Cerro de La Estrella, Ermita Iztapalapa, El Molino Iztapalapa, 09000 Ciudad de M\u00e9xico", "geometry": {"location": {"lat": 19.354842, "lng": -99.0897519}, "viewport": {"northeast": {"lat": 19.3574472, "lng": -99.08810482010728}, "southwest": {"lat": 19.3539736, "lng": -99.09080447989272}}}, "icon": "https://maps.gstatic.com/mapfiles/place_api/icons/v1/png_71/park-71.png", "name": "Parque", "opening_hours": {"open_now": true}, "photos": [{"height": 3000, "html_attributions": ["<a href=\"https://maps.google.com/maps/contrib/108118418477420505218\">Omar Alarcon</a>"], "photo_reference": "CmRaAAAAab5QnpBn3VJY7Fi499MYlpguQtu2xx8kOLIjH6y41lXixn_Nbt5otW4xdpw0woV5bPTAa6e2-jn_LrBm9URcMDcYMFQfeOh9m4MWzccquxh_hhs9mByhmaPgu2Ig7VArEhCf1z7emGk9Nzo72LT-vwNkGhTd0hAVC2wUzSqsEKifZzV9fpZnDw", "width": 4000}], "place_id": "ChIJL3w4du_90YURSWrMAtV7bS0", "plus_code": {"compound_code": "9W36+W3 Mexico City", "global_code": "76F29W36+W3"}, "rating": 4.3, "reference": "ChIJL3w4du_90YURSWrMAtV7bS0", "types": ["park", "point_of_interest", "establishment"], "user_ratings_total": 469}, {"business_status": "OPERATIONAL", "formatted_address": "Camino a Los Reyes, Culhuacan, Iztapalapa, 09800 Ciudad de M\u00e9xico, CDMX", "geometry": {"location": {"lat": 19.3408762, "lng": -99.1062424}, "viewport": {"northeast": {"lat": 19.34226412989272, "lng": -99.10499237010728}, "southwest": {"lat": 19.33956447010727, "lng": -99.10769202989272}}}, "icon": "https://maps.gstatic.com/mapfiles/place_api/icons/v1/png_71/park-71.png", "name": "Parque", "opening_hours": {"open_now": true}, "photos": [{"height": 2448, "html_attributions": ["<a href=\"https://maps.google.com/maps/contrib/115183245190616001207\">Berenice Olvera</a>"], "photo_reference": "CmRaAAAA8IUcT_WN1x0H4dncOjEYW3nX19zqU7BiTXep9m4a_wmyjTw6uHIHGlsHTUKWcEZiZwKQHaSRUBemb6GOUxQWEp197v8owQ-rAOP-9C88KV2Y4iqOwSNc1h6iqvnIau8OEhAYS_Fi37DJp6GZbv_-p3QjGhTMtBw63xy8KY-rwwoO5i1MwAaadA", "width": 3264}], "place_id": "ChIJafdH-wH-0YURFRrHv_mAUOs", "plus_code": {"compound_code": "8VRV+9G Mexico City", "global_code": "76F28VRV+9G"}, "rating": 4, "reference": "ChIJafdH-wH-0YURFRrHv_mAUOs", "types": ["park", "point_of_interest", "establishment"], "user_ratings_total": 65}, {"business_status": "OPERATIONAL", "formatted_address": "Av. Arneses 88, Minerva, Iztapalapa, 09810 Ciudad de M\u00e9xico, CDMX", "geometry": {"location": {"lat": 19.3530407, "lng": -99.1106174}, "viewport": {"northeast": {"lat": 19.35438582989272, "lng": -99.10921312010727}, "southwest": {"lat": 19.35168617010728, "lng": -99.11191277989272}}}, "icon": "https://maps.gstatic.com/mapfiles/place_api/icons/v1/png_71/park-71.png", "name": "Arneses Park", "opening_hours": {"open_now": true}, "photos": [{"height": 3120, "html_attributions": ["<a href=\"https://maps.google.com/maps/contrib/112343032399093904012\">A Google User</a>"], "photo_reference": "CmRaAAAAcneJrT8niKXSmwsGCiQWjxfLAr8khl_BSQeHEqzC-2vMXWe27l4Di-mSGVka_sVJNCUD9z30pr7tjisnQlQQ5Uu4ClcyGMsazPMZkF5R5XZoSSjMnVglLfy4drfA38j-EhDxvYGYfcpvLHK15Z-UNrWJGhTIqCtJmtMB7eVOroAPtxEbTKeU6Q", "width": 4160}], "place_id": "ChIJNTtskQ_-0YURHiJjWurCQa8", "plus_code": {"compound_code": "9V3Q+6Q Mexico City", "global_code": "76F29V3Q+6Q"}, "rating": 4, "reference": "ChIJNTtskQ_-0YURHiJjWurCQa8", "types": ["park", "point_of_interest", "establishment"], "user_ratings_total": 738}, {"business_status": "OPERATIONAL", "formatted_address": "Unnamed Road, Granjas San Antonio, 09070 Ciudad de M\u00e9xico, CDMX", "geometry": {"location": {"lat": 19.3642231, "lng": -99.1069713}, "viewport": {"northeast": {"lat": 19.36557292989272, "lng": -99.10562147010727}, "southwest": {"lat": 19.36287327010728, "lng": -99.10832112989272}}}, "icon": "https://maps.gstatic.com/mapfiles/place_api/icons/v1/png_71/park-71.png", "name": "lineal camellon A\u00f1o de Juarez Park", "photos": [{"height": 3096, "html_attributions": ["<a href=\"https://maps.google.com/maps/contrib/111013637284572829580\">Ariadna Sanchez</a>"], "photo_reference": "CmRaAAAAB_XFpCjrIRZwr4xtqWEwHws6tH9mlZa6k9xJsKO9CXnsJnrhZclGNeCWAjfb4czm-mb6XvrF3u-0BO0NDAcQAvRNIN_165Lm_GVf1Cj0L5LGAxTx6IV9aBkQb6VFDQddEhAMd2Uxheakknp3Fm3qClXFGhS5sijs2QdyplrwdhA2xImoOw10Iw", "width": 4128}], "place_id": "ChIJyc2hVXP-0YUR3LqyiltacMg", "plus_code": {"compound_code": "9V7V+M6 Mexico City", "global_code": "76F29V7V+M6"}, "rating": 4.5, "reference": "ChIJyc2hVXP-0YUR3LqyiltacMg", "types": ["park", "point_of_interest", "establishment"], "user_ratings_total": 2}, {"business_status": "OPERATIONAL", "formatted_address": "Escuadr\u00f3n 201, Iztapalapa, 09060 Mexico City", "geometry": {"location": {"lat": 19.3667121, "lng": -99.1094584}, "viewport": {"northeast": {"lat": 19.36812597989272, "lng": -99.10810172010726}, "southwest": {"lat": 19.36542632010728, "lng": -99.1108013798927}}}, "icon": "https://maps.gstatic.com/mapfiles/place_api/icons/v1/png_71/park-71.png", "name": "Ignacio Zaragoza Park", "opening_hours": {"open_now": true}, "photos": [{"height": 3096, "html_attributions": ["<a href=\"https://maps.google.com/maps/contrib/103234954754457919194\">Uriel Esc.</a>"], "photo_reference": "CmRaAAAAXbun5s6nKt7sL6w8TlzLhN1VXQlWXaOLowSNoaGortlFhe2SWqdeeSljQ6h59H-f95c8x4_Hk_w5JZwYerKA4AQVhIgf9emt5n1A-xr_SkmyUPOOj3itRKy7eYKn_N-cEhDvXPs8vIoY4iJmMctL6V5xGhR0-qEgXul7ZTvGtekgF4FF8IZmhQ", "width": 4128}], "place_id": "ChIJcV33AHP-0YURLE9FivJpvdA", "plus_code": {"compound_code": "9V8R+M6 Mexico City", "global_code": "76F29V8R+M6"}, "rating": 3, "reference": "ChIJcV33AHP-0YURLE9FivJpvdA", "types": ["park", "point_of_interest", "establishment"], "user_ratings_total": 8}, {"business_status": "OPERATIONAL", "formatted_address": "Paseo de los Nogales 105, Paseos de Taxque\u00f1a, Coyoac\u00e1n, 04250 Ciudad de M\u00e9xico, CDMX", "geometry": {"location": {"lat": 19.347912, "lng": -99.12335829999999}, "viewport": {"northeast": {"lat": 19.34895272989272, "lng": -99.12202077010727}, "southwest": {"lat": 19.34625307010728, "lng": -99.12472042989272}}}, "icon": "https://maps.gstatic.com/mapfiles/place_api/icons/v1/png_71/park-71.png", "name": "Parque de las Monta\u00f1as", "opening_hours": {"open_now": true}, "photos": [{"height": 720, "html_attributions": ["<a href=\"https://maps.google.com/maps/contrib/115954943539793417478\">Andre Llamas</a>"], "photo_reference": "CmRaAAAAVV5uIMlPQ1x9vyObK2ZLC0aW6bbi-Hlux7c6lKECfEfkf6zZH8LHYz-2BtG2u-bti6CZ0hFIlbWQ101pIegRWga4psMH3aw-siIQl8E7Vlt34Lj0GFHdvbRnLJiPnm08EhD027Q44EW69kyqJ0ufQyPwGhQvCGjWFxTZcTKRaZUyde3DA9qlgQ", "width": 1280}], "place_id": "ChIJ-R8Kgxj-0YURB0z6PihjzC0", "plus_code": {"compound_code": "8VXG+5M Mexico City", "global_code": "76F28VXG+5M"}, "rating": 4.3, "reference": "ChIJ-R8Kgxj-0YURB0z6PihjzC0", "types": ["park", "tourist_attraction", "point_of_interest", "establishment"], "user_ratings_total": 1955}, {"business_status": "OPERATIONAL", "formatted_address": "Paseos de Taxque\u00f1a, Coyoac\u00e1n, 04250 Mexico City", "geometry": {"location": {"lat": 19.3437087, "lng": -99.1242729}, "viewport": {"northeast": {"lat": 19.34505852989273, "lng": -99.12292307010729}, "southwest": {"lat": 19.34235887010728, "lng": -99.12562272989273}}}, "icon": "https://maps.gstatic.com/mapfiles/place_api/icons/v1/png_71/park-71.png", "name": "Naciones Unidas Park", "opening_hours": {"open_now": true}, "photos": [{"height": 4032, "html_attributions": ["<a href=\"https://maps.google.com/maps/contrib/113580623693182583873\">Juan Colmenares</a>"], "photo_reference": "CmRaAAAALWWvkqLG1MHhyPicd59R4MkEgGGwp3nIp_61ah07DX-G6eqKMdwgnOmUtmiiBu1lF8MWo9sXx_-XseRxANsU5Fu5CR6FLLgwj9OgugNy5qoeBz6SRTs_HbsEmeMBTw5sEhDu6Vb1c8PmnYIImEHFL4jeGhQZVCbP-JWKBlAiwv-Ckb6p5AzG3w", "width": 3024}], "place_id": "ChIJxWFpwyH-0YURimnt_rSofJY", "plus_code": {"compound_code": "8VVG+F7 Mexico City", "global_code": "76F28VVG+F7"}, "rating": 4.3, "reference": "ChIJxWFpwyH-0YURimnt_rSofJY", "types": ["park", "tourist_attraction", "point_of_interest", "establishment"], "user_ratings_total": 430}, {"business_status": "OPERATIONAL", "formatted_address": "1a. Cerrada Gavil\u00e1n Entre Faisan y Quintero, San Miguel, Iztapalapa, 09360 Ciudad de M\u00e9xico, CDMX", "geometry": {"location": {"lat": 19.3564561, "lng": -99.0744818}, "viewport": {"northeast": {"lat": 19.35780592989272, "lng": -99.07313197010728}, "southwest": {"lat": 19.35510627010728, "lng": -99.07583162989272}}}, "icon": "https://maps.gstatic.com/mapfiles/place_api/icons/v1/png_71/park-71.png", "name": "Fais\u00e1n Park", "opening_hours": {"open_now": true}, "photos": [{"height": 3456, "html_attributions": ["<a href=\"https://maps.google.com/maps/contrib/103171533072271397123\">Emma Cervantes</a>"], "photo_reference": "CmRaAAAAnrcVGHpHCYIyVYBBLsKUunDThdwly9Ep-006ShAvCaA2TDNiBB1DvDk2Wcxo0C-cVSyGNePMNcfa1-uuq89saaVEmuOSqXSfWQ75cSk-WRwZq91Q-FCDmaLd9xIS2myGEhBLL4rxgk9kpGOuhM4HVz6MGhQxMAULpi9dSeCKmQhMXsk7o7i5rQ", "width": 4608}], "place_id": "ChIJuRFcOpL90YURJUPkqjtqbeU", "plus_code": {"compound_code": "9W4G+H6 Mexico City", "global_code": "76F29W4G+H6"}, "rating": 3.9, "reference": "ChIJuRFcOpL90YURJUPkqjtqbeU", "types": ["park", "point_of_interest", "establishment"], "user_ratings_total": 553}, {"business_status": "OPERATIONAL", "formatted_address": "Cenit s/n, Valle de Luces 1ra Secc, Iztapalapa, 09800 Ciudad de M\u00e9xico, CDMX", "geometry": {"location": {"lat": 19.3405608, "lng": -99.0998881}, "viewport": {"northeast": {"lat": 19.34194347989272, "lng": -99.0986508201073}, "southwest": {"lat": 19.33924382010728, "lng": -99.10135047989274}}}, "icon": "https://maps.gstatic.com/mapfiles/place_api/icons/v1/png_71/park-71.png", "name": "Valle de luces culhuacan park", "opening_hours": {"open_now": true}, "photos": [{"height": 3456, "html_attributions": ["<a href=\"https://maps.google.com/maps/contrib/116709292641774065526\">Josu\u00e9 Vivanco</a>"], "photo_reference": "CmRaAAAAeixoD7MprqYJGVh7CNiPs9K574YGcoxWcI0tHe69jcH6m6tnRaPpxc55DSBjJwt_qJ_-fJAfYnQl48DJh8h8IiPZ2ddSu-4nylpYsY-O1w29TlvDi-t_a564QAJ0SwfrEhDJHmgPZfLcL-UxN6Dgxh2jGhTnVQwXnZU0gAWtkeB9LFkHjABSQw", "width": 4608}], "place_id": "ChIJWxXnCgACzoUR8wp0829hmLM", "plus_code": {"compound_code": "8WR2+62 Mexico City", "global_code": "76F28WR2+62"}, "rating": 3.8, "reference": "ChIJWxXnCgACzoUR8wp0829hmLM", "types": ["park", "point_of_interest", "establishment"], "user_ratings_total": 206}, {"business_status": "OPERATIONAL", "formatted_address": "Gavil\u00e1n, Esquina Rojo Gomez, San Miguel, Iztapalapa, 09360 Ciudad de M\u00e9xico, CDMX", "geometry": {"location": {"lat": 19.3638485, "lng": -99.0829419}, "viewport": {"northeast": {"lat": 19.36519832989272, "lng": -99.08159207010729}, "southwest": {"lat": 19.36249867010727, "lng": -99.08429172989274}}}, "icon": "https://maps.gstatic.com/mapfiles/place_api/icons/v1/png_71/park-71.png", "name": "Gavilan Park", "opening_hours": {}, "photos": [{"height": 4160, "html_attributions": ["<a href=\"https://maps.google.com/maps/contrib/104083243728760947721\">A Google User</a>"], "photo_reference": "CmRaAAAAzTpr7--cMhCKpS9MSj_p-xPfdBueQ0vEr-jbdXjL0wD3JPQJ7iKkA6I372PswrAOonSuXKS6sg4NRlAo5Iwb-AVUcdx01bo1a2iQ6NEd9q6oYzEX0nQt8BTTOzM2RxM_EhChPBF7kyjjafh06lnwqKDfGhT4qiEpP-yciyL-FVAU6RdXD9Zv0A", "width": 3120}], "place_id": "ChIJFfDUaer90YURaHMhjZ1nSNc", "plus_code": {"compound_code": "9W78+GR Mexico City", "global_code": "76F29W78+GR"}, "rating": 3.7, "reference": "ChIJFfDUaer90YURaHMhjZ1nSNc", "types": ["park", "point_of_interest", "establishment"], "user_ratings_total": 127}, {"business_status": "OPERATIONAL", "formatted_address": "Corredores Esq, Country Club Churubusco, Coyoac\u00e1n, 04220 Ciudad de M\u00e9xico, CDMX", "geometry": {"location": {"lat": 19.3524417, "lng": -99.14218609999999}, "viewport": {"northeast": {"lat": 19.35378307989272, "lng": -99.14087172010727}, "southwest": {"lat": 19.35108342010728, "lng": -99.14357137989272}}}, "icon": "https://maps.gstatic.com/mapfiles/place_api/icons/v1/png_71/park-71.png", "name": "PARQUE MASAYOSHI OHIRA", "opening_hours": {"open_now": true}, "photos": [{"height": 4160, "html_attributions": ["<a href=\"https://maps.google.com/maps/contrib/102614355171792110308\">Gerardo Antonio L\u00f3pez Camponuevo</a>"], "photo_reference": "CmRaAAAAkHxRbkJOTMf88iOENjOS0cbZvO5rabNV1XOFfGZyp25ioEMYd91SQF0mPX97vfibXThmNpgLXMrF-ZhCmwoBjxHl_UikQchApwiHmYcRhYWILOr5Hrxb7jnZOY-WbtM4EhDeH0Ra_1XL1tAv7XYt8KHzGhQDDpOaWfuhJARTpBPH4ezqafu5fA", "width": 3120}], "place_id": "ChIJGfSjXjL-0YURp14nFKJ3zCM", "plus_code": {"compound_code": "9V25+X4 Mexico City", "global_code": "76F29V25+X4"}, "rating": 4.3, "reference": "ChIJGfSjXjL-0YURp14nFKJ3zCM", "types": ["park", "tourist_attraction", "point_of_interest", "establishment"], "user_ratings_total": 12547}, {"business_status": "OPERATIONAL", "formatted_address": "Parque Nacional Cerro de la Estrella, Iztapalapa, Mexico City", "geometry": {"location": {"lat": 19.3342332, "lng": -99.09859700000001}, "viewport": {"northeast": {"lat": 19.33551017989272, "lng": -99.09725812010728}, "southwest": {"lat": 19.33281052010728, "lng": -99.09995777989272}}}, "icon": "https://maps.gstatic.com/mapfiles/place_api/icons/v1/png_71/park-71.png", "name": "Jorge Pulman Park", "place_id": "ChIJk9xhhoMDzoURfyw8draK0rM", "plus_code": {"compound_code": "8WM2+MH Mexico City", "global_code": "76F28WM2+MH"}, "rating": 4, "reference": "ChIJk9xhhoMDzoURfyw8draK0rM", "types": ["park", "point_of_interest", "establishment"], "user_ratings_total": 2}, {"business_status": "OPERATIONAL", "formatted_address": "Bandera 14, Zona Urbana Ejidal San Andr\u00e9s Tomatlan, Iztapalapa, 09870 Ciudad de M\u00e9xico, CDMX", "geometry": {"location": {"lat": 19.3292898, "lng": -99.1033466}, "viewport": {"northeast": {"lat": 19.33062177989272, "lng": -99.10200342010728}, "southwest": {"lat": 19.32792212010728, "lng": -99.10470307989273}}}, "icon": "https://maps.gstatic.com/mapfiles/place_api/icons/v1/png_71/park-71.png", "name": "Parque", "opening_hours": {"open_now": true}, "photos": [{"height": 2204, "html_attributions": ["<a href=\"https://maps.google.com/maps/contrib/114712416984871089622\">Javier Montes Nolasco</a>"], "photo_reference": "CmRaAAAAu3vbjpa9nUDJDe2RUeUJTo-OJ9tujmKVwMXNZQnn5WEhokvxLCDH1UY4O9SItlF8ehFqfZnRN7iNhuemkT8eyEHHaxt1fohwBvGkCDKphb4QlcV8BxfRPdJ4h89oyDQfEhCUTkJXsfwWNRvbayvalc9BGhTTDR2oJ6NnbnepTFqCI7iH1wJWsg", "width": 3920}], "place_id": "ChIJ94bpJfgBzoURIhdlEVwgZEU", "plus_code": {"compound_code": "8VHW+PM Mexico City", "global_code": "76F28VHW+PM"}, "rating": 4.5, "reference": "ChIJ94bpJfgBzoURIhdlEVwgZEU", "types": ["park", "point_of_interest", "establishment"], "user_ratings_total": 13}, {"business_status": "OPERATIONAL", "formatted_address": "Canal Nacional, Prado Churubusco, Coyoac\u00e1n, 04230 Ciudad de M\u00e9xico, CDMX", "geometry": {"location": {"lat": 19.351353, "lng": -99.126437}, "viewport": {"northeast": {"lat": 19.35242517989272, "lng": -99.12522917010727}, "southwest": {"lat": 19.34972552010728, "lng": -99.12792882989272}}}, "icon": "https://maps.gstatic.com/mapfiles/place_api/icons/v1/png_71/park-71.png", "name": "patos Park", "opening_hours": {"open_now": true}, "photos": [{"height": 2736, "html_attributions": ["<a href=\"https://maps.google.com/maps/contrib/108146089463956171504\">Cesar Escorsia</a>"], "photo_reference": "CmRaAAAAvgFbioobz710JwdjcZ8MajWPDIOjmzD2M6qhWNVY_9rtrASIE3VabOFL1MVagInpegAkO9lU0z5w_LH3GZHwxYtlvIXTvQZY-id_nmUvh4FmyRD7E25UuxvdbCUdmE1oEhB5ILZm6Pi6vEixIM6be5O1GhRjpQ70_55t4ex3N8GKLYtUq94BvQ", "width": 3648}], "place_id": "ChIJnYJwyRX_0YURDgqm_KpGfuY", "plus_code": {"compound_code": "9V2F+GC Mexico City", "global_code": "76F29V2F+GC"}, "rating": 4.4, "reference": "ChIJnYJwyRX_0YURDgqm_KpGfuY", "types": ["park", "point_of_interest", "establishment"], "user_ratings_total": 546}, {"business_status": "OPERATIONAL", "formatted_address": "Hermanos Lumiere 19, Fuego Nuevo, Iztapalapa, Ciudad de M\u00e9xico, CDMX", "geometry": {"location": {"lat": 19.3304554, "lng": -99.093453}, "viewport": {"northeast": {"lat": 19.33181772989272, "lng": -99.09216312010729}, "southwest": {"lat": 19.32911807010728, "lng": -99.09486277989272}}}, "icon": "https://maps.gstatic.com/mapfiles/place_api/icons/v1/png_71/park-71.png", "name": "Luis Echeverria Park", "opening_hours": {"open_now": true}, "photos": [{"height": 2250, "html_attributions": ["<a href=\"https://maps.google.com/maps/contrib/115032005518070643636\">Francisco Javier Gutierrez Casanova</a>"], "photo_reference": "CmRaAAAAlDEx0LAxkZGCwTjyEf-vBWq9kw0CBQ-ZmjZd-TLnucde5Z6fUj7JuXJ4Zb9lvFUl_4MwQNFQ-eSM14JS9SMtP2CtjjOUSJ7eKKQjXk96hNitXXk5RBajIK_WU0hsACxyEhALof5zvX5yQ2nid-vhgDlIGhRj2sZfiWaHLuLUl7aCHgN4uuVbuw", "width": 4000}], "place_id": "ChIJ_dIJ3AQCzoURv6gqprA6DZo", "plus_code": {"compound_code": "8WJ4+5J Mexico City", "global_code": "76F28WJ4+5J"}, "rating": 3.9, "reference": "ChIJ_dIJ3AQCzoURv6gqprA6DZo", "types": ["park", "point_of_interest", "establishment"], "user_ratings_total": 166}, {"business_status": "OPERATIONAL", "formatted_address": "Esq. Osa Mayor, Escorpio, Prado Churubusco, 04230 Ciudad de M\u00e9xico, CDMX", "geometry": {"location": {"lat": 19.3557061, "lng": -99.12954739999999}, "viewport": {"northeast": {"lat": 19.35692862989272, "lng": -99.12814387010727}, "southwest": {"lat": 19.35422897010728, "lng": -99.13084352989272}}}, "icon": "https://maps.gstatic.com/mapfiles/place_api/icons/v1/png_71/park-71.png", "name": "Popular Park", "opening_hours": {"open_now": true}, "photos": [{"height": 1836, "html_attributions": ["<a href=\"https://maps.google.com/maps/contrib/102033018991537105243\">Teresa Atristain</a>"], "photo_reference": "CmRaAAAAvRpF_b84ivI1jgs9428TB6L1yqXpfSW4uZ7nmiT8DpK4zFJZ5PBvdWmPqQRPAYNIDl5LS5TDYCrZgu5i4EidjLu3FvVX7bGSPTHjc_oQxFK2GC80kUh_RMvQHL1E3e0iEhCdInn2Zgt2rXTJlM5BSuSUGhTbWpsFkO-FtnVBS4mO29DuAD1Vow", "width": 3264}], "place_id": "ChIJDww08zv-0YUROj_xVPZg3CQ", "plus_code": {"compound_code": "9V4C+75 Mexico City", "global_code": "76F29V4C+75"}, "rating": 3.9, "reference": "ChIJDww08zv-0YUROj_xVPZg3CQ", "types": ["park", "point_of_interest", "establishment"], "user_ratings_total": 175}, {"business_status": "OPERATIONAL", "formatted_address": "Prado Churubusco, Coyoac\u00e1n, 04230 Mexico City", "geometry": {"location": {"lat": 19.3514762, "lng": -99.124223}, "viewport": {"northeast": {"lat": 19.35281872989273, "lng": -99.12265437010728}, "southwest": {"lat": 19.35011907010728, "lng": -99.12535402989273}}}, "icon": "https://maps.gstatic.com/mapfiles/place_api/icons/v1/png_71/park-71.png", "name": "Parque", "opening_hours": {}, "photos": [{"height": 3456, "html_attributions": ["<a href=\"https://maps.google.com/maps/contrib/100070454318836134504\">Ricardo Fernando Mora Rodr\u00edguez</a>"], "photo_reference": "CmRaAAAA5RgbtLe5A0Vjchpg0hqxYbrMvlZnODh7trag_TU-RB2xSctIHb8JE3yNUlEv9bTBYIW14QxnGwvHTMKE2YCNdDxrOZ9W-n6ImhvVi8Ie80JsJBHNyavIhkTsWuIONkXuEhBTlqLZcGyKB5Pw3pdsDtzVGhTlm0PILbVpYBWjjBgHIgfbm6oLsQ", "width": 4608}], "place_id": "ChIJCZYRYy__0YURVC6mi-FNHkU", "plus_code": {"compound_code": "9V2G+H8 Mexico City", "global_code": "76F29V2G+H8"}, "rating": 4.4, "reference": "ChIJCZYRYy__0YURVC6mi-FNHkU", "types": ["park", "point_of_interest", "establishment"], "user_ratings_total": 126}, {"business_status": "OPERATIONAL", "formatted_address": "Ejido Santa Barbara, Ex-Ejido de San Francisco Culhuacan, Coyoac\u00e1n, 04470 Ciudad de M\u00e9xico, CDMX", "geometry": {"location": {"lat": 19.3344898, "lng": -99.1267737}, "viewport": {"northeast": {"lat": 19.33582087989272, "lng": -99.12522287010728}, "southwest": {"lat": 19.33312122010728, "lng": -99.12792252989271}}}, "icon": "https://maps.gstatic.com/mapfiles/place_api/icons/v1/png_71/park-71.png", "name": "Ejidos Park", "opening_hours": {}, "photos": [{"height": 2448, "html_attributions": ["<a href=\"https://maps.google.com/maps/contrib/100105058159465103090\">La Voz en tu Ciudad Informando para t\u00ed.</a>"], "photo_reference": "CmRaAAAAh9Q2jC7c6K6A8PbupFLZQuCjGk_j53hXXzvRMJINmdYMi268CyIsnIjNvGOuX7Kvo3Oxbho3uPoL0qkphV3hdwQEW68DOuRDPg8VrKkSEKzoXxVyIq3zPfVQ0-BAqh6mEhBNPIP21wFtOj9zosd3MLz0GhRooB4-nPtlNEDoU5cq3CN3RjduRw", "width": 3264}], "place_id": "ChIJ-dCqj94BzoUR7ViZ4j6_4iY", "plus_code": {"compound_code": "8VMF+Q7 Mexico City", "global_code": "76F28VMF+Q7"}, "rating": 4.3, "reference": "ChIJ-dCqj94BzoUR7ViZ4j6_4iY", "types": ["park", "point_of_interest", "establishment"], "user_ratings_total": 134}]