[{"business_status": "OPERATIONAL", "geometry": {"location": {"lat": 19.3490297, "lng": -99.1008615}, "viewport": {"northeast": {"lat": 19.3503651302915, "lng": -99.09947971970848}, "southwest": {"lat": 19.34766716970849, "lng": -99.1021776802915}}}, "icon": "https://maps.gstatic.com/mapfiles/place_api/icons/v1/png_71/pharmacy-71.png", "name": "FARMACIA IDEAL", "opening_hours": {"open_now": true}, "place_id": "ChIJmU-Yhf390YURihTPPW2M5kk", "plus_code": {"compound_code": "8VXX+JM Mexico City, CDMX, Mexico", "global_code": "76F28VXX+JM"}, "reference": "ChIJmU-Yhf390YURihTPPW2M5kk", "scope": "GOOGLE", "types": ["pharmacy", "health", "point_of_interest", "store", "establishment"], "vicinity": "Mz 32 Lt 2, Netzahualpilli, Estrella del Sur, Ciudad de M\u00e9xico"}, {"business_status": "OPERATIONAL", "geometry": {"location": {"lat": 19.3534471, "lng": -99.0994803}, "viewport": {"northeast": {"lat": 19.3547838302915, "lng": -99.09809996970849}, "southwest": {"lat": 19.3520858697085, "lng": -99.10079793029149}}}, "icon": "https://maps.gstatic.com/mapfiles/place_api/icons/v1/png_71/pharmacy-71.png", "name": "Estrella", "place_id": "ChIJCaZAz-L90YURMTJnwTtVD0o", "plus_code": {"compound_code": "9W32+96 Mexico City, CDMX, Mexico", "global_code": "76F29W32+96"}, "reference": "ChIJCaZAz-L90YURMTJnwTtVD0o", "scope": "GOOGLE", "types": ["pharmacy", "health", "point_of_interest", "store", "establishment"], "vicinity": "Puentetitla 65, Ampliaci\u00f3n Ricardo Flores Mag\u00f3n, Ciudad de M\u00e9xico"}, {"business_status": "OPERATIONAL", "geometry": {"location": {"lat": 19.3542046, "lng": -99.10456219999999}, "viewport": {"northeast": {"lat": 19.3556094302915, "lng": -99.10320301970849}, "southwest": {"lat": 19.35291146970849, "lng": -99.1059009802915}}}, "icon": "https://maps.gstatic.com/mapfiles/place_api/icons/v1/png_71/pharmacy-71.png", "name": "Ideal S.A. de C.V.", "place_id": "ChIJ9xC98Qj-0YURopYjyKeyIUs", "plus_code": {"compound_code": "9V3W+M5 Mexico City, CDMX, Mexico", "global_code": "76F29V3W+M5"}, "reference": "ChIJ9xC98Qj-0YURopYjyKeyIUs", "scope": "GOOGLE", "types": ["pharmacy", "health", "point_of_interest", "store", "establishment"], "vicinity": "Pastores 39, Santa Isabel Industrial, Ciudad de M\u00e9xico"}, {"business_status": "OPERATIONAL", "geometry": {"location": {"lat": 19.347457, "lng": -99.10335900000001}, "viewport": {"northeast": {"lat": 19.3488138302915, "lng": -99.1020424697085}, "southwest": {"lat": 19.34611586970849, "lng": -99.1047404302915}}}, "icon": "https://maps.gstatic.com/mapfiles/place_api/icons/v1/png_71/pharmacy-71.png", "name": "Farmcia el Angel", "opening_hours": {"open_now": true}, "place_id": "ChIJ6RHSOgf-0YURdPeB80-rlyE", "plus_code": {"compound_code": "8VWW+XM Mexico City, CDMX, Mexico", "global_code": "76F28VWW+XM"}, "rating": 5, "reference": "ChIJ6RHSOgf-0YURdPeB80-rlyE", "scope": "GOOGLE", "types": ["pharmacy", "health", "point_of_interest", "store", "establishment"], "user_ratings_total": 1, "vicinity": "Axayacatl MZ 21 Lt 3, Los Reyes Culhuacan, Iztapalapa"}, {"business_status": "OPERATIONAL", "geometry": {"location": {"lat": 19.3521674, "lng": -99.10274319999999}, "viewport": {"northeast": {"lat": 19.3535485802915, "lng": -99.10149936970849}, "southwest": {"lat": 19.3508506197085, "lng": -99.10419733029151}}}, "icon": "https://maps.gstatic.com/mapfiles/place_api/icons/v1/png_71/pharmacy-71.png", "name": "Laboratorios Novag", "place_id": "ChIJt6kf3gf-0YURaOD8Ta5mLNg", "plus_code": {"compound_code": "9V2W+VW Mexico City, CDMX, Mexico", "global_code": "76F29V2W+VW"}, "reference": "ChIJt6kf3gf-0YURaOD8Ta5mLNg", "scope": "GOOGLE", "types": ["pharmacy", "health", "point_of_interest", "store", "establishment"], "vicinity": "cam, Camino Antiguo a Culhuacan 120, Estrella del Sur, Ciudad de M\u00e9xico"}, {"business_status": "OPERATIONAL", "geometry": {"location": {"lat": 19.3552893, "lng": -99.10108249999999}, "viewport": {"northeast": {"lat": 19.3566823802915, "lng": -99.09975826970849}, "southwest": {"lat": 19.3539844197085, "lng": -99.1024562302915}}}, "icon": "https://maps.gstatic.com/mapfiles/place_api/icons/v1/png_71/pharmacy-71.png", "name": "Farmacia Atlalilco", "opening_hours": {"open_now": true}, "photos": [{"height": 1200, "html_attributions": ["<a href=\"https://maps.google.com/maps/contrib/111534301029333543817\">Farmacia Atlalilco</a>"], "photo_reference": "CmRaAAAALcydVs7WJr5qNFXf-Bfh8gIMKfvo2JWgbu8MXtcehwPhz3F6A-33wJHarpRV5JcpJvUrC2OiAK2hibzTeaDj08bYM_6n0_FlDJUoAOoKkpIiCx94N23gnzG7NcQvM64UEhBeB_Oodukyh0hBkC-HbPZQGhRWLErR0h316Boa3n62VAS36lhS4w", "width": 1600}], "place_id": "ChIJ2YjJgOL90YURal9gZwtqhyw", "plus_code": {"compound_code": "9V4X+4H Mexico City, CDMX, Mexico", "global_code": "76F29V4X+4H"}, "reference": "ChIJ2YjJgOL90YURal9gZwtqhyw", "scope": "GOOGLE", "types": ["pharmacy", "health", "point_of_interest", "store", "establishment"], "vicinity": "Antiguo Camino a Los Reyes 54A, Ampliaci\u00f3n Ricardo Flores Mag\u00f3n, Ciudad de M\u00e9xico"}, {"business_status": "OPERATIONAL", "geometry": {"location": {"lat": 19.3553282, "lng": -99.10098909999999}, "viewport": {"northeast": {"lat": 19.3567278302915, "lng": -99.09965221970849}, "southwest": {"lat": 19.3540298697085, "lng": -99.1023501802915}}}, "icon": "https://maps.gstatic.com/mapfiles/place_api/icons/v1/png_71/pharmacy-71.png", "name": "Distribuci\u00f3n m\u00e9dica y farmac\u00e9utica", "opening_hours": {"open_now": true}, "place_id": "ChIJDYYxh-L90YURv_x0NQhVDjA", "plus_code": {"compound_code": "9V4X+4J Mexico City, CDMX, Mexico", "global_code": "76F29V4X+4J"}, "reference": "ChIJDYYxh-L90YURv_x0NQhVDjA", "scope": "GOOGLE", "types": ["pharmacy", "health", "point_of_interest", "store", "establishment"], "vicinity": "Antiguo Camino a Los Reyes 34, Ampliaci\u00f3n Ricardo Flores Mag\u00f3n, Ciudad de M\u00e9xico"}, {"business_status": "OPERATIONAL", "geometry": {"location": {"lat": 19.35543, "lng": -99.10195170000001}, "viewport": {"northeast": {"lat": 19.3567915802915, "lng": -99.10069846970849}, "southwest": {"lat": 19.3540936197085, "lng": -99.10339643029151}}}, "icon": "https://maps.gstatic.com/mapfiles/place_api/icons/v1/png_71/pharmacy-71.png", "name": "Nadro Iztapalapa", "place_id": "ChIJIW0LI73_0YURhNsRh8w69ww", "plus_code": {"compound_code": "9V4X+56 Mexico City, CDMX, Mexico", "global_code": "76F29V4X+56"}, "rating": 5, "reference": "ChIJIW0LI73_0YURhNsRh8w69ww", "scope": "GOOGLE", "types": ["pharmacy", "health", "point_of_interest", "store", "establishment"], "user_ratings_total": 1, "vicinity": "Santa Isabel Industrial, Ciudad de M\u00e9xico"}]