[{"business_status": "OPERATIONAL", "formatted_address": "Antiguo Camino a Los Reyes 54, Amp Ricardo Flores Mag\u00f3n, Iztapalapa, 09828 Ciudad de M\u00e9xico, CDMX", "geometry": {"location": {"lat": 19.3553854, "lng": -99.1010268}, "viewport": {"northeast": {"lat": 19.35674097989272, "lng": -99.09967962010727}, "southwest": {"lat": 19.35404132010728, "lng": -99.10237927989272}}}, "icon": "https://maps.gstatic.com/mapfiles/place_api/icons/v1/png_71/generic_business-71.png", "name": "INMOBILIARIA JC RIVA", "opening_hours": {"open_now": false}, "place_id": "ChIJXV_GgOL90YUR4PmrzqttomQ", "plus_code": {"compound_code": "9V4X+5H Mexico City", "global_code": "76F29V4X+5H"}, "rating": 0, "reference": "ChIJXV_GgOL90YUR4PmrzqttomQ", "types": ["real_estate_agency", "point_of_interest", "establishment"], "user_ratings_total": 0}, {"business_status": "OPERATIONAL", "formatted_address": "Puentetitla, Ricardo Flores Mag\u00f3n, Iztapalapa, 09000 Ciudad de M\u00e9xico, CDMX", "geometry": {"location": {"lat": 19.3558559, "lng": -99.0986033}, "viewport": {"northeast": {"lat": 19.35719942989272, "lng": -99.09722157010728}, "southwest": {"lat": 19.35449977010727, "lng": -99.09992122989273}}}, "icon": "https://maps.gstatic.com/mapfiles/place_api/icons/v1/png_71/generic_business-71.png", "name": "Inmobiliaria", "place_id": "ChIJFxrMVOL90YURWyHlo8Ylz-Q", "plus_code": {"compound_code": "9W42+8H Mexico City", "global_code": "76F29W42+8H"}, "rating": 0, "reference": "ChIJFxrMVOL90YURWyHlo8Ylz-Q", "types": ["real_estate_agency", "point_of_interest", "establishment"], "user_ratings_total": 0}, {"business_status": "OPERATIONAL", "formatted_address": "Ermita Iztapalapa 941, Santa Isabel Industrial, Iztapalapa, 09820 Ciudad de M\u00e9xico, CDMX", "geometry": {"location": {"lat": 19.3556116, "lng": -99.1017665}, "viewport": {"northeast": {"lat": 19.35702087989272, "lng": -99.10041132010727}, "southwest": {"lat": 19.35432122010728, "lng": -99.10311097989272}}}, "icon": "https://maps.gstatic.com/mapfiles/place_api/icons/v1/png_71/generic_business-71.png", "name": "Inmobiliaria Junma de M\u00e9xico S.A. de C.V", "place_id": "ChIJt2-Mf-L90YURUXzyXtPUigA", "plus_code": {"compound_code": "9V4X+67 Mexico City", "global_code": "76F29V4X+67"}, "rating": 0, "reference": "ChIJt2-Mf-L90YURUXzyXtPUigA", "types": ["real_estate_agency", "point_of_interest", "establishment"], "user_ratings_total": 0}, {"business_status": "OPERATIONAL", "formatted_address": "Puentetitla 120, Estrella del Sur, Iztapalapa, 09470 Ciudad de M\u00e9xico, CDMX", "geometry": {"location": {"lat": 19.3532844, "lng": -99.0996187}, "viewport": {"northeast": {"lat": 19.35460972989272, "lng": -99.09820967010728}, "southwest": {"lat": 19.35191007010728, "lng": -99.10090932989273}}}, "icon": "https://maps.gstatic.com/mapfiles/place_api/icons/v1/png_71/generic_business-71.png", "name": "Inmobiliaria Y Constructora Hermen Sa De C", "place_id": "ChIJz3w_z-L90YUR6WMp4bGzrOM", "plus_code": {"compound_code": "9W32+85 Mexico City", "global_code": "76F29W32+85"}, "rating": 0, "reference": "ChIJz3w_z-L90YUR6WMp4bGzrOM", "types": ["real_estate_agency", "point_of_interest", "establishment"], "user_ratings_total": 0}, {"business_status": "OPERATIONAL", "formatted_address": "Privada Ermita Iztapalapa 941, Santa Isabel Industrial, Iztapalapa, 08460 Ciudad de M\u00e9xico, CDMX", "geometry": {"location": {"lat": 19.3556112, "lng": -99.10176120000001}, "viewport": {"northeast": {"lat": 19.35702047989272, "lng": -99.10040597010729}, "southwest": {"lat": 19.35432082010728, "lng": -99.10310562989272}}}, "icon": "https://maps.gstatic.com/mapfiles/place_api/icons/v1/png_71/generic_business-71.png", "name": "Servicios Corporativos de Credito Familiar S.A. de C.V.", "place_id": "ChIJt2-Mf-L90YURLmTH-84051w", "plus_code": {"compound_code": "9V4X+67 Mexico City", "global_code": "76F29V4X+67"}, "rating": 2.7, "reference": "ChIJt2-Mf-L90YURLmTH-84051w", "types": ["real_estate_agency", "point_of_interest", "establishment"], "user_ratings_total": 3}, {"business_status": "OPERATIONAL", "formatted_address": "Del. Tlalpan C.P Calle 12a. Oriente No. 32, Isidro Fabela, Ciudad de M\u00e9xico", "geometry": {"location": {"lat": 19.3475124, "lng": -99.10849189999999}, "viewport": {"northeast": {"lat": 19.34889172989272, "lng": -99.10713042010727}, "southwest": {"lat": 19.34619207010727, "lng": -99.10983007989272}}}, "icon": "https://maps.gstatic.com/mapfiles/place_api/icons/v1/png_71/generic_business-71.png", "name": "Bravo Fuerza Inmobiliaria", "place_id": "ChIJwWK6awT-0YUR_FkcNN5kPOM", "plus_code": {"compound_code": "8VXR+2J Mexico City", "global_code": "76F28VXR+2J"}, "rating": 0, "reference": "ChIJwWK6awT-0YUR_FkcNN5kPOM", "types": ["real_estate_agency", "point_of_interest", "establishment"], "user_ratings_total": 0}, {"business_status": "OPERATIONAL", "formatted_address": "Puentetitla 53b, Ricardo Flores Mag\u00f3n, Iztapalapa, 09820 Ciudad de M\u00e9xico, CDMX", "geometry": {"location": {"lat": 19.3558641, "lng": -99.0986578}, "viewport": {"northeast": {"lat": 19.35720227989273, "lng": -99.09724872010727}, "southwest": {"lat": 19.35450262010728, "lng": -99.09994837989272}}}, "icon": "https://maps.gstatic.com/mapfiles/place_api/icons/v1/png_71/generic_business-71.png", "name": "QUALITY HERNANDEZ", "opening_hours": {"open_now": false}, "place_id": "ChIJVy--rOP90YURPE-7EXmY9FI", "plus_code": {"compound_code": "9W42+8G Mexico City", "global_code": "76F29W42+8G"}, "rating": 2, "reference": "ChIJVy--rOP90YURPE-7EXmY9FI", "types": ["real_estate_agency", "point_of_interest", "establishment"], "user_ratings_total": 1}, {"business_status": "OPERATIONAL", "formatted_address": "Ermita Iztapalapa 1999, Los \u00c1ngeles, Iztapalapa, 09830 Ciudad de M\u00e9xico, CDMX", "geometry": {"location": {"lat": 19.3519617, "lng": -99.09463}, "viewport": {"northeast": {"lat": 19.35335247989272, "lng": -99.09328837010727}, "southwest": {"lat": 19.35065282010727, "lng": -99.09598802989272}}}, "icon": "https://maps.gstatic.com/mapfiles/place_api/icons/v1/png_71/generic_business-71.png", "name": "Inmuebles Industriales Mexicanos", "place_id": "ChIJmw3LR_v90YUR0SIHV8WxWoc", "plus_code": {"compound_code": "9W24+Q4 Mexico City", "global_code": "76F29W24+Q4"}, "rating": 0, "reference": "ChIJmw3LR_v90YUR0SIHV8WxWoc", "types": ["real_estate_agency", "point_of_interest", "establishment"], "user_ratings_total": 0}, {"business_status": "OPERATIONAL", "formatted_address": "Ganaderos 234, Granjas Esmeralda, Iztapalapa, 09810 Ciudad de M\u00e9xico, CDMX", "geometry": {"location": {"lat": 19.3501786, "lng": -99.1141012}, "viewport": {"northeast": {"lat": 19.35147752989272, "lng": -99.11275512010728}, "southwest": {"lat": 19.34877787010728, "lng": -99.11545477989273}}}, "icon": "https://maps.gstatic.com/mapfiles/place_api/icons/v1/png_71/generic_business-71.png", "name": "Inmobiliaria Ohno S.A. de C.V.", "place_id": "ChIJm6riqgf-0YUR1Vj4zOYyw8s", "plus_code": {"compound_code": "9V2P+39 Mexico City", "global_code": "76F29V2P+39"}, "rating": 0, "reference": "ChIJm6riqgf-0YUR1Vj4zOYyw8s", "types": ["real_estate_agency", "point_of_interest", "establishment"], "user_ratings_total": 0}, {"business_status": "OPERATIONAL", "formatted_address": "Privada Ermita Iztapalapa 1272, San Lucas, Iztapalapa, 09000 Ciudad de M\u00e9xico, CDMX", "geometry": {"location": {"lat": 19.357513, "lng": -99.09462409999999}, "viewport": {"northeast": {"lat": 19.35887812989272, "lng": -99.09318542010728}, "southwest": {"lat": 19.35617847010727, "lng": -99.09588507989271}}}, "icon": "https://maps.gstatic.com/mapfiles/place_api/icons/v1/png_71/generic_business-71.png", "name": "Inmobiliaria Ixta Soto", "place_id": "ChIJZTO9FeT90YUR837k2SPSogc", "plus_code": {"compound_code": "9W54+25 Mexico City", "global_code": "76F29W54+25"}, "rating": 0, "reference": "ChIJZTO9FeT90YUR837k2SPSogc", "types": ["real_estate_agency", "point_of_interest", "establishment"], "user_ratings_total": 0}, {"business_status": "OPERATIONAL", "formatted_address": "Ganaderos 136, Granjas Esmeralda, Iztapalapa, 09810 Ciudad de M\u00e9xico, CDMX", "geometry": {"location": {"lat": 19.3505085, "lng": -99.1183463}, "viewport": {"northeast": {"lat": 19.35179192989272, "lng": -99.11700217010728}, "southwest": {"lat": 19.34909227010728, "lng": -99.11970182989272}}}, "icon": "https://maps.gstatic.com/mapfiles/place_api/icons/v1/png_71/generic_business-71.png", "name": "Inmobiliaria Garcia Y Chevere", "place_id": "ChIJS0Rw9Bn-0YURUls0Wvw-LOU", "plus_code": {"compound_code": "9V2J+6M Mexico City", "global_code": "76F29V2J+6M"}, "rating": 0, "reference": "ChIJS0Rw9Bn-0YURUls0Wvw-LOU", "types": ["real_estate_agency", "point_of_interest", "establishment"], "user_ratings_total": 0}, {"business_status": "OPERATIONAL", "formatted_address": "Egipto 18, San Lucas, Iztapalapa, 09696 Ciudad de M\u00e9xico, CDMX", "geometry": {"location": {"lat": 19.3578999, "lng": -99.0934932}, "viewport": {"northeast": {"lat": 19.35920947989272, "lng": -99.09213147010728}, "southwest": {"lat": 19.35650982010728, "lng": -99.09483112989273}}}, "icon": "https://maps.gstatic.com/mapfiles/place_api/icons/v1/png_71/generic_business-71.png", "name": "Inmobiliaria Completa", "place_id": "ChIJT62hMeT90YURajIt0BB4FfE", "plus_code": {"compound_code": "9W54+5J Mexico City", "global_code": "76F29W54+5J"}, "rating": 0, "reference": "ChIJT62hMeT90YURajIt0BB4FfE", "types": ["real_estate_agency", "point_of_interest", "establishment"], "user_ratings_total": 0}, {"business_status": "OPERATIONAL", "formatted_address": "Mariano Matamoros 2, Culhuacan, Iztapalapa, 09790 Ciudad de M\u00e9xico, CDMX", "geometry": {"location": {"lat": 19.3387244, "lng": -99.1061685}, "viewport": {"northeast": {"lat": 19.34007292989272, "lng": -99.10486537010728}, "southwest": {"lat": 19.33737327010728, "lng": -99.10756502989271}}}, "icon": "https://maps.gstatic.com/mapfiles/place_api/icons/v1/png_71/generic_business-71.png", "name": "Inmuebles Torreon", "place_id": "ChIJM6jn8PUAzoURWKcsMjdI8tw", "plus_code": {"compound_code": "8VQV+FG Mexico City", "global_code": "76F28VQV+FG"}, "rating": 0, "reference": "ChIJM6jn8PUAzoURWKcsMjdI8tw", "types": ["real_estate_agency", "point_of_interest", "establishment"], "user_ratings_total": 0}, {"business_status": "OPERATIONAL", "formatted_address": "Sur 109 243, H\u00e9roes de Churubusco, Iztapalapa, 09090 Ciudad de M\u00e9xico, CDMX", "geometry": {"location": {"lat": 19.35766, "lng": -99.11802209999999}, "viewport": {"northeast": {"lat": 19.35902097989272, "lng": -99.11672777010727}, "southwest": {"lat": 19.35632132010728, "lng": -99.11942742989272}}}, "icon": "https://maps.gstatic.com/mapfiles/place_api/icons/v1/png_71/generic_business-71.png", "name": "TECNOCASA LOS CIPRESES", "opening_hours": {"open_now": false}, "photos": [{"height": 960, "html_attributions": ["<a href=\"https://maps.google.com/maps/contrib/112371445427505742318\">A Google User</a>"], "photo_reference": "CmRaAAAA34ZsgcHyTa3Rxp_L4lV4WOYf2duEYXdxrkPh1cUvOnVSm5_XtVq6l96ASupMEyMgVVUu59sOr9dtHVXPHDLHa_VgwULZFppLuxl5Fo_tRuqmRfy93QkhlDX2nsgIUzFWEhBIJAiTiB6S6oeO_5cayOMtGhRNG8BTegFxq8tawamc2myqs8R6sg", "width": 1280}], "place_id": "ChIJUSaJEBD_0YURpD9dZuwxU48", "plus_code": {"compound_code": "9V5J+3Q Mexico City", "global_code": "76F29V5J+3Q"}, "rating": 3.7, "reference": "ChIJUSaJEBD_0YURpD9dZuwxU48", "types": ["real_estate_agency", "point_of_interest", "establishment"], "user_ratings_total": 3}, {"business_status": "OPERATIONAL", "formatted_address": "Centeno 44, Granjas Esmeralda, Iztapalapa, 09810 Ciudad de M\u00e9xico, CDMX", "geometry": {"location": {"lat": 19.3555718, "lng": -99.1167237}, "viewport": {"northeast": {"lat": 19.35693677989272, "lng": -99.11554037010727}, "southwest": {"lat": 19.35423712010728, "lng": -99.11824002989272}}}, "icon": "https://maps.gstatic.com/mapfiles/place_api/icons/v1/png_71/generic_business-71.png", "name": "Inmobiliaria Gotelo Sa", "place_id": "ChIJSyT9OxH-0YURDDVOpRcivKI", "plus_code": {"compound_code": "9V4M+68 Mexico City", "global_code": "76F29V4M+68"}, "rating": 0, "reference": "ChIJSyT9OxH-0YURDDVOpRcivKI", "types": ["real_estate_agency", "point_of_interest", "establishment"], "user_ratings_total": 0}, {"business_status": "OPERATIONAL", "formatted_address": "Vicente Guerrero 2, Culhuacan, Iztapalapa, 09790 Ciudad de M\u00e9xico, CDMX", "geometry": {"location": {"lat": 19.335836, "lng": -99.1081188}, "viewport": {"northeast": {"lat": 19.33718062989272, "lng": -99.10660492010729}, "southwest": {"lat": 19.33448097010728, "lng": -99.10930457989272}}}, "icon": "https://maps.gstatic.com/mapfiles/place_api/icons/v1/png_71/generic_business-71.png", "name": "Inmobiliaria Char", "place_id": "ChIJXwl7fmX-0YURSQGeOnxYCRM", "plus_code": {"compound_code": "8VPR+8Q Mexico City", "global_code": "76F28VPR+8Q"}, "rating": 0, "reference": "ChIJXwl7fmX-0YURSQGeOnxYCRM", "types": ["real_estate_agency", "point_of_interest", "establishment"], "user_ratings_total": 0}, {"business_status": "OPERATIONAL", "formatted_address": "Valle del Sur, 09819 Mexico City, CDMX", "geometry": {"location": {"lat": 19.3431795, "lng": -99.1125952}, "viewport": {"northeast": {"lat": 19.34452057989272, "lng": -99.11119002010727}, "southwest": {"lat": 19.34182092010727, "lng": -99.11388967989272}}}, "icon": "https://maps.gstatic.com/mapfiles/place_api/icons/v1/png_71/generic_business-71.png", "name": "Inmobiliaria Parafan", "place_id": "ChIJ17U6wawBzoURvKcW9KRoxuI", "plus_code": {"compound_code": "8VVP+7X Mexico City", "global_code": "76F28VVP+7X"}, "rating": 0, "reference": "ChIJ17U6wawBzoURvKcW9KRoxuI", "types": ["real_estate_agency", "point_of_interest", "establishment"], "user_ratings_total": 0}, {"business_status": "OPERATIONAL", "formatted_address": "D\u00e9cada Nacional Edificio N, Cabeza de Juar\u00e9z, Iztapalapa, 09230 Ciudad de M\u00e9xico, CDMX", "geometry": {"location": {"lat": 19.3500693, "lng": -99.0790751}, "viewport": {"northeast": {"lat": 19.35140532989272, "lng": -99.07767117010728}, "southwest": {"lat": 19.34870567010728, "lng": -99.08037082989273}}}, "icon": "https://maps.gstatic.com/mapfiles/place_api/icons/v1/png_71/generic_business-71.png", "name": "Inmobiliar\u00eda Arviz\u00fa", "place_id": "ChIJ4VBN0oz90YURE4gQt8uMbeY", "plus_code": {"compound_code": "9W2C+29 Mexico City", "global_code": "76F29W2C+29"}, "rating": 0, "reference": "ChIJ4VBN0oz90YURE4gQt8uMbeY", "types": ["real_estate_agency", "point_of_interest", "establishment"], "user_ratings_total": 0}, {"business_status": "OPERATIONAL", "formatted_address": "Av. A\u00f1o de Ju\u00e1rez 340, Granjas San Antonio, Iztapalapa, 09070 Ciudad de M\u00e9xico, CDMX", "geometry": {"location": {"lat": 19.3692431, "lng": -99.1052587}, "viewport": {"northeast": {"lat": 19.37057337989272, "lng": -99.10385627010729}, "southwest": {"lat": 19.36787372010728, "lng": -99.10655592989272}}}, "icon": "https://maps.gstatic.com/mapfiles/place_api/icons/v1/png_71/generic_business-71.png", "name": "Inmobiliaria Ohono", "place_id": "ChIJBSHIPHT-0YUR43rlo552toE", "plus_code": {"compound_code": "9V9V+MV Mexico City", "global_code": "76F29V9V+MV"}, "rating": 0, "reference": "ChIJBSHIPHT-0YUR43rlo552toE", "types": ["real_estate_agency", "point_of_interest", "establishment"], "user_ratings_total": 0}, {"business_status": "OPERATIONAL", "formatted_address": "Av. Carlota Armero 424, San Francisco Culhuacan, Culhuacan CTM V, Coyoac\u00e1n, 04260 Ciudad de M\u00e9xico, CDMX", "geometry": {"location": {"lat": 19.3313747, "lng": -99.1135034}, "viewport": {"northeast": {"lat": 19.33272152989272, "lng": -99.11211572010728}, "southwest": {"lat": 19.33002187010728, "lng": -99.11481537989273}}}, "icon": "https://maps.gstatic.com/mapfiles/place_api/icons/v1/png_71/generic_business-71.png", "name": "Alfa Inmobiliaria Oikos", "opening_hours": {"open_now": false}, "photos": [{"height": 518, "html_attributions": ["<a href=\"https://maps.google.com/maps/contrib/111005406852533682085\">Alfa Inmobiliaria Oikos</a>"], "photo_reference": "CmRaAAAA7w3xgDf5Sul3azp_w0q12hn7xwWbnfJhXkrbvhyYQGemO2Kg2FnP9X_wtfSS4qz5_IDbB6wAjDbu7_Mk6_dtrzpT1M5HyCstOCtsK30-TKL_v5ikVkCCL_nePw7gOK0pEhAheLrFYWrlr0gS5CFQA3shGhQy9o3P3e6qUhGprHLAZcrt4mEbCA", "width": 919}], "place_id": "ChIJvYhU0vYBzoURvETQK1BtnT4", "plus_code": {"compound_code": "8VJP+GH Mexico City", "global_code": "76F28VJP+GH"}, "rating": 3, "reference": "ChIJvYhU0vYBzoURvETQK1BtnT4", "types": ["real_estate_agency", "point_of_interest", "establishment"], "user_ratings_total": 15}]