[{"business_status": "OPERATIONAL", "formatted_address": "Lt 25, Tizoc Mzn 721, Zona Urbana Ejidal los Reyes Culhuacan, Iztapalapa, 09840 Ciudad de M\u00e9xico, CDMX", "geometry": {"location": {"lat": 19.3469654, "lng": -99.10223719999999}, "viewport": {"northeast": {"lat": 19.34831122989272, "lng": -99.10087057010728}, "southwest": {"lat": 19.34561157010728, "lng": -99.10357022989272}}}, "icon": "https://maps.gstatic.com/mapfiles/place_api/icons/v1/png_71/restaurant-71.png", "name": "Carnitas Chuy", "opening_hours": {"open_now": false}, "photos": [{"height": 810, "html_attributions": ["<a href=\"https://maps.google.com/maps/contrib/103621395220712664912\">A Google User</a>"], "photo_reference": "CmRaAAAACiSrwOHUSHUOn1uUnzeZr-s2CJGy5o7wgDlGYXudA2-G4bbFq31MINAHJEzZx-NkevH-eWFhcYn7reZeAYUwjzUCvhF1e6f15s0aZ6NhUPlE-l27BIuhrvIityzuO5p4EhD_fnmuKIpzPQr7Usb_bF59GhQubkNCPyZSEtg4uAbzbrQ8ViYkzw", "width": 1440}], "place_id": "ChIJYVRoUgf-0YURQI0k0SDSE2U", "plus_code": {"compound_code": "8VWX+Q4 Mexico City", "global_code": "76F28VWX+Q4"}, "rating": 4.9, "reference": "ChIJYVRoUgf-0YURQI0k0SDSE2U", "types": ["restaurant", "food", "point_of_interest", "establishment"], "user_ratings_total": 13}, {"business_status": "OPERATIONAL", "formatted_address": "Tezozomoc 5A, Estrella del Sur, Iztapalapa, 09820 Ciudad de M\u00e9xico, CDMX", "geometry": {"location": {"lat": 19.3470563, "lng": -99.0976791}, "viewport": {"northeast": {"lat": 19.34834062989272, "lng": -99.09639917010729}, "southwest": {"lat": 19.34564097010728, "lng": -99.09909882989274}}}, "icon": "https://maps.gstatic.com/mapfiles/place_api/icons/v1/png_71/restaurant-71.png", "name": "El Saz\u00f3n de los Boites", "opening_hours": {"open_now": false}, "photos": [{"height": 4032, "html_attributions": ["<a href=\"https://maps.google.com/maps/contrib/109324137583654834053\">Byron Hern\u00e1ndez Guti\u00e9rrez</a>"], "photo_reference": "CmRaAAAA53a8a84PBDK4E7Q58FdmBGYUpN28OpPiGErvB-L-15yzWFLQJrBipn561hMPsGXOUwa7wSsheHiBGzPgHp601Hy1yCjbzBMlvAL694JEq-NshOZrDYalGn3JXCWABlXjEhB0Pjd6wT5-zvxhy3icUzkwGhQ99L7q_ombGmcU9qwZE1i8vGSP7Q", "width": 3024}], "place_id": "ChIJ_3Z3bDf90YURK65NmfGybyc", "plus_code": {"compound_code": "8WW2+RW Mexico City", "global_code": "76F28WW2+RW"}, "rating": 4.8, "reference": "ChIJ_3Z3bDf90YURK65NmfGybyc", "types": ["restaurant", "food", "point_of_interest", "establishment"], "user_ratings_total": 10}, {"business_status": "OPERATIONAL", "formatted_address": "Tlaxcanes 70, Ricardo Flores Mag\u00f3n, Iztapalapa, 09820 Ciudad de M\u00e9xico, CDMX", "geometry": {"location": {"lat": 19.3541219, "lng": -99.09824569999999}, "viewport": {"northeast": {"lat": 19.35543942989272, "lng": -99.09690972010728}, "southwest": {"lat": 19.35273977010728, "lng": -99.09960937989273}}}, "icon": "https://maps.gstatic.com/mapfiles/place_api/icons/v1/png_71/restaurant-71.png", "name": "Restaurante Pollo Brujo", "opening_hours": {"open_now": true}, "photos": [{"height": 3120, "html_attributions": ["<a href=\"https://maps.google.com/maps/contrib/111862808050212991478\">Abraham Chavez</a>"], "photo_reference": "CmRaAAAAmRm3oRNqJ5Wlo19a-jfyBgbzHq_0uN0gEp-tNRr1BK8sBgCw2xj-94sBfsdEOnLRgUjVLLWv5awlme3anILPkp_xIhCR4Gui_nto3bLo-pKygbAC3KAjllqem5B9RiqjEhAb9O2KJiY2zLoY1GIWbS31GhSTspcTrLDatJbJNaXvRbonliu59Q", "width": 4160}], "place_id": "ChIJrcJmH-P90YURpl_6oe7569Y", "plus_code": {"compound_code": "9W32+JP Mexico City", "global_code": "76F29W32+JP"}, "price_level": 2, "rating": 4.4, "reference": "ChIJrcJmH-P90YURpl_6oe7569Y", "types": ["restaurant", "food", "point_of_interest", "establishment"], "user_ratings_total": 308}, {"business_status": "OPERATIONAL", "formatted_address": "Antiguo Camino a Los Reyes 20, Amp Ricardo Flores Mag\u00f3n, Iztapalapa, 09828 Ciudad de M\u00e9xico, CDMX", "geometry": {"location": {"lat": 19.3543865, "lng": -99.1016188}, "viewport": {"northeast": {"lat": 19.35571662989272, "lng": -99.10027222010729}, "southwest": {"lat": 19.35301697010727, "lng": -99.10297187989273}}}, "icon": "https://maps.gstatic.com/mapfiles/place_api/icons/v1/png_71/restaurant-71.png", "name": "Carnitas La Curva", "opening_hours": {"open_now": false}, "photos": [{"height": 3480, "html_attributions": ["<a href=\"https://maps.google.com/maps/contrib/103512767161137585503\">Osito Kun</a>"], "photo_reference": "CmRaAAAAlXfugb9Q0UyUfNsYNwUonrR3V0QJK5975vBW_UBwUqA_dEFDf0zHvpHw7Iyak3GPYXYXFkwxFfsmDf5lYP3tEhNbJ7suMup545S_p_Llycmeu-0D9BGt8e2A8QtoQ_0REhChoI5N1U1v_jiaZPoEVL1jGhSy57osRtKgjUAOmsfBzRGdS9qpfQ", "width": 4640}], "place_id": "ChIJD1ahTXn_0YURhD8KhqdVu8Q", "plus_code": {"compound_code": "9V3X+Q9 Mexico City", "global_code": "76F29V3X+Q9"}, "rating": 4.6, "reference": "ChIJD1ahTXn_0YURhD8KhqdVu8Q", "types": ["restaurant", "food", "point_of_interest", "establishment"], "user_ratings_total": 10}, {"business_status": "OPERATIONAL", "formatted_address": "Ermita Iztapalapa 147, Amp Ricardo Flores Mag\u00f3n, Iztapalapa, 09820 Ciudad de M\u00e9xico, CDMX", "geometry": {"location": {"lat": 19.3554035, "lng": -99.09947269999999}, "viewport": {"northeast": {"lat": 19.35682002989272, "lng": -99.09811687010728}, "southwest": {"lat": 19.35412037010727, "lng": -99.10081652989271}}}, "icon": "https://maps.gstatic.com/mapfiles/place_api/icons/v1/png_71/restaurant-71.png", "name": "Taqueria Mi Lindo San Juan", "opening_hours": {"open_now": true}, "photos": [{"height": 2809, "html_attributions": ["<a href=\"https://maps.google.com/maps/contrib/110210922871583506677\">Christian Carranza</a>"], "photo_reference": "CmRaAAAA0ibIVISFotFfD4B1Q01aHFoBt3-l2zzDZ3FM930C1T34rb4_APInopP4UCX6I38-RFyavOiqZO7XFeuS6fwTLmngl__dbpoHkY9qggWlvEdxYLPy_96t1slhfPkG7esxEhAzEHQX3in2NFXNuXD4zaWtGhRAOHn6F-fDucJBIKngl0VDgcEUXQ", "width": 3745}], "place_id": "ChIJV3Kv9-L90YURSqZvmbnVw8g", "plus_code": {"compound_code": "9W42+56 Mexico City", "global_code": "76F29W42+56"}, "price_level": 1, "rating": 4.5, "reference": "ChIJV3Kv9-L90YURSqZvmbnVw8g", "types": ["restaurant", "food", "point_of_interest", "establishment"], "user_ratings_total": 288}, {"business_status": "OPERATIONAL", "formatted_address": "Ermita Iztapalapa 907 Santa Isabel Industrial, Ricardo Flores Mag\u00f3n, 09820 CDMX", "geometry": {"location": {"lat": 19.3555483, "lng": -99.1029794}, "viewport": {"northeast": {"lat": 19.35702232989273, "lng": -99.10161842010729}, "southwest": {"lat": 19.35432267010728, "lng": -99.10431807989274}}}, "icon": "https://maps.gstatic.com/mapfiles/place_api/icons/v1/png_71/restaurant-71.png", "name": "Vips Iztapalapa", "opening_hours": {"open_now": true}, "photos": [{"height": 3024, "html_attributions": ["<a href=\"https://maps.google.com/maps/contrib/109257470359308410136\">carlos red</a>"], "photo_reference": "CmRaAAAAytcqEDxr02TBiErd190cdsI1BMQPCaTb2DuQG58_1GGzGFUEB1WtG707KfgLYc0NwUqiIQEbHudpraZMtQS6ddLg6sA0vuvZmP5Ew8AxawI4cCQzdRUz4woUuynDhM-DEhArfc01Xwu6H5YPwPdvMkJfGhRZ66ZeURVS743BtOgMm1kJL2bZzA", "width": 4032}], "place_id": "ChIJI7NctAn-0YURUpKJvAh9yvM", "plus_code": {"compound_code": "9V4W+6R Ricardo Flores Mag\u00f3n, Mexico City", "global_code": "76F29V4W+6R"}, "price_level": 2, "rating": 3.8, "reference": "ChIJI7NctAn-0YURUpKJvAh9yvM", "types": ["restaurant", "food", "point_of_interest", "establishment"], "user_ratings_total": 3980}, {"business_status": "OPERATIONAL", "formatted_address": "Netzahualc\u00f3yotl 14, Estrella del Sur, Iztapalapa, 09820 Ciudad de M\u00e9xico, CDMX", "geometry": {"location": {"lat": 19.3483565, "lng": -99.09981549999999}, "viewport": {"northeast": {"lat": 19.34970247989272, "lng": -99.09845592010728}, "southwest": {"lat": 19.34700282010728, "lng": -99.10115557989273}}}, "icon": "https://maps.gstatic.com/mapfiles/place_api/icons/v1/png_71/restaurant-71.png", "name": "El Compa\"Y\" Taquer\u00eda", "opening_hours": {"open_now": true}, "photos": [{"height": 3024, "html_attributions": ["<a href=\"https://maps.google.com/maps/contrib/116496529314079627486\">Majain R. Abugabr A.</a>"], "photo_reference": "CmRaAAAAi3j3XF_AT2655gn6w7DtEeE5su4b3yhZjoUD1E6CCwBWqEID09aWDaII4i7R_yIo3iA8coNi9BfStf6r5fpinsAEomaNTvvY3jyBvv9vk5K6hneAbp9Jt8OjpeQcqThBEhCoYxQq5okS8eEmId0CMrEOGhS_VSEDGHO6Mim1lNWRNmNqS4c7fw", "width": 4032}], "place_id": "ChIJPwxpvP390YURLHGlgL2ryHI", "plus_code": {"compound_code": "8WX2+83 Mexico City", "global_code": "76F28WX2+83"}, "price_level": 1, "rating": 4.6, "reference": "ChIJPwxpvP390YURLHGlgL2ryHI", "types": ["restaurant", "food", "point_of_interest", "establishment"], "user_ratings_total": 234}, {"business_status": "OPERATIONAL", "formatted_address": "Tezozomoc mz35 lt56, Estrella del Sur, Iztapalapa, 09820 Ciudad de M\u00e9xico, CDMX", "geometry": {"location": {"lat": 19.3476989, "lng": -99.1007666}, "viewport": {"northeast": {"lat": 19.34908007989273, "lng": -99.09941077010728}, "southwest": {"lat": 19.34638042010728, "lng": -99.10211042989273}}}, "icon": "https://maps.gstatic.com/mapfiles/place_api/icons/v1/png_71/restaurant-71.png", "name": "Tacos Bruno's", "opening_hours": {"open_now": false}, "photos": [{"height": 4000, "html_attributions": ["<a href=\"https://maps.google.com/maps/contrib/115181306855279438592\">A Google User</a>"], "photo_reference": "CmRaAAAAhr_Hi299qrD8SJsR2kZvtkFHsq1bBLmytklAIjzZVzxwq0IOE2IRBO06is48CG8VvU_Xt6LoUlI1Xz5hihw1Soph77urCi5i4xOudoNI8dHnGfIywGQ-fQ445AQmc7G-EhAdoYJC-s-GhNOSL8i7kEUsGhSpdHjvNFdDxZvjXqKa3REh2O2iEQ", "width": 1800}], "place_id": "ChIJ6UGR8f390YUR_2jWmA8O5tI", "plus_code": {"compound_code": "8VXX+3M Mexico City", "global_code": "76F28VXX+3M"}, "rating": 4.4, "reference": "ChIJ6UGR8f390YUR_2jWmA8O5tI", "types": ["restaurant", "food", "point_of_interest", "establishment"], "user_ratings_total": 12}, {"business_status": "OPERATIONAL", "formatted_address": "Puentitla 17, Estrella del Sur, Iztapalapa, 09820 Ciudad de M\u00e9xico, CDMX", "geometry": {"location": {"lat": 19.3528302, "lng": -99.0995827}, "viewport": {"northeast": {"lat": 19.35419472989272, "lng": -99.09827382010728}, "southwest": {"lat": 19.35149507010728, "lng": -99.10097347989273}}}, "icon": "https://maps.gstatic.com/mapfiles/place_api/icons/v1/png_71/restaurant-71.png", "name": "Barbacoa Estilo Capulhuac Cesar", "photos": [{"height": 3024, "html_attributions": ["<a href=\"https://maps.google.com/maps/contrib/107300181147229840454\">Diana Osorio</a>"], "photo_reference": "CmRaAAAAK0SQKFjTgEumv2cDnbwRPUIQPNs_Vwd3Ubrm5rzaclLCx2F3alPbbNEAvr-shprhewfI2r01mh5IRXTRewFFoeE9j4YZ2s53sVcz3vnTznkoPlZAsnNJznyX3W8nE2IcEhASdvYZhY_hjWHQB5rYFkhaGhReAsG-ZBsX1CPfaDlafINuyzqGvQ", "width": 4032}], "place_id": "ChIJlVaBy-L90YUREQxQ-C6XeGk", "plus_code": {"compound_code": "9W32+45 Mexico City", "global_code": "76F29W32+45"}, "rating": 4.5, "reference": "ChIJlVaBy-L90YUREQxQ-C6XeGk", "types": ["restaurant", "food", "point_of_interest", "establishment"], "user_ratings_total": 212}, {"business_status": "OPERATIONAL", "formatted_address": "Pastores Mz 8, Amp Ricardo Flores Mag\u00f3n, Iztapalapa, 09828 Ciudad de M\u00e9xico, CDMX", "geometry": {"location": {"lat": 19.3539624, "lng": -99.10080400000001}, "viewport": {"northeast": {"lat": 19.35530367989272, "lng": -99.09942207010728}, "southwest": {"lat": 19.35260402010728, "lng": -99.10212172989273}}}, "icon": "https://maps.gstatic.com/mapfiles/place_api/icons/v1/png_71/restaurant-71.png", "name": "Manzanas Burger's", "opening_hours": {"open_now": true}, "photos": [{"height": 2472, "html_attributions": ["<a href=\"https://maps.google.com/maps/contrib/104985300576768345444\">St. James Infirmary</a>"], "photo_reference": "CmRaAAAAA2dtn4RLSi02iUPezCzDtOZAoWvqtHXUaWu1OIKefpQF6tpzFzwK6OdvODh__Y5xBMsOtgI3ZNAinXxJ0X38dPcGA6dLxuKkAUoaAgXwLpzjTcXU8Zo568kNhRMMFufBEhC7PgHJbTsXhfBmj7nI25z1GhQjKShcSz73Foy8ObvGrkSlDSZrng", "width": 2472}], "place_id": "ChIJ-Y9Q47z90YURLgOxX5k18QM", "plus_code": {"compound_code": "9V3X+HM Mexico City", "global_code": "76F29V3X+HM"}, "rating": 4.6, "reference": "ChIJ-Y9Q47z90YURLgOxX5k18QM", "types": ["restaurant", "food", "point_of_interest", "establishment"], "user_ratings_total": 12}, {"business_status": "OPERATIONAL", "formatted_address": "Cjon. Moctezuma 5, Estrella del Sur, Iztapalapa, 09820 Ciudad de M\u00e9xico, CDMX", "geometry": {"location": {"lat": 19.349023, "lng": -99.10167829999999}, "viewport": {"northeast": {"lat": 19.35036587989272, "lng": -99.10033132010729}, "southwest": {"lat": 19.34766622010727, "lng": -99.10303097989274}}}, "icon": "https://maps.gstatic.com/mapfiles/place_api/icons/v1/png_71/restaurant-71.png", "name": "FUENTES PIZZAS", "opening_hours": {"open_now": true}, "photos": [{"height": 4618, "html_attributions": ["<a href=\"https://maps.google.com/maps/contrib/108033218175985810002\">A Google User</a>"], "photo_reference": "CmRZAAAApiIXQxVcTzQQ4KHl3Y269ff3qV-au11BxNxVi1Ouzd-iYA5RK58twMw8bpeTi2W3R3gS11itdyS1EKHVL3ZDXCR_nMAzBQP0bHs2n9uXyqAKL2wjdD0D-LzodqjjNOAiEhDvWrqsPMc7es15l7sX5LWpGhS4m8qhR5uNM1Hba_t0AqW59fv6HA", "width": 3464}], "place_id": "ChIJyZN-fAf-0YURez8_-69Br_c", "plus_code": {"compound_code": "8VXX+J8 Mexico City", "global_code": "76F28VXX+J8"}, "rating": 4.3, "reference": "ChIJyZN-fAf-0YURez8_-69Br_c", "types": ["restaurant", "food", "point_of_interest", "establishment"], "user_ratings_total": 15}, {"business_status": "OPERATIONAL", "formatted_address": "Puentetitla 103, Estrella del Sur, Iztapalapa, 09820 Ciudad de M\u00e9xico, CDMX", "geometry": {"location": {"lat": 19.3518607, "lng": -99.10016619999999}, "viewport": {"northeast": {"lat": 19.35319692989272, "lng": -99.09878047010729}, "southwest": {"lat": 19.35049727010728, "lng": -99.10148012989272}}}, "icon": "https://maps.gstatic.com/mapfiles/place_api/icons/v1/png_71/restaurant-71.png", "name": "Coffee Time G.", "opening_hours": {"open_now": true}, "photos": [{"height": 3456, "html_attributions": ["<a href=\"https://maps.google.com/maps/contrib/107046830369207793859\">A Google User</a>"], "photo_reference": "CmRaAAAAt7SskRPY5e1tqc4c0uER2TANBMSElZvInqAc9zjr3S9BmluFyek_Vzoy49qchXywHwtLwhU43XKTRlCKas4v4ec6c8PEm2y6VB-y8z3QwJzr40HyhrgsA5IZW1jMytKrEhCIWEYeBkDzx6n87gAnq0d1GhSc5deWowxUc5RQyc6C14fF6hUeZA", "width": 5184}], "place_id": "ChIJhTO59dX90YUR_SpzS2eU1JQ", "plus_code": {"compound_code": "9V2X+PW Mexico City", "global_code": "76F29V2X+PW"}, "price_level": 1, "rating": 4.5, "reference": "ChIJhTO59dX90YUR_SpzS2eU1JQ", "types": ["restaurant", "cafe", "food", "point_of_interest", "establishment"], "user_ratings_total": 30}, {"business_status": "OPERATIONAL", "formatted_address": "Netzahualc\u00f3yotl 80, Estrella del Sur, Iztapalapa, 09820 Ciudad de M\u00e9xico, CDMX", "geometry": {"location": {"lat": 19.3478386, "lng": -99.0998829}, "viewport": {"northeast": {"lat": 19.34920252989272, "lng": -99.09857347010728}, "southwest": {"lat": 19.34650287010728, "lng": -99.10127312989272}}}, "icon": "https://maps.gstatic.com/mapfiles/place_api/icons/v1/png_71/restaurant-71.png", "name": "Gorditas Don Chucho", "opening_hours": {"open_now": true}, "photos": [{"height": 3000, "html_attributions": ["<a href=\"https://maps.google.com/maps/contrib/116180999987025014583\">A Google User</a>"], "photo_reference": "CmRaAAAAEIIzfKF4fjbl82a9IIh6NUKtv7aphamF70cUqg2I25wQnxF_-LOANVHAP5U9VIhxskh9Eb82Cd_fWWJX2v7r_i56oqnr5Jd4eG9P2ffykEDknfXfIPVFQQBI96-u7V4EEhCGILq5ZQiSDQpJIUegUbaKGhTd6xZ5Vz6--EGfBOqPCGof49uhzQ", "width": 4000}], "place_id": "ChIJQTfzwf390YUREktsI3gq4NY", "plus_code": {"compound_code": "8WX2+42 Mexico City", "global_code": "76F28WX2+42"}, "rating": 4.4, "reference": "ChIJQTfzwf390YUREktsI3gq4NY", "types": ["restaurant", "food", "point_of_interest", "establishment"], "user_ratings_total": 32}, {"business_status": "OPERATIONAL", "formatted_address": "Manzana 11 Lote 23, esq. Tlaxcanes, Puentetitla, Amp Ricardo Flores Mag\u00f3n, 09820 Ciudad de M\u00e9xico, CDMX", "geometry": {"location": {"lat": 19.3546509, "lng": -99.09894829999999}, "viewport": {"northeast": {"lat": 19.35599802989272, "lng": -99.09759142010729}, "southwest": {"lat": 19.35329837010728, "lng": -99.10029107989273}}}, "icon": "https://maps.gstatic.com/mapfiles/place_api/icons/v1/png_71/restaurant-71.png", "name": "TACOTITLA", "opening_hours": {"open_now": true}, "photos": [{"height": 3024, "html_attributions": ["<a href=\"https://maps.google.com/maps/contrib/103087588316242619690\">Jacobomora Hernandez Mora</a>"], "photo_reference": "CmRaAAAAB32RYp2exISWmMfw4bwoVlZziyjqjiJSL7pZQv7xkL35EL8Hbpi3EkTxN7kWW1j_CGmPKo6FOmp-5QWfD8zkdF1q9HUvQspZ28QZrbqCuUuqJcJdcgMjBEMPHm1vX592EhD0t1POGvDGCpFH1oPpsB2iGhRQSx1Om30hqL8pEUb0bwRPn8jk4A", "width": 4032}], "place_id": "ChIJDZpx4-L90YUR6X0ek9Jx1Zg", "plus_code": {"compound_code": "9W32+VC Mexico City", "global_code": "76F29W32+VC"}, "price_level": 1, "rating": 4.3, "reference": "ChIJDZpx4-L90YUR6X0ek9Jx1Zg", "types": ["restaurant", "food", "point_of_interest", "establishment"], "user_ratings_total": 887}, {"business_status": "OPERATIONAL", "formatted_address": "Puente Titla Esq Tlacocitiluya, Ricardo Flores Mag\u00f3n, 09820 Iztapalapa, CDMX", "geometry": {"location": {"lat": 19.353432, "lng": -99.09933}, "viewport": {"northeast": {"lat": 19.35481387989272, "lng": -99.09796507010728}, "southwest": {"lat": 19.35211422010728, "lng": -99.10066472989271}}}, "icon": "https://maps.gstatic.com/mapfiles/place_api/icons/v1/png_71/restaurant-71.png", "name": "Jorge's Birria", "opening_hours": {"open_now": true}, "photos": [{"height": 4032, "html_attributions": ["<a href=\"https://maps.google.com/maps/contrib/111788286161444270131\">Paulina Silva Campos</a>"], "photo_reference": "CmRaAAAA3QHXs6Gq62bLVB1ICBKTPvvJmRmztn4Xtp5L7WPJGIZ5ZQay2KIP__5FiFwnOfNhbAEDcnz_nAFbVunMUBzGDFl-bCTVMjEs2jCMTCU7j3a-NILxeSEY_ZydKk0oAqCYEhAlWo7_XlahoTCf39SBIhEPGhR_WQQFNdVVQB8P1XL3nWj8c7eD_A", "width": 3024}], "place_id": "ChIJTfwZxeL90YUR62VkpotQqSo", "plus_code": {"compound_code": "9W32+97 Mexico City", "global_code": "76F29W32+97"}, "price_level": 2, "rating": 4.1, "reference": "ChIJTfwZxeL90YUR62VkpotQqSo", "types": ["restaurant", "food", "point_of_interest", "establishment"], "user_ratings_total": 426}, {"business_status": "OPERATIONAL", "formatted_address": "Pastores Mz 17 Lt 15, Ampliaci\u00f3n Ricardo Flores Mag\u00f3n, 09828 Iztapalapa, CDMX", "geometry": {"location": {"lat": 19.3531433, "lng": -99.0998024}, "viewport": {"northeast": {"lat": 19.35448087989272, "lng": -99.09845647010728}, "southwest": {"lat": 19.35178122010728, "lng": -99.10115612989271}}}, "icon": "https://maps.gstatic.com/mapfiles/place_api/icons/v1/png_71/restaurant-71.png", "name": "Huaraches y Comida Corrida Arellano", "opening_hours": {"open_now": false}, "photos": [{"height": 3264, "html_attributions": ["<a href=\"https://maps.google.com/maps/contrib/101942208851960219416\">A Google User</a>"], "photo_reference": "CmRaAAAAUU03InzZFN8GEceIYYqenpf179sv6mQBAgPi3t2FDXOflJTR22NdTBq3z-w-OJfJRlvU98G63o89xiZi9p1L4VVd_PTppefz1Z8YnxbfNGA9FmZAIit4qti6fe8teEKFEhBl90-dh-wN-qcoMTEhIqLuGhQwPe6Te8k-16Pp82WgfJXGLxwwIA", "width": 2448}], "place_id": "ChIJdWuoyeL90YURsObxRnvXgdg", "plus_code": {"compound_code": "9W32+73 Mexico City", "global_code": "76F29W32+73"}, "rating": 4, "reference": "ChIJdWuoyeL90YURsObxRnvXgdg", "types": ["restaurant", "food", "point_of_interest", "establishment"], "user_ratings_total": 41}, {"business_status": "OPERATIONAL", "formatted_address": "Ermita Iztapalapa 1131, San Lucas, Iztapalapa, 09000 Ciudad de M\u00e9xico, CDMX", "geometry": {"location": {"lat": 19.3564474, "lng": -99.0973829}, "viewport": {"northeast": {"lat": 19.35791762989273, "lng": -99.09607142010728}, "southwest": {"lat": 19.35521797010728, "lng": -99.09877107989273}}}, "icon": "https://maps.gstatic.com/mapfiles/place_api/icons/v1/png_71/restaurant-71.png", "name": "Barbacoa Mauro Y Mari", "photos": [{"height": 3120, "html_attributions": ["<a href=\"https://maps.google.com/maps/contrib/100805866567371670597\">Helvin Puente</a>"], "photo_reference": "CmRaAAAAJqIHkuEah3HHNBNG692D0eUfVutw_h2Eox25E2A9uo7FZ33DqDIaRI_c-w9zSSj9xdsr5sUGUhKROSXwcu_d-mKJHjRc73JuGtb5Dnk4tRJAkOiEDc6wmG3Yw2eANahoEhDnp-Q4HgmU3Z7c0sIKjp4gGhSlJwxJfYbkLDV3gft4KYWZG4DxVA", "width": 4160}], "place_id": "ChIJTy_CoUP90YURrzU2lCZ1SUg", "plus_code": {"compound_code": "9W43+H2 Mexico City", "global_code": "76F29W43+H2"}, "rating": 4.7, "reference": "ChIJTy_CoUP90YURrzU2lCZ1SUg", "types": ["restaurant", "food", "point_of_interest", "establishment"], "user_ratings_total": 93}, {"business_status": "OPERATIONAL", "formatted_address": "Sur 129 156, Los Cipreses, Iztapalapa, 09820 Ciudad de M\u00e9xico, CDMX", "geometry": {"location": {"lat": 19.3511687, "lng": -99.1074759}, "viewport": {"northeast": {"lat": 19.35252237989272, "lng": -99.10618757010728}, "southwest": {"lat": 19.34982272010728, "lng": -99.10888722989273}}}, "icon": "https://maps.gstatic.com/mapfiles/place_api/icons/v1/png_71/restaurant-71.png", "name": "Don Carb\u00f3n", "opening_hours": {"open_now": true}, "photos": [{"height": 720, "html_attributions": ["<a href=\"https://maps.google.com/maps/contrib/111183353699848743255\">A Google User</a>"], "photo_reference": "CmRaAAAArUVNP-KIYuBw1qWoi-JYICAjoxrn64VaXCqGlw8D-QY9A_OtrzzdCm3a19wJaISERXjPP4o2SGJpkfg2bZQdKR5VeNGHTEMA5LvsFjA5CD0L8VQif_r-i0zsE42PE4TAEhB_fBwAGY_dwf0Q33aK3uuhGhRLJRolGZVT84DgJk-wFApByRhncA", "width": 1280}], "place_id": "ChIJAQDD5QX-0YURlxc_Cj3Dw6I", "plus_code": {"compound_code": "9V2V+F2 Mexico City", "global_code": "76F29V2V+F2"}, "rating": 4.4, "reference": "ChIJAQDD5QX-0YURlxc_Cj3Dw6I", "types": ["restaurant", "food", "point_of_interest", "establishment"], "user_ratings_total": 84}, {"business_status": "OPERATIONAL", "formatted_address": "Xochitl, Iztapalapa, 09820 Ciudad de M\u00e9xico, CDMX", "geometry": {"location": {"lat": 19.3469098, "lng": -99.0996594}, "viewport": {"northeast": {"lat": 19.34826887989272, "lng": -99.09834112010728}, "southwest": {"lat": 19.34556922010728, "lng": -99.10104077989273}}}, "icon": "https://maps.gstatic.com/mapfiles/place_api/icons/v1/png_71/restaurant-71.png", "name": "Comida", "place_id": "ChIJn53X3v390YUReXekYzknzio", "plus_code": {"compound_code": "8WW2+Q4 Mexico City", "global_code": "76F28WW2+Q4"}, "rating": 0, "reference": "ChIJn53X3v390YUReXekYzknzio", "types": ["restaurant", "food", "point_of_interest", "establishment"], "user_ratings_total": 0}, {"business_status": "OPERATIONAL", "formatted_address": "Tlascostituyal 12, Amp Ricardo Flores Mag\u00f3n, Iztapalapa, 09828 Ciudad de M\u00e9xico, CDMX", "geometry": {"location": {"lat": 19.3536829, "lng": -99.0995416}, "viewport": {"northeast": {"lat": 19.35499757989272, "lng": -99.09820852010728}, "southwest": {"lat": 19.35229792010728, "lng": -99.10090817989273}}}, "icon": "https://maps.gstatic.com/mapfiles/place_api/icons/v1/png_71/restaurant-71.png", "name": "La cocine", "place_id": "ChIJDVMbXwb90YURn8zVfHlw5Us", "plus_code": {"compound_code": "9W32+F5 Mexico City", "global_code": "76F29W32+F5"}, "rating": 0, "reference": "ChIJDVMbXwb90YURn8zVfHlw5Us", "types": ["restaurant", "food", "point_of_interest", "establishment"], "user_ratings_total": 0}]