[{"business_status": "OPERATIONAL", "geometry": {"location": {"lat": 19.3547668, "lng": -99.1039752}, "viewport": {"northeast": {"lat": 19.3566721302915, "lng": -99.1025714197085}, "southwest": {"lat": 19.3539741697085, "lng": -99.1052693802915}}}, "icon": "https://maps.gstatic.com/mapfiles/place_api/icons/v1/png_71/shopping-71.png", "name": "Bodega Aurrera Iztapalapa", "opening_hours": {"open_now": true}, "photos": [{"height": 3120, "html_attributions": ["<a href=\"https://maps.google.com/maps/contrib/117238907925946526386\">maria teresa Fr</a>"], "photo_reference": "CmRaAAAASvsCk26GyXRk4EGXoAvfjQ9Qopi5K7zJ8h-q89uDwO6880_KOzfbycrXMViuI5ClR9A-HGaSD3J_R0BnjflQhqVfApQofUdbUnV3q4L0g79XKV_bZ6HbDVkxEbfvEovFEhD_RSMetHGiZIN5B6bVBOy7GhR_wevTFKqt1aojlS6771bGjnMXzQ", "width": 4160}], "place_id": "ChIJt68eYuL90YUROsRUgLNb0oo", "plus_code": {"compound_code": "9V3W+WC Mexico City, CDMX, Mexico", "global_code": "76F29V3W+WC"}, "rating": 3.9, "reference": "ChIJt68eYuL90YUROsRUgLNb0oo", "scope": "GOOGLE", "types": ["supermarket", "atm", "grocery_or_supermarket", "finance", "food", "point_of_interest", "store", "establishment"], "user_ratings_total": 5855, "vicinity": "Iztapalapa Av, Ermita Iztapalapa 875, Santa Isabel Industrial, Ciudad de M\u00e9xico"}, {"business_status": "OPERATIONAL", "geometry": {"location": {"lat": 19.350681, "lng": -99.1027572}, "viewport": {"northeast": {"lat": 19.3521301802915, "lng": -99.10174296970848}, "southwest": {"lat": 19.3494322197085, "lng": -99.1044409302915}}}, "icon": "https://maps.gstatic.com/mapfiles/place_api/icons/v1/png_71/shopping-71.png", "name": "Comercializadora y Ferreter\u00eda Shuma", "opening_hours": {"open_now": false}, "place_id": "ChIJm6riqgf-0YURy9Atzw-Uovs", "plus_code": {"compound_code": "9V2W+7V Mexico City, CDMX, Mexico", "global_code": "76F29V2W+7V"}, "rating": 3.9, "reference": "ChIJm6riqgf-0YURy9Atzw-Uovs", "scope": "GOOGLE", "types": ["home_goods_store", "point_of_interest", "store", "establishment"], "user_ratings_total": 17, "vicinity": "Camino Antiguo a Culhuacan 160, Estrella del Sur, Ciudad de M\u00e9xico"}, {"business_status": "OPERATIONAL", "geometry": {"location": {"lat": 19.3511082, "lng": -99.1034524}, "viewport": {"northeast": {"lat": 19.3524433302915, "lng": -99.1020570697085}, "southwest": {"lat": 19.3497453697085, "lng": -99.1047550302915}}}, "icon": "https://maps.gstatic.com/mapfiles/place_api/icons/v1/png_71/shopping-71.png", "name": "F & F Wood Specialists, S.A. De C.V.", "opening_hours": {"open_now": false}, "photos": [{"height": 1200, "html_attributions": ["<a href=\"https://maps.google.com/maps/contrib/109604562740581178486\">F &amp; F Especialistas En Madera, S.A. De C.V.</a>"], "photo_reference": "CmRaAAAAxMP1HRtnTrFDjYw1Lw3zZDEu2JHE2VFkrtnwFDNnaUc9wTI0kQ3rYjbvy6F-oRt5ggoqFqjdM6-HHUij7YeGYASMu3w4MyoerujQKgIzRkVTzKVVqmyHZRbwuOneUZJlEhC-iHUV8o1WuzVLh0toNMIkGhTdBfbdeOGG_Gw-l5sHE1g3jNVQ3Q", "width": 803}], "place_id": "ChIJP4f6Zgb-0YURyx_eCHHEcR0", "plus_code": {"compound_code": "9V2W+CJ Mexico City, CDMX, Mexico", "global_code": "76F29V2W+CJ"}, "rating": 3.9, "reference": "ChIJP4f6Zgb-0YURyx_eCHHEcR0", "scope": "GOOGLE", "types": ["furniture_store", "home_goods_store", "point_of_interest", "store", "establishment"], "user_ratings_total": 65, "vicinity": "Camino Antiguo a Culhuacan 141 - 1, Santa Isabel Industrial, Ciudad de M\u00e9xico"}, {"business_status": "OPERATIONAL", "geometry": {"location": {"lat": 19.3519703, "lng": -99.1045695}, "viewport": {"northeast": {"lat": 19.3532815302915, "lng": -99.1031500197085}, "southwest": {"lat": 19.3505835697085, "lng": -99.1058479802915}}}, "icon": "https://maps.gstatic.com/mapfiles/place_api/icons/v1/png_71/shopping-71.png", "name": "Compa\u00f1ia Industrial Ceima Rattan Sa De Cv", "place_id": "ChIJs3OvLgb-0YURmKpcZdW4pgg", "plus_code": {"compound_code": "9V2W+Q5 Mexico City, CDMX, Mexico", "global_code": "76F29V2W+Q5"}, "rating": 4, "reference": "ChIJs3OvLgb-0YURmKpcZdW4pgg", "scope": "GOOGLE", "types": ["furniture_store", "home_goods_store", "point_of_interest", "store", "establishment"], "user_ratings_total": 4, "vicinity": "Arroz 115, Santa Isabel Industrial, Ciudad de M\u00e9xico"}, {"business_status": "OPERATIONAL", "geometry": {"location": {"lat": 19.35083329999999, "lng": -99.1027778}, "viewport": {"northeast": {"lat": 19.3522727302915, "lng": -99.10173091970849}, "southwest": {"lat": 19.34957476970849, "lng": -99.10442888029151}}}, "icon": "https://maps.gstatic.com/mapfiles/place_api/icons/v1/png_71/shopping-71.png", "name": "Muebles Monaco", "opening_hours": {"open_now": false}, "photos": [{"height": 2560, "html_attributions": ["<a href=\"https://maps.google.com/maps/contrib/101403928826192279758\">Miguel Angel Cruz Ortiz</a>"], "photo_reference": "CmRaAAAAfPqgcqBN6Fa_N7nRCpH4C_2jyLZMLiTOEmcdYe-TDrn0KK8BSqGFXhZ2l2RcjNRNI4dUN2eZUTiOdW1JstrdiTsHNrUZD5sRFdn7iGWrbBuSj-UUv2FPmAE9FZpH5LXYEhAcs3ExRBygaL0HuqSVk6mwGhSx1zmAtGZaF27HBcg7PllQWGjKPg", "width": 1536}], "place_id": "ChIJC_gFqwf-0YUR_iZ6kU8u4qc", "plus_code": {"compound_code": "9V2W+8V Mexico City, CDMX, Mexico", "global_code": "76F29V2W+8V"}, "rating": 4.1, "reference": "ChIJC_gFqwf-0YUR_iZ6kU8u4qc", "scope": "GOOGLE", "types": ["furniture_store", "home_goods_store", "point_of_interest", "store", "establishment"], "user_ratings_total": 78, "vicinity": "Camino Antiguo a Culhuacan 146, Estrella del Sur, Ciudad de M\u00e9xico"}, {"business_status": "OPERATIONAL", "geometry": {"location": {"lat": 19.3536963, "lng": -99.1022789}, "viewport": {"northeast": {"lat": 19.3550643302915, "lng": -99.10098781970848}, "southwest": {"lat": 19.35236636970849, "lng": -99.1036857802915}}}, "icon": "https://maps.gstatic.com/mapfiles/place_api/icons/v1/png_71/shopping-71.png", "name": "Violeta Marisol Santander Maya", "place_id": "ChIJr32XFgj-0YUR17W4xfS5JYk", "plus_code": {"compound_code": "9V3X+F3 Mexico City, CDMX, Mexico", "global_code": "76F29V3X+F3"}, "reference": "ChIJr32XFgj-0YUR17W4xfS5JYk", "scope": "GOOGLE", "types": ["point_of_interest", "store", "establishment"], "vicinity": "Camino Antiguo a Culhuacan 61, Iztapalapa, Ciudad de M\u00e9xico"}, {"business_status": "OPERATIONAL", "geometry": {"location": {"lat": 19.3508154, "lng": -99.10056569999999}, "viewport": {"northeast": {"lat": 19.3521604302915, "lng": -99.09920561970848}, "southwest": {"lat": 19.3494624697085, "lng": -99.1019035802915}}}, "icon": "https://maps.gstatic.com/mapfiles/place_api/icons/v1/png_71/shopping-71.png", "name": "ABARROTES VINOS Y LICORES EL TREBOL", "opening_hours": {"open_now": true}, "place_id": "ChIJYxvqaP390YUR2dUhbYi0oTY", "plus_code": {"compound_code": "9V2X+8Q Mexico City, CDMX, Mexico", "global_code": "76F29V2X+8Q"}, "rating": 5, "reference": "ChIJYxvqaP390YUR2dUhbYi0oTY", "scope": "GOOGLE", "types": ["convenience_store", "liquor_store", "food", "point_of_interest", "store", "establishment"], "user_ratings_total": 3, "vicinity": "Por Arroyo Tlaloc, Puentetitla 117, Estrella del Sur, Ciudad de M\u00e9xico"}, {"business_status": "OPERATIONAL", "geometry": {"location": {"lat": 19.3506891, "lng": -99.10357800000001}, "viewport": {"northeast": {"lat": 19.35207813029151, "lng": -99.10256431970849}, "southwest": {"lat": 19.3493801697085, "lng": -99.10526228029151}}}, "icon": "https://maps.gstatic.com/mapfiles/place_api/icons/v1/png_71/generic_business-71.png", "name": "OCTANORM", "opening_hours": {"open_now": false}, "photos": [{"height": 2448, "html_attributions": ["<a href=\"https://maps.google.com/maps/contrib/111019827410767212128\">Viridiana Antele</a>"], "photo_reference": "CmRaAAAAGn7q807MRmc3DiuO30UScAyEr1Ri6xwcOFH67-AFOtJ-ITibg62ms6mf84dlbr5IljBdM0S7R-K24PoD_c0yd5BZ6cFedWtACU_hvgA_r9e-qM2M5mCAc8qCCxalpbL8EhAEzVO66-26dBaZmrBDEwMBGhThKB5ePU8JPha1sjQkbockeIwbPA", "width": 3264}], "place_id": "ChIJ6dKKrQv90YURmTA-2B0IJqA", "plus_code": {"compound_code": "9V2W+7H Mexico City, CDMX, Mexico", "global_code": "76F29V2W+7H"}, "rating": 4.6, "reference": "ChIJ6dKKrQv90YURmTA-2B0IJqA", "scope": "GOOGLE", "types": ["general_contractor", "point_of_interest", "store", "establishment"], "user_ratings_total": 39, "vicinity": "Vaqueros 74-A, Santa Isabel Industrial, Ciudad de M\u00e9xico"}, {"business_status": "OPERATIONAL", "geometry": {"location": {"lat": 19.349299, "lng": -99.10110460000001}, "viewport": {"northeast": {"lat": 19.3506735802915, "lng": -99.0997446197085}, "southwest": {"lat": 19.3479756197085, "lng": -99.10244258029151}}}, "icon": "https://maps.gstatic.com/mapfiles/place_api/icons/v1/png_71/pharmacy-71.png", "name": "FARMACIA", "opening_hours": {"open_now": true}, "place_id": "ChIJi9VkqOIBzoURHZTSO03l2M4", "plus_code": {"compound_code": "8VXX+PH Mexico City, CDMX, Mexico", "global_code": "76F28VXX+PH"}, "reference": "ChIJi9VkqOIBzoURHZTSO03l2M4", "scope": "GOOGLE", "types": ["pharmacy", "health", "point_of_interest", "store", "establishment"], "vicinity": "Esquina Puente Titla, Tonatiuh, Estrella del Sur, Ciudad de M\u00e9xico"}, {"business_status": "OPERATIONAL", "geometry": {"location": {"lat": 19.3490297, "lng": -99.1008615}, "viewport": {"northeast": {"lat": 19.3503651302915, "lng": -99.09947971970848}, "southwest": {"lat": 19.34766716970849, "lng": -99.1021776802915}}}, "icon": "https://maps.gstatic.com/mapfiles/place_api/icons/v1/png_71/pharmacy-71.png", "name": "FARMACIA IDEAL", "opening_hours": {"open_now": true}, "place_id": "ChIJmU-Yhf390YURihTPPW2M5kk", "plus_code": {"compound_code": "8VXX+JM Mexico City, CDMX, Mexico", "global_code": "76F28VXX+JM"}, "reference": "ChIJmU-Yhf390YURihTPPW2M5kk", "scope": "GOOGLE", "types": ["pharmacy", "health", "point_of_interest", "store", "establishment"], "vicinity": "Mz 32 Lt 2, Netzahualpilli, Estrella del Sur, Ciudad de M\u00e9xico"}, {"business_status": "OPERATIONAL", "geometry": {"location": {"lat": 19.3536644, "lng": -99.1032997}, "viewport": {"northeast": {"lat": 19.35503318029151, "lng": -99.10199206970849}, "southwest": {"lat": 19.3523352197085, "lng": -99.10469003029151}}}, "icon": "https://maps.gstatic.com/mapfiles/place_api/icons/v1/png_71/shopping-71.png", "name": "Industrias Llordec", "place_id": "ChIJsR-GaAj-0YURbX5bIHn-rHs", "plus_code": {"compound_code": "9V3W+FM Mexico City, CDMX, Mexico", "global_code": "76F29V3W+FM"}, "reference": "ChIJsR-GaAj-0YURbX5bIHn-rHs", "scope": "GOOGLE", "types": ["furniture_store", "home_goods_store", "point_of_interest", "store", "establishment"], "vicinity": "Arroz 56, Ciudad de M\u00e9xico"}, {"business_status": "OPERATIONAL", "geometry": {"location": {"lat": 19.3527792, "lng": -99.1038337}, "viewport": {"northeast": {"lat": 19.3541443802915, "lng": -99.10251766970848}, "southwest": {"lat": 19.3514464197085, "lng": -99.1052156302915}}}, "icon": "https://maps.gstatic.com/mapfiles/place_api/icons/v1/png_71/shopping-71.png", "name": "Janel Planta Arroz.", "photos": [{"height": 3136, "html_attributions": ["<a href=\"https://maps.google.com/maps/contrib/105362987384898225424\">RAUL TORRES CARRANZA</a>"], "photo_reference": "CmRaAAAAd56Wa8yOIU2CEvBcjhdaLVnH4Eldw3xEXlLX3pTfTjOyJsoWrNb9zp-z9q9v1A-2LuulWLrDHZMMBKyEAQlDSTGmF9FNVTdW01siZYMjMQiPYzqNVznyocldGL1SPNVLEhAgLdEzSzvoomDpwNivemUtGhQgd5M3uomXdAe3S-hgIuoXlcwcXA", "width": 4224}], "place_id": "ChIJpUsifAj-0YURYohGUT7gKWo", "plus_code": {"compound_code": "9V3W+4F Mexico City, CDMX, Mexico", "global_code": "76F29V3W+4F"}, "rating": 3.7, "reference": "ChIJpUsifAj-0YURYohGUT7gKWo", "scope": "GOOGLE", "types": ["home_goods_store", "point_of_interest", "store", "establishment"], "user_ratings_total": 14, "vicinity": "Arroz 90, Santa Isabel Industrial, Ciudad de M\u00e9xico"}, {"business_status": "OPERATIONAL", "geometry": {"location": {"lat": 19.3532844, "lng": -99.0996187}, "viewport": {"northeast": {"lat": 19.3546088802915, "lng": -99.0982105197085}, "southwest": {"lat": 19.3519109197085, "lng": -99.10090848029151}}}, "icon": "https://maps.gstatic.com/mapfiles/place_api/icons/v1/png_71/shopping-71.png", "name": "Casproc", "place_id": "ChIJIZ4qQv390YUR29VtiHf7hgE", "plus_code": {"compound_code": "9W32+85 Mexico City, CDMX, Mexico", "global_code": "76F29W32+85"}, "reference": "ChIJIZ4qQv390YUR29VtiHf7hgE", "scope": "GOOGLE", "types": ["electronics_store", "point_of_interest", "store", "establishment"], "vicinity": "Puentetitla 100, Estrella del Sur, Ciudad de M\u00e9xico"}, {"business_status": "OPERATIONAL", "geometry": {"location": {"lat": 19.3489373, "lng": -99.0998929}, "viewport": {"northeast": {"lat": 19.3502951802915, "lng": -99.0985706697085}, "southwest": {"lat": 19.3475972197085, "lng": -99.10126863029151}}}, "icon": "https://maps.gstatic.com/mapfiles/place_api/icons/v1/png_71/shopping-71.png", "name": "ABARROTES, VINOS Y LICORES LOS COMPAS", "opening_hours": {"open_now": true}, "place_id": "ChIJcXmxov390YURu7C3eDk8rbc", "plus_code": {"compound_code": "8WX2+H2 Mexico City, CDMX, Mexico", "global_code": "76F28WX2+H2"}, "reference": "ChIJcXmxov390YURu7C3eDk8rbc", "scope": "GOOGLE", "types": ["convenience_store", "food", "point_of_interest", "store", "establishment"], "vicinity": "Entre Calle Moctezuma y Calle Tizoc, Xochiquetzal, Estrella del Sur, Iztapalapa, Ciudad de M\u00e9xico"}, {"business_status": "OPERATIONAL", "geometry": {"location": {"lat": 19.35393999999999, "lng": -99.103011}, "viewport": {"northeast": {"lat": 19.3553301802915, "lng": -99.1016467697085}, "southwest": {"lat": 19.3526322197085, "lng": -99.1043447302915}}}, "icon": "https://maps.gstatic.com/mapfiles/place_api/icons/v1/png_71/shopping-71.png", "name": "QUELTRO S.A. DE C.V.", "opening_hours": {"open_now": false}, "photos": [{"height": 2254, "html_attributions": ["<a href=\"https://maps.google.com/maps/contrib/109771367623912697193\">Daniel Cruz Bautista</a>"], "photo_reference": "CmRaAAAApJW0DQRosYPR3naP3i9hE7udNB_zprGbvV5WmexD_jvbv1yXTGtYQZOKJuAsT6h0IY2ruUP7iLoMtr-SOBzKbfgC3iGR3sn3kFtglBam9Uy0fi3EsjmoWJnLk_HinlolEhCDl3MYJOjFXqyXyhIPqSeQGhQsfiVUlXPW3UTcIJJUerHV7JZW3w", "width": 3005}], "place_id": "ChIJDTrHXgj-0YUR5ERQij1TEIg", "plus_code": {"compound_code": "9V3W+HQ Mexico City, CDMX, Mexico", "global_code": "76F29V3W+HQ"}, "rating": 4.4, "reference": "ChIJDTrHXgj-0YUR5ERQij1TEIg", "scope": "GOOGLE", "types": ["point_of_interest", "store", "establishment"], "user_ratings_total": 21, "vicinity": "Pastores 73, Santa Isabel Industrial, Ciudad de M\u00e9xico"}, {"business_status": "OPERATIONAL", "geometry": {"location": {"lat": 19.3533018, "lng": -99.09940689999999}, "viewport": {"northeast": {"lat": 19.35466003029151, "lng": -99.0980815197085}, "southwest": {"lat": 19.3519620697085, "lng": -99.10077948029151}}}, "icon": "https://maps.gstatic.com/mapfiles/place_api/icons/v1/png_71/shopping-71.png", "name": "EL RANCHERO CHIDO", "opening_hours": {"open_now": true}, "photos": [{"height": 1920, "html_attributions": ["<a href=\"https://maps.google.com/maps/contrib/102114583065610296151\">Jessica lopez ch</a>"], "photo_reference": "CmRaAAAAT-yUzb3dblWDecovyr4Aseq23UkDijcp7WzvqFeKdwDxXSGS4Oejsc8rNakHs_GxTubuS037LHcbg-9jFzT1fZMt-ZlQbzvtZlB1YacDg2guJrAiTg7hh4ch0pstobYMEhDbT8r1Gj8NzSeSOyxs74ZdGhTdxgRiWbcfOMD__vvwNSaGG2g64Q", "width": 1080}], "place_id": "ChIJh_2Gz-L90YURyPyR5IKGSOk", "plus_code": {"compound_code": "9W32+86 Mexico City, CDMX, Mexico", "global_code": "76F29W32+86"}, "rating": 3.5, "reference": "ChIJh_2Gz-L90YURyPyR5IKGSOk", "scope": "GOOGLE", "types": ["food", "point_of_interest", "store", "establishment"], "user_ratings_total": 215, "vicinity": "Puentetitla 1, Ricardo Flores Mag\u00f3n, Ciudad de M\u00e9xico"}, {"business_status": "OPERATIONAL", "geometry": {"location": {"lat": 19.3482267, "lng": -99.10128379999999}, "viewport": {"northeast": {"lat": 19.3495632802915, "lng": -99.09986926970849}, "southwest": {"lat": 19.3468653197085, "lng": -99.1025672302915}}}, "icon": "https://maps.gstatic.com/mapfiles/place_api/icons/v1/png_71/shopping-71.png", "name": "Tienda La Jarocha", "opening_hours": {"open_now": true}, "place_id": "ChIJg5Tbiv390YURN3kBnqV2kj8", "plus_code": {"compound_code": "8VXX+7F Mexico City, CDMX, Mexico", "global_code": "76F28VXX+7F"}, "reference": "ChIJg5Tbiv390YURN3kBnqV2kj8", "scope": "GOOGLE", "types": ["convenience_store", "food", "point_of_interest", "store", "establishment"], "vicinity": "Netzahualpilli 105, Estrella del Sur, Ciudad de M\u00e9xico"}, {"business_status": "OPERATIONAL", "geometry": {"location": {"lat": 19.3482783, "lng": -99.1003882}, "viewport": {"northeast": {"lat": 19.34959858029151, "lng": -99.0989623697085}, "southwest": {"lat": 19.3469006197085, "lng": -99.10166033029151}}}, "icon": "https://maps.gstatic.com/mapfiles/place_api/icons/v1/png_71/shopping-71.png", "name": "Itasa", "place_id": "ChIJARShlP390YURLn8vxosCEew", "plus_code": {"compound_code": "8VXX+8R Mexico City, CDMX, Mexico", "global_code": "76F28VXX+8R"}, "reference": "ChIJARShlP390YURLn8vxosCEew", "scope": "GOOGLE", "types": ["hardware_store", "point_of_interest", "store", "establishment"], "vicinity": "Xochiquetzal 15, Estrella del Sur, Ciudad de M\u00e9xico"}, {"business_status": "OPERATIONAL", "geometry": {"location": {"lat": 19.3522899, "lng": -99.0984639}, "viewport": {"northeast": {"lat": 19.3536202802915, "lng": -99.0970645697085}, "southwest": {"lat": 19.3509223197085, "lng": -99.09976253029151}}}, "icon": "https://maps.gstatic.com/mapfiles/place_api/icons/v1/png_71/shopping-71.png", "name": "La Real Michoacana", "opening_hours": {"open_now": true}, "photos": [{"height": 1440, "html_attributions": ["<a href=\"https://maps.google.com/maps/contrib/116615513484329275495\">La Real Michoacana</a>"], "photo_reference": "CmRaAAAAG38BZC39VX0cbj9nPvmGxiHyBe0zqUDexe2kkm25yJ4eSz1fsiteZhl3qHQR8wGiIQ0JecmOtQkBiGMi7r4R07pA-jGsJHu3vVaiUtRHdJOxVy5NlhqgzQy9MdXxDr0mEhA0gqjr1rZ2A5ZwliGhir5VGhQ-rqv7Acfq58Nji_IYJFe5y-DhxQ", "width": 2560}], "place_id": "ChIJD3w71Pz90YURZLotgBq6h5g", "plus_code": {"compound_code": "9W22+WJ Estrella del Sur, Mexico City, CDMX, Mexico", "global_code": "76F29W22+WJ"}, "rating": 4.5, "reference": "ChIJD3w71Pz90YURZLotgBq6h5g", "scope": "GOOGLE", "types": ["food", "point_of_interest", "store", "establishment"], "user_ratings_total": 19, "vicinity": "Mercado, Estrella del Sur, Iztapalapa"}, {"business_status": "OPERATIONAL", "geometry": {"location": {"lat": 19.35370499999999, "lng": -99.09936599999999}, "viewport": {"northeast": {"lat": 19.3550430302915, "lng": -99.0979880197085}, "southwest": {"lat": 19.3523450697085, "lng": -99.10068598029152}}}, "icon": "https://maps.gstatic.com/mapfiles/place_api/icons/v1/png_71/shopping-71.png", "name": "FlavorCup Iztapalapa", "opening_hours": {"open_now": true}, "photos": [{"height": 3456, "html_attributions": ["<a href=\"https://maps.google.com/maps/contrib/103192964286047952723\">Herbert Maldonado</a>"], "photo_reference": "CmRaAAAARzB-fwdy-YPW6OxWNTRW7WnPoPCZEtYXN-PLBIEPOaj1VtMOqXSctnRhEAf8CTn4260Cu-q0LsNEs1fsqrJvCdbHM0WooLS2JD6rb79mr6Lr3fnO4FKg1OzpoFbl-ZSjEhBZxXPrF03tLU137CnoxgiZGhRa9ZdG1e2UCgZYvSxVm0UXLRrtUQ", "width": 5184}], "place_id": "ChIJO_y7xOL90YURM8avLLGZJkM", "plus_code": {"compound_code": "9W32+F7 Mexico City, CDMX, Mexico", "global_code": "76F29W32+F7"}, "price_level": 2, "rating": 4.2, "reference": "ChIJO_y7xOL90YURM8avLLGZJkM", "scope": "GOOGLE", "types": ["cafe", "food", "point_of_interest", "store", "establishment"], "user_ratings_total": 120, "vicinity": "Puente Titla, Ampliaci\u00f3n Ricardo Flores Mag\u00f3n, Iztapalapa"}]