[{"business_status": "OPERATIONAL", "formatted_address": "Av. Capit\u00e1n Carlos Le\u00f3n S/N, Pe\u00f1\u00f3n de los Ba\u00f1os, Venustiano Carranza, 15620 Ciudad de M\u00e9xico, CDMX", "geometry": {"location": {"lat": 19.4360762, "lng": -99.07190829999999}, "viewport": {"northeast": {"lat": 19.4490293, "lng": -99.06525939999999}, "southwest": {"lat": 19.4092757, "lng": -99.091855}}}, "icon": "https://maps.gstatic.com/mapfiles/place_api/icons/v1/png_71/airport-71.png", "name": "Mexico City International Airport", "photos": [{"height": 2448, "html_attributions": ["<a href=\"https://maps.google.com/maps/contrib/101037943525485780971\">Javier Bello Hern\u00e1ndez</a>"], "photo_reference": "CmRZAAAAuE5NuuyWd9CePc3IgOcEgMyd54ClSgR5wddJ6WNHqgyyLLLaJ1fv23iFh0A8bw4tDRkJj1dE91gVNpt5yR3BHO5uR2Idx_PdTDM2o20zq9esAltnc2Clzo9iKSApa0Y5EhDdUoxuGau_yVtOsxMeHxMgGhReCui9ZEkXVpcSeWQXqRQb8g1DIg", "width": 3264}], "place_id": "ChIJnyKTvXf80YURRNK6YfV-0AI", "plus_code": {"compound_code": "CWPH+C6 Mexico City", "global_code": "76F2CWPH+C6"}, "rating": 4.2, "reference": "ChIJnyKTvXf80YURRNK6YfV-0AI", "types": ["airport", "point_of_interest", "establishment"], "user_ratings_total": 19547}, {"business_status": "OPERATIONAL", "formatted_address": "Pe\u00f1\u00f3n de los Ba\u00f1os, Venustiano Carranza, 15620 Mexico City", "geometry": {"location": {"lat": 19.437553, "lng": -99.07925999999999}, "viewport": {"northeast": {"lat": 19.43890282989272, "lng": -99.07791017010727}, "southwest": {"lat": 19.43620317010728, "lng": -99.08060982989272}}}, "icon": "https://maps.gstatic.com/mapfiles/place_api/icons/v1/png_71/airport-71.png", "name": "Aeropuerto CDMX", "photos": [{"height": 2736, "html_attributions": ["<a href=\"https://maps.google.com/maps/contrib/106733768857056283514\">A Google User</a>"], "photo_reference": "CmRaAAAAOqO49hW0eg0Pp2IKIB7zE8mBuuQj9vDmJUJy-FsHqKuO-T9rLFtayQowBuWKS1Rfo6j8A-uB9PhqHAlU0MAxMWeRejzFeijKpZ6y05qkW7i12a6V-qs1O391fGbNJh7sEhAQhIsoIIHUZ-2iaQALDMIjGhTO0qjtl-4XsJCz1d5f093nWUblzw", "width": 3648}], "place_id": "ChIJQzxh2BT70YUR2gN9vGkuO1U", "plus_code": {"compound_code": "CWQC+27 Mexico City", "global_code": "76F2CWQC+27"}, "rating": 4.5, "reference": "ChIJQzxh2BT70YUR2gN9vGkuO1U", "types": ["airport", "point_of_interest", "establishment"], "user_ratings_total": 4772}, {"business_status": "OPERATIONAL", "formatted_address": "Sur 69 a 502, Justo Sierra, Iztapalapa, 03400 Ciudad de M\u00e9xico, CDMX", "geometry": {"location": {"lat": 19.3649701, "lng": -99.13609439999999}, "viewport": {"northeast": {"lat": 19.36642732989272, "lng": -99.13473827010728}, "southwest": {"lat": 19.36372767010728, "lng": -99.13743792989273}}}, "icon": "https://maps.gstatic.com/mapfiles/place_api/icons/v1/png_71/airport-71.png", "name": "Aeropuerto nacional Carranza", "opening_hours": {"open_now": true}, "photos": [{"height": 1334, "html_attributions": ["<a href=\"https://maps.google.com/maps/contrib/117506808984741965915\">A Google User</a>"], "photo_reference": "CmRaAAAAqDSWviNAdcnUuV7GFYy2krPkKYLGWK7JguDrGepXHhqgwrwlo6gq_7ze2MT0-99hqosL0MTPm--wK7wGuc7cQKGkj9jVQn7fjyqROxb0_772tiHJDH-NrOL7eLOxXZ0bEhBaNVkDz3kEafZg7FQzntRQGhR8iXecMbp8UC6gRYS--C-rYIuAow", "width": 750}], "place_id": "ChIJCS7trzj_0YURb_i7L4PbQDs", "plus_code": {"compound_code": "9V77+XH Mexico City", "global_code": "76F29V77+XH"}, "rating": 0, "reference": "ChIJCS7trzj_0YURb_i7L4PbQDs", "types": ["airport", "point_of_interest", "establishment"], "user_ratings_total": 0}, {"business_status": "OPERATIONAL", "formatted_address": "15000, Calz. Ignacio Zaragoza 451, Ignacio Zaragoza, Venustiano Carranza, Ciudad de M\u00e9xico, CDMX", "geometry": {"location": {"lat": 19.4203955, "lng": -99.0975931}, "viewport": {"northeast": {"lat": 19.42173637989272, "lng": -99.09625072010729}, "southwest": {"lat": 19.41903672010728, "lng": -99.09895037989273}}}, "icon": "https://maps.gstatic.com/mapfiles/place_api/icons/v1/png_71/airport-71.png", "name": "Vista Aterrisaje", "place_id": "ChIJvTy4WBz80YURgY3ugxRNHbk", "plus_code": {"compound_code": "CWC2+5X Mexico City", "global_code": "76F2CWC2+5X"}, "rating": 0, "reference": "ChIJvTy4WBz80YURgY3ugxRNHbk", "types": ["airport", "point_of_interest", "establishment"], "user_ratings_total": 0}, {"business_status": "OPERATIONAL", "formatted_address": "Av. Capit\u00e1n Carlos Le\u00f3n S/N, M\u00e9xico (Lic. Benito Ju\u00e1rez), Venustiano Carranza, 15620 Ciudad de M\u00e9xico, CDMX", "geometry": {"location": {"lat": 19.4356256, "lng": -99.0825284}, "viewport": {"northeast": {"lat": 19.43699752989273, "lng": -99.08143407010728}, "southwest": {"lat": 19.43429787010728, "lng": -99.08413372989273}}}, "icon": "https://maps.gstatic.com/mapfiles/place_api/icons/v1/png_71/airport-71.png", "name": "Aeropuerto internacional de la CDMX", "place_id": "ChIJW2qBL3r90YURO7V7gGLOCZU", "plus_code": {"compound_code": "CWP8+7X Mexico City", "global_code": "76F2CWP8+7X"}, "rating": 0, "reference": "ChIJW2qBL3r90YURO7V7gGLOCZU", "types": ["airport", "point_of_interest", "establishment"], "user_ratings_total": 0}, {"business_status": "OPERATIONAL", "formatted_address": "Lago 4 Millones 6, Cd Lago, Nezahualc\u00f3yotl, M\u00e9x.", "geometry": {"location": {"lat": 19.4472451, "lng": -99.0472412}, "viewport": {"northeast": {"lat": 19.44859492989272, "lng": -99.04589137010727}, "southwest": {"lat": 19.44589527010728, "lng": -99.04859102989272}}}, "icon": "https://maps.gstatic.com/mapfiles/place_api/icons/v1/png_71/airport-71.png", "name": "Parte tracera del aueropuerto de la CDMX", "photos": [{"height": 1712, "html_attributions": ["<a href=\"https://maps.google.com/maps/contrib/116186264790536531914\">Marco Antonio Valdez Chavez</a>"], "photo_reference": "CmRaAAAAtYzfwoaVPLTn2Wds5JY-ICNxD47xjgj6IT9xEHvihHVb8E5oC8vxbbXm86cA4Du1E56j2nsN-kYLuCHtQqmDSd8Rwy27EKeI3ZbkqwNIRov_-YCtJ1-oI_Fh1D3RieLLEhC6Vn9Vbi5lMZQH1xpEgOR4GhRPINMOAw8RTG55dosI-eZ2XK4nug", "width": 4000}], "place_id": "ChIJa5psjXD70YUR7SU_QFNgrLs", "plus_code": {"compound_code": "CXW3+V4 Ciudad Nezahualc\u00f3yotl, State of Mexico", "global_code": "76F2CXW3+V4"}, "rating": 3.7, "reference": "ChIJa5psjXD70YUR7SU_QFNgrLs", "types": ["airport", "point_of_interest", "establishment"], "user_ratings_total": 3}, {"business_status": "OPERATIONAL", "formatted_address": "M\u00e9xico (Lic. Benito Ju\u00e1rez), Venustiano Carranza, 15620 Mexico City", "geometry": {"location": {"lat": 19.4217537, "lng": -99.0779386}, "viewport": {"northeast": {"lat": 19.42310352989272, "lng": -99.07658877010729}, "southwest": {"lat": 19.42040387010728, "lng": -99.07928842989273}}}, "icon": "https://maps.gstatic.com/mapfiles/place_api/icons/v1/png_71/airport-71.png", "name": "Aeropuerto de M\u00e9xico", "photos": [{"height": 2600, "html_attributions": ["<a href=\"https://maps.google.com/maps/contrib/115033306088130541241\">SERGIO HERNANDEZ</a>"], "photo_reference": "CmRaAAAA7lj6Ycv-Ap1gMgYHizvl79HKQO9tjb6TukQGkIS1Ln5-aHfM6NKuv92iMK-cs5I5bXyc6Sg2Zclfnvj_4mCR0dyVy5d_tZ5gwdjLRbJ7U_IkPocnUoWWTs4t4jzvo3NTEhCfn7J6obRzyaPHrHki5pxaGhTxMDFDWJ6xW7SD-nZIYHZcwTBoIA", "width": 4624}], "place_id": "ChIJX1mXYWr90YURvT1BrLzoY54", "plus_code": {"compound_code": "CWCC+PR Mexico City", "global_code": "76F2CWCC+PR"}, "rating": 4.4, "reference": "ChIJX1mXYWr90YURvT1BrLzoY54", "types": ["airport", "point_of_interest", "establishment"], "user_ratings_total": 209}, {"business_status": "OPERATIONAL", "formatted_address": "Macuspana Kil\u00f3metro 15, Roma Nte., Cuauht\u00e9moc, 86000 Ciudad de M\u00e9xico, Tab.", "geometry": {"location": {"lat": 19.4173937, "lng": -99.1681504}, "viewport": {"northeast": {"lat": 19.41872742989272, "lng": -99.16679692010729}, "southwest": {"lat": 19.41602777010728, "lng": -99.16949657989274}}}, "icon": "https://maps.gstatic.com/mapfiles/place_api/icons/v1/png_71/airport-71.png", "name": "Servico de Apoyo en Tierra", "place_id": "ChIJCWOG0U390YURbLKSSkYe5rI", "rating": 3, "reference": "ChIJCWOG0U390YURbLKSSkYe5rI", "types": ["airport", "point_of_interest", "establishment"], "user_ratings_total": 1}]