[{"business_status": "OPERATIONAL", "formatted_address": "Av. Canal de Garay 3278, La Esperanza, Iztapalapa, 09910 Ciudad de M\u00e9xico, CDMX", "geometry": {"location": {"lat": 19.3127289, "lng": -99.0748394}, "viewport": {"northeast": {"lat": 19.3153629, "lng": -99.07376027010727}, "southwest": {"lat": 19.3118509, "lng": -99.07645992989272}}}, "icon": "https://maps.gstatic.com/mapfiles/place_api/icons/v1/png_71/generic_business-71.png", "name": "\u00a1Kataplum!", "opening_hours": {}, "photos": [{"height": 2322, "html_attributions": ["<a href=\"https://maps.google.com/maps/contrib/108863078906235132129\">oezocar</a>"], "photo_reference": "CmRaAAAABxsftuU8sKxPMYiHe0AnVTVKEVs2XZ4daZb4ETlJrhi9DOWrantbp54tHy46vtd13Ygu82YvvCj8LkX1Pb9LqJE20IzYI16fFc5DLULzqPRTyT8L-A-zOHe4qo88tRMAEhAe7i7hfTqGZJ9DncdNyu0AGhTO8K4x2ibJ0eLthir-jilOb8Cekg", "width": 4128}], "place_id": "ChIJnWNMN0ECzoURbeVqSx2e_po", "plus_code": {"compound_code": "8W7G+33 La Esperanza, Mexico City", "global_code": "76F28W7G+33"}, "rating": 4.3, "reference": "ChIJnWNMN0ECzoURbeVqSx2e_po", "types": ["amusement_park", "tourist_attraction", "point_of_interest", "establishment"], "user_ratings_total": 8954}, {"business_status": "OPERATIONAL", "formatted_address": "Esq. Ricardo Monges L\u00f3pez Texmelucan, Educaci\u00f3n, 04400 Ciudad de M\u00e9xico", "geometry": {"location": {"lat": 19.3364507, "lng": -99.13211439999999}, "viewport": {"northeast": {"lat": 19.33780052989272, "lng": -99.13076457010729}, "southwest": {"lat": 19.33510087010728, "lng": -99.13346422989272}}}, "icon": "https://maps.gstatic.com/mapfiles/place_api/icons/v1/png_71/generic_business-71.png", "name": "PARK EDUCATION MARKET SET", "opening_hours": {"open_now": true}, "photos": [{"height": 2560, "html_attributions": ["<a href=\"https://maps.google.com/maps/contrib/111689045529529676166\">A Google User</a>"], "photo_reference": "CmRaAAAA8skdneUHDMHHKHRidV6tnU7mhIthOJlsuDka1BVrpVX4uX2zY9b-k27vnRGG88rMCMkoRtrviMxmZtaZn9fs8zhJTI5aMqhA3Ztz0NJJj3uIxuwlXi6s5vI0kfBHS5FQEhA5LcXKWOrNDo_XKn1xWwQNGhQnaXf0HizboRGLKUh-RPgb82WK4Q", "width": 1440}], "place_id": "ChIJs1miU9gBzoUR8ggjgy5GlEI", "plus_code": {"compound_code": "8VP9+H5 Mexico City", "global_code": "76F28VP9+H5"}, "rating": 4.2, "reference": "ChIJs1miU9gBzoUR8ggjgy5GlEI", "types": ["amusement_park", "point_of_interest", "establishment"], "user_ratings_total": 39}, {"business_status": "OPERATIONAL", "formatted_address": "Carr. Picacho-Ajusco Km 1.5, Jardines del Ajusco, Tlalpan, 14200 Ciudad de M\u00e9xico, CDMX", "geometry": {"location": {"lat": 19.2956057, "lng": -99.21056519999999}, "viewport": {"northeast": {"lat": 19.29689957989272, "lng": -99.20984127010728}, "southwest": {"lat": 19.29419992010728, "lng": -99.21254092989273}}}, "icon": "https://maps.gstatic.com/mapfiles/place_api/icons/v1/png_71/generic_business-71.png", "name": "Six Flags M\u00e9xico", "opening_hours": {}, "photos": [{"height": 2988, "html_attributions": ["<a href=\"https://maps.google.com/maps/contrib/105101789035411922145\">ERICK ANDRES ALANIS VILLEGAS</a>"], "photo_reference": "CmRaAAAApHGyGPLByoES01WMkQp6AnQsMkQHJ4JaJNxMjYruZ1nEgJffqGnagJyBFD0OW134OGpbupmwJwaQ-0FEU1p5btVTTibeHnfJwMGs_xi4ADjULwYMDtfh3hxWc1vFEHt8EhC-8pTW3fdAhwgnlBcmakUMGhTP4zOHZGk-qOxyn2V5BhTkpAWaCw", "width": 5312}], "place_id": "ChIJGZTVlcn_zYURRZxrmu06Qto", "plus_code": {"compound_code": "7QWQ+6Q Mexico City", "global_code": "76F27QWQ+6Q"}, "rating": 4.6, "reference": "ChIJGZTVlcn_zYURRZxrmu06Qto", "types": ["amusement_park", "tourist_attraction", "point_of_interest", "establishment"], "user_ratings_total": 110565}, {"business_status": "OPERATIONAL", "formatted_address": "San Ricardo MZ925 LT15(49, Pedregal de Sta \u00darsula, Coyoac\u00e1n, 04600 Ciudad de M\u00e9xico, CDMX", "geometry": {"location": {"lat": 19.3159584, "lng": -99.1550013}, "viewport": {"northeast": {"lat": 19.31730822989272, "lng": -99.15365147010728}, "southwest": {"lat": 19.31460857010727, "lng": -99.15635112989273}}}, "icon": "https://maps.gstatic.com/mapfiles/place_api/icons/v1/png_71/generic_business-71.png", "name": "Juegos infantiles", "photos": [{"height": 2592, "html_attributions": ["<a href=\"https://maps.google.com/maps/contrib/110658884939245348805\">Miguel Angel Valera M\u00e1rquez</a>"], "photo_reference": "CmRaAAAA7ZX9vcVmgFhskzHBgRQszR7sS7QXEVyu5CnmCewXNuWShPp4ywCHvALVUIXJbDVIOncliw5TV4kgs_RmdSTgKZkhyA9Vdl1bdKEvr9HDYDZT_D7TzmBmiLEGn10NlqroEhCRXe9QsA8ErL_2214PsUhlGhTi3QiIjeYJrA-eg6i1Dkq-vnYInw", "width": 4608}], "place_id": "ChIJP0K0aUIBzoUR3S1WtVwoy6g", "plus_code": {"compound_code": "8R8V+9X Mexico City", "global_code": "76F28R8V+9X"}, "rating": 0, "reference": "ChIJP0K0aUIBzoUR3S1WtVwoy6g", "types": ["amusement_park", "point_of_interest", "establishment"], "user_ratings_total": 0}, {"business_status": "OPERATIONAL", "formatted_address": "Anillo Perif. 3278, Vaso de Regulaci\u00f3n, Iztapalapa, 09910 Ciudad de M\u00e9xico, CDMX", "geometry": {"location": {"lat": 19.3144359, "lng": -99.0769152}, "viewport": {"northeast": {"lat": 19.31608397989272, "lng": -99.07594492010729}, "southwest": {"lat": 19.31338432010728, "lng": -99.07864457989274}}}, "icon": "https://maps.gstatic.com/mapfiles/place_api/icons/v1/png_71/generic_business-71.png", "name": "Las Antenas", "opening_hours": {"open_now": true}, "photos": [{"height": 3456, "html_attributions": ["<a href=\"https://maps.google.com/maps/contrib/110524700479690301119\">Corvus Clan Parkour</a>"], "photo_reference": "CmRaAAAAgyt_c_FfNF2qsCtHB_jAhHJbCAJ4FIAp72EiOSwkgE_DHQOUjxm2UqLiz4bExEN6TzhGudpFyO5I3momc7cZ1RO1s0uCKK8yDuLdB91wMAA-S6MS-iOqjH3Wg8QQXxJsEhDR5LRCG4Wda5_8vZYgJ5wPGhQZuykPIvdytmzvfSQF8bM1Za-7PQ", "width": 4608}], "place_id": "ChIJr2z54cIDzoUR3Lup21LBJ7k", "plus_code": {"compound_code": "8W7F+Q6 Mexico City", "global_code": "76F28W7F+Q6"}, "rating": 4.4, "reference": "ChIJr2z54cIDzoUR3Lup21LBJ7k", "types": ["amusement_park", "point_of_interest", "establishment"], "user_ratings_total": 69}, {"business_status": "OPERATIONAL", "formatted_address": "Carr Panor\u00e1mica Picacho-Ajusco Km11.2 km11.2, 14749 Ciudad de M\u00e9xico", "geometry": {"location": {"lat": 19.2562612, "lng": -99.2424582}, "viewport": {"northeast": {"lat": 19.25761022989272, "lng": -99.24111042010728}, "southwest": {"lat": 19.25491057010728, "lng": -99.24381007989273}}}, "icon": "https://maps.gstatic.com/mapfiles/place_api/icons/v1/png_71/generic_business-71.png", "name": "Dragon Gotcha", "opening_hours": {"open_now": true}, "photos": [{"height": 4608, "html_attributions": ["<a href=\"https://maps.google.com/maps/contrib/110111854316226022815\">Gabriel Ricardo Gonzalez Romo</a>"], "photo_reference": "CmRaAAAAbKHNiCiBP8fHTbIRuWnpoNdtLZFgp8aV0BgqICIlWb3SjaXC0ytA3XfAGVyZepZzEj4Z8JneSPG0v4jY67MG-5nt6dt_SX8KuY17Nk1XdKGhewolUhBF0OPfzrEx3CKOEhCT6uYOAPGM3SxP7jxZTUd6GhRydGQ7qxT0IJtngQAcklAQo8cXMA", "width": 3456}], "place_id": "ChIJHUu5f47-zYUR7eMILVZJNKU", "plus_code": {"compound_code": "7Q45+G2 Mexico City", "global_code": "76F27Q45+G2"}, "rating": 4.4, "reference": "ChIJHUu5f47-zYUR7eMILVZJNKU", "types": ["amusement_park", "point_of_interest", "establishment"], "user_ratings_total": 324}, {"business_status": "OPERATIONAL", "formatted_address": "Unnamed Road, Santiago, 56615 Valle de Chalco Solidaridad, M\u00e9x.", "geometry": {"location": {"lat": 19.3009315, "lng": -98.95373939999999}, "viewport": {"northeast": {"lat": 19.30241562989272, "lng": -98.95223282010728}, "southwest": {"lat": 19.29971597010728, "lng": -98.95493247989273}}}, "icon": "https://maps.gstatic.com/mapfiles/place_api/icons/v1/png_71/generic_business-71.png", "name": "JumpinKids", "opening_hours": {"open_now": true}, "photos": [{"height": 720, "html_attributions": ["<a href=\"https://maps.google.com/maps/contrib/107243733359009687377\">Kevin Gallagher</a>"], "photo_reference": "CmRaAAAAiCImzM58MfhuW8av7vrr2pj4bUNhw5OfLaL8euTZKqIPnCZ8zhUNHeQdWoURX864UmuHSe3OIlmCYJiwJ95Wi2O_Q4WlR9qisWm7I0Eu_aKkOt8vV1xCbefKLRa5IIwbEhDyx8utni7afnTZh_t3-aK2GhQkPcpSr1YJZ6WOVONCudVcnsIHCw", "width": 1280}], "place_id": "ChIJPZni4mEdzoURbj2TFcmOEOc", "plus_code": {"compound_code": "822W+9G Valle de Chalco, State of Mexico", "global_code": "76F3822W+9G"}, "rating": 4.1, "reference": "ChIJPZni4mEdzoURbj2TFcmOEOc", "types": ["amusement_park", "point_of_interest", "establishment"], "user_ratings_total": 19}, {"business_status": "OPERATIONAL", "formatted_address": "La Pista, Xochiaca, Chimalhuac\u00e1n, M\u00e9x.", "geometry": {"location": {"lat": 19.4074875, "lng": -98.962356}, "viewport": {"northeast": {"lat": 19.40883732989272, "lng": -98.9610061701073}, "southwest": {"lat": 19.40613767010728, "lng": -98.96370582989275}}}, "icon": "https://maps.gstatic.com/mapfiles/place_api/icons/v1/png_71/generic_business-71.png", "name": "Parque Ecotur\u00edstico Chimalhuache", "opening_hours": {"open_now": false}, "photos": [{"height": 3024, "html_attributions": ["<a href=\"https://maps.google.com/maps/contrib/109665489881101333504\">edgar santiago</a>"], "photo_reference": "CmRaAAAAqOTjWN9KFtj65oVnMFsFvgFUBq9a6eW6LuHPFxa5tekWOZ4zAbunORTmna5KL64joQlczPQ213W5IxiSQPqzPoPotsb23TqjE2IUx1WC8x8Hqj_U1A6oUGH5hSzk0zn1EhCBiIDAIyAJiWQd5sFMhlFkGhRNEhPYnL11pK9OAwTv4lNccwMnQQ", "width": 4032}], "place_id": "ChIJVabE6aXj0YURuFipBQoEELI", "plus_code": {"compound_code": "C24Q+X3 Chimalhuacan, State of Mexico", "global_code": "76F3C24Q+X3"}, "rating": 4.4, "reference": "ChIJVabE6aXj0YURuFipBQoEELI", "types": ["amusement_park", "point_of_interest", "establishment"], "user_ratings_total": 474}, {"business_status": "OPERATIONAL", "formatted_address": "Valle de las Palmas, 52787 Naucalpan de Ju\u00e1rez, State of Mexico", "geometry": {"location": {"lat": 19.3925331, "lng": -99.28029}, "viewport": {"northeast": {"lat": 19.39395532989272, "lng": -99.27882352010728}, "southwest": {"lat": 19.39125567010727, "lng": -99.28152317989273}}}, "icon": "https://maps.gstatic.com/mapfiles/place_api/icons/v1/png_71/generic_business-71.png", "name": "IMAGIC PARK", "photos": [{"height": 3024, "html_attributions": ["<a href=\"https://maps.google.com/maps/contrib/112271148745331143318\">Yadira Ortega</a>"], "photo_reference": "CmRaAAAAbik38cGVYiBE3oeL7GvPoTqQOI3PShTHyyj6HL6fdAp2dzD7mBdAavNm6Fnv9-XqC6ya4mwlrU_tOO72fp-V0H7OR20f0o_QI9QWBzqowM5xOeCZnw-lCI_tKwaZLLM8EhAH-HaXS3CBtVpcKjCGy451GhT9IJ34cf_U0KPKNwC8JWiWfOkcqw", "width": 4032}], "place_id": "ChIJncpiTyAH0oURr2BYcK4LQnw", "plus_code": {"compound_code": "9PV9+2V Naucalpan de Ju\u00e1rez, State of Mexico", "global_code": "76F29PV9+2V"}, "rating": 5, "reference": "ChIJncpiTyAH0oURr2BYcK4LQnw", "types": ["amusement_park", "point_of_interest", "establishment"], "user_ratings_total": 4}, {"business_status": "OPERATIONAL", "formatted_address": "Calle 28 149, Estado de Mexico, 57210 Nezahualc\u00f3yotl, M\u00e9x.", "geometry": {"location": {"lat": 19.424555, "lng": -99.037042}, "viewport": {"northeast": {"lat": 19.42590482989272, "lng": -99.0356921701073}, "southwest": {"lat": 19.42320517010728, "lng": -99.03839182989275}}}, "icon": "https://maps.gstatic.com/mapfiles/place_api/icons/v1/png_71/generic_business-71.png", "name": "Juegos, Espumas La Buda", "place_id": "ChIJidMkTc_90YURGJcGbV7lJE0", "plus_code": {"compound_code": "CXF7+R5 Ciudad Nezahualc\u00f3yotl, State of Mexico", "global_code": "76F2CXF7+R5"}, "rating": 0, "reference": "ChIJidMkTc_90YURGJcGbV7lJE0", "types": ["amusement_park", "point_of_interest", "establishment"], "user_ratings_total": 0}, {"business_status": "OPERATIONAL", "formatted_address": "Morelos, Venustiano Carranza, 15270 Mexico City", "geometry": {"location": {"lat": 19.4425069, "lng": -99.11675969999999}, "viewport": {"northeast": {"lat": 19.44385672989272, "lng": -99.11540987010727}, "southwest": {"lat": 19.44115707010728, "lng": -99.1181095298927}}}, "icon": "https://maps.gstatic.com/mapfiles/place_api/icons/v1/png_71/generic_business-71.png", "name": "Parque Recreativo Francisco I Madero", "opening_hours": {"open_now": true}, "photos": [{"height": 1024, "html_attributions": ["<a href=\"https://maps.google.com/maps/contrib/112764817626230449984\">Hugo Garcia</a>"], "photo_reference": "CmRaAAAAyDdpKcbh1fZqqdJikwJgMJb17gbsfewk4JLaN8ut1GwxL-a2c9UxjjfFwcwQ0zqx_mVRZ44UT8G2Dm1gMhGj96uVI35w3vEMeorF-UEZ9XxJNqnnDURUsRhvI8c5XjifEhDtyI94Wop5GGGQxLO-ZXoOGhRMhZG-0CKgajCUwAnKexnq0B2JIA", "width": 768}], "place_id": "ChIJ-8IkB0H50YURwZBGcnUADUQ", "plus_code": {"compound_code": "CVVM+27 Mexico City", "global_code": "76F2CVVM+27"}, "rating": 0, "reference": "ChIJ-8IkB0H50YURwZBGcnUADUQ", "types": ["amusement_park", "point_of_interest", "establishment"], "user_ratings_total": 0}, {"business_status": "OPERATIONAL", "formatted_address": "Picacho-Ajusco km 11200, Jardines del Ajusco, Tlalpan, 14200 CDMX", "geometry": {"location": {"lat": 19.255175, "lng": -99.24464640000001}, "viewport": {"northeast": {"lat": 19.25651527989272, "lng": -99.24325552010728}, "southwest": {"lat": 19.25381562010728, "lng": -99.24595517989273}}}, "icon": "https://maps.gstatic.com/mapfiles/place_api/icons/v1/png_71/generic_business-71.png", "name": "Base A\u00e9rea", "opening_hours": {"open_now": true}, "photos": [{"height": 3456, "html_attributions": ["<a href=\"https://maps.google.com/maps/contrib/103487369601054050633\">Mario Maker</a>"], "photo_reference": "CmRaAAAASp1Vkfi7iAv1-5pgo7G8M0PZFhPUuxtV8dNVqjqPg2sxbVbp4cv9goH7sk-fnjUGO74XkMiw_euejIF-lSCG226bR0aKf0TJu-OaYxRJzEjnW5cbYBvurLIvFlW0HcOaEhDlNMFbDSwSLgD6c3V-BMFqGhScNEndsRebTPk_8-9PlKKRQSrztg", "width": 4608}], "place_id": "ChIJuVFFkUD-zYURcdwwJ2xhV6A", "plus_code": {"compound_code": "7Q44+34 Jardines del Ajusco, Mexico City", "global_code": "76F27Q44+34"}, "rating": 4.5, "reference": "ChIJuVFFkUD-zYURcdwwJ2xhV6A", "types": ["amusement_park", "point_of_interest", "establishment"], "user_ratings_total": 72}, {"business_status": "OPERATIONAL", "formatted_address": "Blvd. Lomas Verdes N\u00ba 2400 Locales 110A y 110B, Boulevares, 53140 Naucalpan de Ju\u00e1rez, M\u00e9x.", "geometry": {"location": {"lat": 19.4951579, "lng": -99.2466309}, "viewport": {"northeast": {"lat": 19.49792505, "lng": -99.24552100000001}, "southwest": {"lat": 19.49341565, "lng": -99.24859060000001}}}, "icon": "https://maps.gstatic.com/mapfiles/place_api/icons/v1/png_71/generic_business-71.png", "name": "Sky Zone Lomas Verdes", "opening_hours": {"open_now": true}, "photos": [{"height": 3120, "html_attributions": ["<a href=\"https://maps.google.com/maps/contrib/102832503669451970653\">julian M</a>"], "photo_reference": "CmRaAAAAbbysRFwXK2z_zaRZa3C_GJc3mNQfdMMpNUQFcLeL6v7R7aYigF3VegIBQ0kA-jopXd2nALPui4kvTc0dXWFuzNpR0Nh5kk8_P4jtCQDM3ZHKZBZJFnP-T3QUhycx8Rc6EhD-NI_7eamdmvJgdFEenp0fGhQO5Qu_1FFKdGiZCcGpNfmCNdYO4w", "width": 4160}], "place_id": "ChIJ4fXNdBcD0oURscg-0Ia2Bx4", "plus_code": {"compound_code": "FQW3+38 Naucalpan de Ju\u00e1rez, State of Mexico", "global_code": "76F2FQW3+38"}, "rating": 4.3, "reference": "ChIJ4fXNdBcD0oURscg-0Ia2Bx4", "types": ["amusement_park", "point_of_interest", "establishment"], "user_ratings_total": 813}, {"business_status": "OPERATIONAL", "formatted_address": "\u00c1lvaro Obreg\u00f3n 13, San Miguel, 56604 San Mateo Huitzilzingo, M\u00e9x.", "geometry": {"location": {"lat": 19.2284977, "lng": -98.92712689999999}, "viewport": {"northeast": {"lat": 19.22983567989272, "lng": -98.92574337010728}, "southwest": {"lat": 19.22713602010728, "lng": -98.92844302989273}}}, "icon": "https://maps.gstatic.com/mapfiles/place_api/icons/v1/png_71/generic_business-71.png", "name": "Casa Rosales", "opening_hours": {"open_now": true}, "photos": [{"height": 1080, "html_attributions": ["<a href=\"https://maps.google.com/maps/contrib/111768079915081363871\">A Google User</a>"], "photo_reference": "CmRaAAAAYq5qydCiMQnaMKSg58lJXnzN7MuZUWNCv9ScolhU0ljQlq9RoL_dZwSfQdUtoEO5wiefXs15fbjH0XNUHQy0xTcgtwx7aO05mU4ns6UQ7bC2XFDvsO7o-HsZIX8Da_jtEhA12bKcb9nutHnVudkH3p7_GhT9ZXNp_tJxjDW9clr-_s2X0HNvpA", "width": 1080}], "place_id": "ChIJoTwxDsobzoURFh5Cg35vgiM", "plus_code": {"compound_code": "63HF+94 San Mateo Huitzilzingo, State of Mexico", "global_code": "76F363HF+94"}, "rating": 1, "reference": "ChIJoTwxDsobzoURFh5Cg35vgiM", "types": ["amusement_park", "point_of_interest", "establishment"], "user_ratings_total": 1}, {"business_status": "OPERATIONAL", "formatted_address": "C. Cnel. Ahumada, Lomas del Mirador, 62350 Cuernavaca, Mor.", "geometry": {"location": {"lat": 18.9267289, "lng": -99.21563359999999}, "viewport": {"northeast": {"lat": 18.92807342989272, "lng": -99.21426722010727}, "southwest": {"lat": 18.92537377010727, "lng": -99.21696687989272}}}, "icon": "https://maps.gstatic.com/mapfiles/place_api/icons/v1/png_71/generic_business-71.png", "name": "Pipilitzin", "opening_hours": {"open_now": false}, "photos": [{"height": 2976, "html_attributions": ["<a href=\"https://maps.google.com/maps/contrib/100624757401196368542\">Ricardo Costilla</a>"], "photo_reference": "CmRaAAAARQgnqhrBTCI6ZIlGmTsfP79eSAWlVhqBY7eofxWfUAOoz0kFpmde_LLRv6FcEnrOv81KZDO84kiB4n_ub0-rg86UbBif5LJLk68QdFUGsQBOBQ_YJMJ-M_7ckDI241HqEhAgtucf-gg7EYd7-5AZKPqLGhRTRwO0CM5sEj1WyXKZN42l2GwcZw", "width": 3968}], "place_id": "ChIJc267RbzfzYURPEyS1ouYFXU", "plus_code": {"compound_code": "WQGM+MP Cuernavaca, Morelos", "global_code": "76C2WQGM+MP"}, "rating": 4.2, "reference": "ChIJc267RbzfzYURPEyS1ouYFXU", "types": ["amusement_park", "point_of_interest", "establishment"], "user_ratings_total": 218}, {"business_status": "OPERATIONAL", "formatted_address": "Carr Federal M\u00e9xico-Cuautla Km 58, Panoaya, 56900 Amecameca de Ju\u00e1rez, M\u00e9x.", "geometry": {"location": {"lat": 19.1403001, "lng": -98.7725224}, "viewport": {"northeast": {"lat": 19.14170672989272, "lng": -98.77143017010728}, "southwest": {"lat": 19.13900707010728, "lng": -98.77412982989273}}}, "icon": "https://maps.gstatic.com/mapfiles/place_api/icons/v1/png_71/generic_business-71.png", "name": "Hacienda Panoaya", "opening_hours": {"open_now": true}, "photos": [{"height": 1536, "html_attributions": ["<a href=\"https://maps.google.com/maps/contrib/113518026755069023742\">Carmen Rosas M13456</a>"], "photo_reference": "CmRaAAAAw77SySJZ5z02lWZwUgFHZY0Ut8pwHKygZr8dzsVyxVE4js2bHtZUbCPj2CezhlB0WCGoutxkC5NfgibbKTZ_tns_ky8LukWcD2nqzEi_LEMG4AYhyJckKIkazNYF-hBzEhCiSBVPlneT25sRLfPotl_uGhTObWX_b7U6zFFaqu_wHZPmVL0y3A", "width": 2048}], "place_id": "ChIJVVVVVYg8zoURRFWKaR5djMo", "plus_code": {"compound_code": "46RG+4X Amecameca, State of Mexico", "global_code": "76F346RG+4X"}, "rating": 4.5, "reference": "ChIJVVVVVYg8zoURRFWKaR5djMo", "types": ["amusement_park", "lodging", "restaurant", "food", "point_of_interest", "establishment"], "user_ratings_total": 19713}, {"business_status": "OPERATIONAL", "formatted_address": "R\u00edo Grande de San Juan, Estado de M\u00e9xico", "geometry": {"location": {"lat": 19.6497836, "lng": -98.90927149999999}, "viewport": {"northeast": {"lat": 19.65143867989272, "lng": -98.90783027010727}, "southwest": {"lat": 19.64873902010728, "lng": -98.91052992989272}}}, "icon": "https://maps.gstatic.com/mapfiles/place_api/icons/v1/png_71/generic_business-71.png", "name": "Centro recreativo el zooligo de acolman", "opening_hours": {"open_now": true}, "photos": [{"height": 5376, "html_attributions": ["<a href=\"https://maps.google.com/maps/contrib/107470859645123211569\">mario moreno</a>"], "photo_reference": "CmRaAAAATTwpGGTQlF5KdNDnpFEMCp3bgBHhGMU1jyYP9Oc9e1dsGdg4MecVNSeacwrhVskngdynmuPHByCfKxnkP8VDOmkXGTdoMSVU0pm9HjcNz3FWR4bpgWl5-lNeo_dZc4_SEhC337d8ok-e3rnTyvPS4FohGhRafoF9yKYanVIn5RVO6hZq0C38sg", "width": 3024}], "place_id": "ChIJMxJciO7r0YURD14KmjRJNBM", "plus_code": {"compound_code": "J3XR+W7 San Bartolo, State of Mexico", "global_code": "76F3J3XR+W7"}, "rating": 4.5, "reference": "ChIJMxJciO7r0YURD14KmjRJNBM", "types": ["amusement_park", "point_of_interest", "establishment"], "user_ratings_total": 50}, {"business_status": "OPERATIONAL", "formatted_address": "Camino Real a San Jer\u00f3nimo # 13, 56080 Santo Tom\u00e1s Apipilhuasco, M\u00e9x.", "geometry": {"location": {"lat": 19.5381672, "lng": -98.752968}, "viewport": {"northeast": {"lat": 19.53954067989272, "lng": -98.75161707010729}, "southwest": {"lat": 19.53684102010727, "lng": -98.75431672989272}}}, "icon": "https://maps.gstatic.com/mapfiles/place_api/icons/v1/png_71/generic_business-71.png", "name": "Apipilpark", "opening_hours": {"open_now": true}, "photos": [{"height": 3024, "html_attributions": ["<a href=\"https://maps.google.com/maps/contrib/110360415497520646194\">Christian Camacho</a>"], "photo_reference": "CmRaAAAAh46VgkVzzjLwlZH6k2KgIJaYKd4qJRAIQ0XsC7RoWn0feLiHB9M2GsUQaXSedWc3llRUlf1uhn1uIgkPL5QwmkQsYH-9tgUj9J9z5y8llRspb_lUnLBJPobZEww7TGgPEhDo0LUve3C6Ddyd1B_3VcbRGhTxGdqMLeKhRybLH37O__nTa7Cpsw", "width": 4032}], "place_id": "ChIJnf-Vza7c0YURPY3ZA2M18Hs", "plus_code": {"compound_code": "G6QW+7R Santo Tom\u00e1s Apipilhuasco, State of Mexico", "global_code": "76F3G6QW+7R"}, "rating": 4.4, "reference": "ChIJnf-Vza7c0YURPY3ZA2M18Hs", "types": ["tourist_attraction", "amusement_park", "point_of_interest", "establishment"], "user_ratings_total": 926}, {"business_status": "OPERATIONAL", "formatted_address": "Calle Jacarandas 103, Ricardo Flores Magon, 62370 Cuernavaca, Mor.", "geometry": {"location": {"lat": 18.9264207, "lng": -99.19940919999999}, "viewport": {"northeast": {"lat": 18.92771052989272, "lng": -99.19806992010729}, "southwest": {"lat": 18.92501087010728, "lng": -99.20076957989272}}}, "icon": "https://maps.gstatic.com/mapfiles/place_api/icons/v1/png_71/generic_business-71.png", "name": "Viva La Feria", "opening_hours": {"open_now": true}, "photos": [{"height": 2988, "html_attributions": ["<a href=\"https://maps.google.com/maps/contrib/109789934439749794303\">Omar Villanueva</a>"], "photo_reference": "CmRaAAAA0csJ36DwtseFvTk1tZHGgNvmAIfEXRYVY7fyniSXCkp4Yjf-7q2mXl4SRuQkZACNxm_Kdrd5QybyfpyS5iqt8NR1Dm-PQuj_2EJQJwNIb9IOe-8ckSlDkmQYIFgzxoRfEhDRBVf5ZeWsQRkxDOH_Khb9GhSN9qpg3facZyjY72H2-Dm03PYcBA", "width": 5312}], "place_id": "ChIJk4hNtI_fzYURIg2oF2cc1Qc", "plus_code": {"compound_code": "WRG2+H6 Cuernavaca, Morelos", "global_code": "76C2WRG2+H6"}, "rating": 4.3, "reference": "ChIJk4hNtI_fzYURIg2oF2cc1Qc", "types": ["amusement_park", "point_of_interest", "establishment"], "user_ratings_total": 1143}, {"business_status": "OPERATIONAL", "formatted_address": "Calle John F. Kennedy 279, Las Aguilas, 57900 Nezahualc\u00f3yotl, M\u00e9x.", "geometry": {"location": {"lat": 19.3824715, "lng": -98.9982577}, "viewport": {"northeast": {"lat": 19.38385427989272, "lng": -98.99697752010728}, "southwest": {"lat": 19.38115462010728, "lng": -98.99967717989273}}}, "icon": "https://maps.gstatic.com/mapfiles/place_api/icons/v1/png_71/generic_business-71.png", "name": "Parque De Fuentes Kenedy", "opening_hours": {"open_now": true}, "photos": [{"height": 3120, "html_attributions": ["<a href=\"https://maps.google.com/maps/contrib/103696614846769817182\">David Hern\u00e1ndez</a>"], "photo_reference": "CmRaAAAAb3byJ_WjarnclK5WoGgPgjU-ZgcHcJl-vMvthT5gAg-b3FgetQA8tCIUrXU-lcMvcM1PsD3d809Ju-QCoowqi2T6hccb-PrYAvzmrcqpeq8ym1ZUEPpOwBM0igXZJpMvEhD7_ZyUbUe3CjFl_la4AeedGhT5x4DOdqMHnGIMDxSIrFgh_H2xcg", "width": 4160}], "place_id": "ChIJFX5TPNvi0YURx_YUgVGjLP4", "plus_code": {"compound_code": "92J2+XM Ciudad Nezahualc\u00f3yotl, State of Mexico", "global_code": "76F392J2+XM"}, "rating": 4.2, "reference": "ChIJFX5TPNvi0YURx_YUgVGjLP4", "types": ["amusement_park", "point_of_interest", "establishment"], "user_ratings_total": 230}]