[{"business_status": "OPERATIONAL", "formatted_address": "Ermita Iztapalapa 939, Santa Isabel Industrial, Iztapalapa, 09820 Ciudad de M\u00e9xico, CDMX", "geometry": {"location": {"lat": 19.3555903, "lng": -99.10149559999999}, "viewport": {"northeast": {"lat": 19.35700102989273, "lng": -99.10014422010727}, "southwest": {"lat": 19.35430137010728, "lng": -99.10284387989272}}}, "icon": "https://maps.gstatic.com/mapfiles/place_api/icons/v1/png_71/restaurant-71.png", "name": "La Gran Botana", "opening_hours": {"open_now": true}, "photos": [{"height": 5984, "html_attributions": ["<a href=\"https://maps.google.com/maps/contrib/109189117326094209786\">Salvador Noe Ortega Cano</a>"], "photo_reference": "CmRaAAAA02jJJOVi9reiYUIGbxhTdbg3vNEduYVcC0P-Uc7_Tr4fvpi-XwyvBMokqnEfG8kvXWEVUe5Sgp91H-nyd1jGJbC8ytzYZKfxJ97J41eG0wzD9QAYKW6tTQsev-lvLL50EhC9WxVcTvcUMlRPkTPdlcGUGhR_LTusVFawl5_LGVEwd0XWPQo6WA", "width": 3376}], "place_id": "ChIJv1f91An-0YUR1B_f5vkDE-E", "plus_code": {"compound_code": "9V4X+6C Mexico City", "global_code": "76F29V4X+6C"}, "price_level": 2, "rating": 3.7, "reference": "ChIJv1f91An-0YUR1B_f5vkDE-E", "types": ["bar", "restaurant", "food", "point_of_interest", "establishment"], "user_ratings_total": 76}, {"business_status": "CLOSED_TEMPORARILY", "formatted_address": "Eje 3 Ote 289, Minerva, Iztapalapa, 09819 Ciudad de M\u00e9xico, CDMX", "geometry": {"location": {"lat": 19.3511698, "lng": -99.1114221}, "viewport": {"northeast": {"lat": 19.35250672989272, "lng": -99.10998057010728}, "southwest": {"lat": 19.34980707010728, "lng": -99.11268022989272}}}, "icon": "https://maps.gstatic.com/mapfiles/place_api/icons/v1/png_71/bar-71.png", "name": "Bar 101", "permanently_closed": true, "photos": [{"height": 1836, "html_attributions": ["<a href=\"https://maps.google.com/maps/contrib/104928615738790937638\">A Google User</a>"], "photo_reference": "CmRaAAAA6DuDNwk61N7v2DuMFymkkzlvJr3BLjdaiVD4zI9K5Q1JzirdZcs2qroG8u337g6EmlMIthLrxyKqzZZ9s6vPbjvZCR-r4IG4ppl9RrOT6_sh770hvY4XkE6StUXLKZsNEhA_Q6kK2IKNhGv4yiNxI86eGhTW-8njgRb6BmV_VLh5PTFCs5kjnw", "width": 3264}], "place_id": "ChIJFcKwGQX-0YURWaqc8LOa27o", "plus_code": {"compound_code": "9V2Q+FC Mexico City", "global_code": "76F29V2Q+FC"}, "rating": 4.1, "reference": "ChIJFcKwGQX-0YURWaqc8LOa27o", "types": ["bar", "point_of_interest", "establishment"], "user_ratings_total": 138}, {"business_status": "CLOSED_TEMPORARILY", "formatted_address": "Av. Arneses 54, Minerva, Iztapalapa, 09810 Ciudad de M\u00e9xico, CDMX", "geometry": {"location": {"lat": 19.354848, "lng": -99.110777}, "viewport": {"northeast": {"lat": 19.35617347989272, "lng": -99.10949502010727}, "southwest": {"lat": 19.35347382010728, "lng": -99.11219467989271}}}, "icon": "https://maps.gstatic.com/mapfiles/place_api/icons/v1/png_71/bar-71.png", "name": "Cactus Bar", "permanently_closed": true, "photos": [{"height": 3024, "html_attributions": ["<a href=\"https://maps.google.com/maps/contrib/111355124853909514311\">Alejandro Ruiz</a>"], "photo_reference": "CmRaAAAAFiSCN7m0C0kgHVx3wqDIFFlYXIFBJkSXYDyhfrVXDgOWi56eCZtd_DFhDa_CoErGa9W1xH1Dw79QNotT6svMfr0-lYQWXpNiqFTHiHqV3AyyXtaCK4nu_hP6_rW2gVdHEhCv7etGP1nZyJfg0BgogyxsGhRJQTkC3AjPZH964J11cyI6Cd_wrQ", "width": 4032}], "place_id": "ChIJoQ_DYeL90YURnMb2pDqkLRs", "plus_code": {"compound_code": "9V3Q+WM Mexico City", "global_code": "76F29V3Q+WM"}, "rating": 4.2, "reference": "ChIJoQ_DYeL90YURnMb2pDqkLRs", "types": ["bar", "point_of_interest", "establishment"], "user_ratings_total": 80}, {"business_status": "OPERATIONAL", "formatted_address": "Av. Arneses 268, Los Reyes Culhuacan, Iztapalapa, 09840 Ciudad de M\u00e9xico, CDMX", "geometry": {"location": {"lat": 19.3478322, "lng": -99.1111198}, "viewport": {"northeast": {"lat": 19.34920587989272, "lng": -99.10986952010728}, "southwest": {"lat": 19.34650622010728, "lng": -99.11256917989273}}}, "icon": "https://maps.gstatic.com/mapfiles/place_api/icons/v1/png_71/bar-71.png", "name": "Johan's bar", "opening_hours": {"open_now": false}, "place_id": "ChIJEUKf4D7_0YURZKXX84c-PKQ", "plus_code": {"compound_code": "8VXQ+4H Mexico City", "global_code": "76F28VXQ+4H"}, "rating": 0, "reference": "ChIJEUKf4D7_0YURZKXX84c-PKQ", "types": ["bar", "point_of_interest", "establishment"], "user_ratings_total": 0}, {"business_status": "CLOSED_TEMPORARILY", "formatted_address": "Los Angeles 19, Amp el Santuario, Iztapalapa, 09829 Ciudad de M\u00e9xico, CDMX", "geometry": {"location": {"lat": 19.3517693, "lng": -99.0938627}, "viewport": {"northeast": {"lat": 19.35317117989272, "lng": -99.0925261201073}, "southwest": {"lat": 19.35047152010727, "lng": -99.09522577989274}}}, "icon": "https://maps.gstatic.com/mapfiles/place_api/icons/v1/png_71/bar-71.png", "name": "restraurant bar", "permanently_closed": true, "place_id": "ChIJU074gxr90YURbkS6N9oYk8k", "plus_code": {"compound_code": "9W24+PF Mexico City", "global_code": "76F29W24+PF"}, "rating": 0, "reference": "ChIJU074gxr90YURbkS6N9oYk8k", "types": ["bar", "point_of_interest", "establishment"], "user_ratings_total": 0}, {"business_status": "OPERATIONAL", "formatted_address": "Av. Arneses #20, Valle del Sur, Iztapalapa, 09819 Ciudad de M\u00e9xico, CDMX", "geometry": {"location": {"lat": 19.3466805, "lng": -99.11172520000001}, "viewport": {"northeast": {"lat": 19.34802387989272, "lng": -99.11034647010727}, "southwest": {"lat": 19.34532422010728, "lng": -99.11304612989272}}}, "icon": "https://maps.gstatic.com/mapfiles/place_api/icons/v1/png_71/restaurant-71.png", "name": "Dommy", "opening_hours": {"open_now": true}, "photos": [{"height": 2336, "html_attributions": ["<a href=\"https://maps.google.com/maps/contrib/110385335151352916442\">Juan Guardian</a>"], "photo_reference": "CmRaAAAAt3ILee8Joy1XGFs0T8W6TCQkJgg_CUP6DJ7MV85kPnBWJjzPA22JhL-7retU8niHMdvvL8Dz3ZQiwSKzoSmaltuOC-VvDHTXEmn4Ci_gSNts2Tsou48PS50qD_tTch8vEhCH9U06-Xl71eqFRz2Qw0_PGhTQKheZLknAWPnDeYsT4RA8aj5b9Q", "width": 4160}], "place_id": "ChIJwdUdsAT-0YURpVywQdsm_T0", "plus_code": {"compound_code": "8VWQ+M8 Valle del Sur, Mexico City", "global_code": "76F28VWQ+M8"}, "rating": 4, "reference": "ChIJwdUdsAT-0YURpVywQdsm_T0", "types": ["bar", "restaurant", "food", "point_of_interest", "establishment"], "user_ratings_total": 215}, {"business_status": "OPERATIONAL", "formatted_address": "Av. Tlahuac 7448, Iztapalapa, Los Reyes Culhuacan, 09800 Ciudad de M\u00e9xico, CDMX", "geometry": {"location": {"lat": 19.3419884, "lng": -99.1080436}, "viewport": {"northeast": {"lat": 19.34334602989273, "lng": -99.10673097010728}, "southwest": {"lat": 19.34064637010728, "lng": -99.10943062989273}}}, "icon": "https://maps.gstatic.com/mapfiles/place_api/icons/v1/png_71/restaurant-71.png", "name": "R + O = E\u00b2", "photos": [{"height": 4160, "html_attributions": ["<a href=\"https://maps.google.com/maps/contrib/104113838127243152719\">rafael carrillo</a>"], "photo_reference": "CmRaAAAAXgFfA-HY0woGM1EGd78GfzNJUR2-uytNtrExOdQKVSeXzIQs1BgWQZM0N0j0D14GduZrjswvK_rXOX9obrVPWm11lkEBxot9m6ulxTdn7SYhnvIn-Ss6mym-KAxk2isMEhBxbNkK3AFtXIPtuqrGZLifGhQ4dPYvK83dua2vZeLw1sUMuO7ORQ", "width": 3120}], "place_id": "ChIJeVRMPgL-0YURMPzIKxSqekM", "plus_code": {"compound_code": "8VRR+QQ Mexico City", "global_code": "76F28VRR+QQ"}, "rating": 4.3, "reference": "ChIJeVRMPgL-0YURMPzIKxSqekM", "types": ["bar", "restaurant", "food", "point_of_interest", "establishment"], "user_ratings_total": 57}, {"business_status": "CLOSED_TEMPORARILY", "formatted_address": "Fco. Pascual Garcia numero 12, San Lucas, Iztapalapa, 09000 Ciudad de M\u00e9xico, CDMX", "geometry": {"location": {"lat": 19.3562055, "lng": -99.09584459999999}, "viewport": {"northeast": {"lat": 19.35755547989272, "lng": -99.0944963201073}, "southwest": {"lat": 19.35485582010727, "lng": -99.09719597989273}}}, "icon": "https://maps.gstatic.com/mapfiles/place_api/icons/v1/png_71/bar-71.png", "name": "SNACK & BAR LA CONSENTIDA", "permanently_closed": true, "photos": [{"height": 3096, "html_attributions": ["<a href=\"https://maps.google.com/maps/contrib/109067013807547538081\">Malu Saucedo</a>"], "photo_reference": "CmRaAAAAoJBvPCKa_ZsdsOhv8ucbuoWOdCNtpkzURxEVCXjp0qqJ4OYH0y4qGekKahzVycD523P2siec79U5yiD99gH5i2P9nikuxZNwJYiZnkBK2siApHv6O3Gzx9s_uqUOTHk_EhDtCnT-qc3yhoDSttoszZ2lGhRYr0THxbQqElrbvz_jlG5MKMyR-g", "width": 4128}], "place_id": "ChIJd19nh-P90YURj0hpC9GkG24", "plus_code": {"compound_code": "9W43+FM Mexico City", "global_code": "76F29W43+FM"}, "rating": 3, "reference": "ChIJd19nh-P90YURj0hpC9GkG24", "types": ["bar", "point_of_interest", "establishment"], "user_ratings_total": 7}, {"business_status": "CLOSED_TEMPORARILY", "formatted_address": "Tula, 09800 Mexico City, CDMX", "geometry": {"location": {"lat": 19.3364559, "lng": -99.1127468}, "viewport": {"northeast": {"lat": 19.33780957989272, "lng": -99.11145777010728}, "southwest": {"lat": 19.33510992010728, "lng": -99.11415742989271}}}, "icon": "https://maps.gstatic.com/mapfiles/place_api/icons/v1/png_71/bar-71.png", "name": "Bar Viejo", "permanently_closed": true, "photos": [{"height": 4208, "html_attributions": ["<a href=\"https://maps.google.com/maps/contrib/101780708781189084081\">RUTH ROMERO N.</a>"], "photo_reference": "CmRaAAAAJbMIQ-PDuDZBXqmw1eDY3rN2B8P6IuHdYdZ8BXykNgP2ybsrx-VZ1vMexUrMjEeD5mXWfoTuVpQg6sbnSAHUisiebzYc514QIw2GPLP86zc_McnRpDO3pZ8G5bn1hmt5EhBwzIhEAXUJ_hgqebrVPZqdGhQBsdv2W1AiJoq7NbXt3hJc0R4BAw", "width": 2368}], "place_id": "ChIJLcgDMuMBzoURnN6hZA5vwDY", "plus_code": {"compound_code": "8VPP+HW Mexico City", "global_code": "76F28VPP+HW"}, "rating": 4.6, "reference": "ChIJLcgDMuMBzoURnN6hZA5vwDY", "types": ["bar", "point_of_interest", "establishment"], "user_ratings_total": 7}, {"business_status": "CLOSED_TEMPORARILY", "formatted_address": "Allende 161-162, San Pedro, Iztapalapa, 09000 Ciudad de M\u00e9xico, CDMX", "geometry": {"location": {"lat": 19.3608148, "lng": -99.0849791}, "viewport": {"northeast": {"lat": 19.36216717989272, "lng": -99.08362287010729}, "southwest": {"lat": 19.35946752010728, "lng": -99.08632252989273}}}, "icon": "https://maps.gstatic.com/mapfiles/place_api/icons/v1/png_71/bar-71.png", "name": "Flowers Bar Wings And Beer", "permanently_closed": true, "photos": [{"height": 3264, "html_attributions": ["<a href=\"https://maps.google.com/maps/contrib/117110734531938959937\">Julio Casta\u00f1eda</a>"], "photo_reference": "CmRaAAAAJTyNI_YIw0W38b5iAh3qwAcaIV9jjQHeduWTKux7dO0U7AdhuLBxAxmA28negRdyXxgp__hph6BTG6RCZtCMDgIBl8zhiFL0cSDrr7qFAj6JGt3EshdkWx2wPLah7ys9EhBTsS9d3plWBYHkAe3EO5A4GhQ49UF21AEgOt1NXp6_jNnW4OO3cw", "width": 2448}], "place_id": "ChIJhX7xYOn90YURj_9yyCwwiiw", "plus_code": {"compound_code": "9W68+82 Mexico City", "global_code": "76F29W68+82"}, "rating": 3.6, "reference": "ChIJhX7xYOn90YURj_9yyCwwiiw", "types": ["bar", "point_of_interest", "establishment"], "user_ratings_total": 21}, {"business_status": "OPERATIONAL", "formatted_address": "Atanasio G. Sarabia 1661, H\u00e9roes de Churubusco, Iztapalapa, 09090 Ciudad de M\u00e9xico, CDMX", "geometry": {"location": {"lat": 19.3609965, "lng": -99.1150557}, "viewport": {"northeast": {"lat": 19.36238942989272, "lng": -99.11370067010729}, "southwest": {"lat": 19.35968977010728, "lng": -99.11640032989274}}}, "icon": "https://maps.gstatic.com/mapfiles/place_api/icons/v1/png_71/restaurant-71.png", "name": "Las Noches del Ro", "opening_hours": {"open_now": true}, "photos": [{"height": 1200, "html_attributions": ["<a href=\"https://maps.google.com/maps/contrib/113888122828301951362\">A Google User</a>"], "photo_reference": "CmRaAAAA3GRoftegqd5rNYk9vlo2FqksF_ONg2yyI8dH48djl6Wfdc7nKIDE2CCd9Td5_Zyuy-oqaHiPZHrjgMCZA9xK28KibA2B8yo8SNCvFKlwu7e61ilMKOx7jFaChFXFPytoEhBxky9Redn0ivFF2qQlT8zDGhRf1oJiRFeqqZzog9eeqbUrmEGqSw", "width": 1600}], "place_id": "ChIJe5SG0tr_0YURodhmpR3kgf0", "plus_code": {"compound_code": "9V6M+9X Mexico City", "global_code": "76F29V6M+9X"}, "rating": 0, "reference": "ChIJe5SG0tr_0YURodhmpR3kgf0", "types": ["bar", "restaurant", "food", "point_of_interest", "establishment"], "user_ratings_total": 0}, {"business_status": "OPERATIONAL", "formatted_address": "Eje 5 Ote 1426, San Miguel, Iztapalapa, 09360 Ciudad de M\u00e9xico, CDMX", "geometry": {"location": {"lat": 19.35919, "lng": -99.0849762}, "viewport": {"northeast": {"lat": 19.36056557989272, "lng": -99.08367902010727}, "southwest": {"lat": 19.35786592010728, "lng": -99.08637867989272}}}, "icon": "https://maps.gstatic.com/mapfiles/place_api/icons/v1/png_71/restaurant-71.png", "name": "La Barda", "opening_hours": {"open_now": true}, "photos": [{"height": 2560, "html_attributions": ["<a href=\"https://maps.google.com/maps/contrib/108222587193863865918\">A Google User</a>"], "photo_reference": "CmRaAAAA90vcDP1TzQAhR4OuMHI0wRLS_-btUAbq4BA2E1hpzBYG7n2M951skUwZlOI4rmxdUjNeC8q8yOt7J7TcPhefURxPUw0Ix7BtAy0ZhuRMACYNAlg9VG71SDUnENKpALuCEhBXWN0mUQYsc2cUycG9UJP5GhRPdJe2vZ0p8LxMJQci_pUOcJG9tg", "width": 1536}], "place_id": "ChIJ6QRCq-790YURcnlJs_MNplw", "plus_code": {"compound_code": "9W58+M2 Mexico City", "global_code": "76F29W58+M2"}, "price_level": 2, "rating": 3.7, "reference": "ChIJ6QRCq-790YURcnlJs_MNplw", "types": ["bar", "restaurant", "food", "point_of_interest", "establishment"], "user_ratings_total": 1127}, {"business_status": "OPERATIONAL", "formatted_address": "Aldama 80, San Pablo, Iztapalapa, 09000 Ciudad de M\u00e9xico, CDMX", "geometry": {"location": {"lat": 19.359273, "lng": -99.09112999999999}, "viewport": {"northeast": {"lat": 19.36054387989272, "lng": -99.08980972010727}, "southwest": {"lat": 19.35784422010728, "lng": -99.09250937989272}}}, "icon": "https://maps.gstatic.com/mapfiles/place_api/icons/v1/png_71/restaurant-71.png", "name": "Fuego Nuevo", "opening_hours": {"open_now": true}, "photos": [{"height": 1920, "html_attributions": ["<a href=\"https://maps.google.com/maps/contrib/101987137798934898790\">Carlos Cabrera</a>"], "photo_reference": "CmRaAAAAYaj9tqmQR9n3fkWO1FF55XMDDZamWpvaxRDrptVaIU8oucCjJEfEYd9pUbQ6ArwH48kgAC8tQyOg696cyixd9JGUtzrprn7NQXxabFQcBzGt-fQ3ZZlPoSZBY9PFBICJEhCpT023tfHKEUOB2qeiGClBGhQoROBBkM0h_XnYDZmK4DdaPLmsPQ", "width": 1080}], "place_id": "ChIJVdgACeb90YURHnQdmALJAyE", "plus_code": {"compound_code": "9W55+PG Mexico City", "global_code": "76F29W55+PG"}, "price_level": 2, "rating": 3.7, "reference": "ChIJVdgACeb90YURHnQdmALJAyE", "types": ["bar", "restaurant", "food", "point_of_interest", "establishment"], "user_ratings_total": 158}, {"business_status": "OPERATIONAL", "formatted_address": "Ermita Iztapalapa 585, Granjas Esmeralda, Iztapalapa, 09810 Ciudad de M\u00e9xico, CDMX", "geometry": {"location": {"lat": 19.3569074, "lng": -99.1162844}, "viewport": {"northeast": {"lat": 19.35830647989273, "lng": -99.1149262201073}, "southwest": {"lat": 19.35560682010728, "lng": -99.11762587989273}}}, "icon": "https://maps.gstatic.com/mapfiles/place_api/icons/v1/png_71/restaurant-71.png", "name": "Bar Ermita", "opening_hours": {"open_now": false}, "photos": [{"height": 1200, "html_attributions": ["<a href=\"https://maps.google.com/maps/contrib/111267396789740468910\">A Google User</a>"], "photo_reference": "CmRaAAAAsYPsogbNuQ8VKVW-8F-Hp_I2sLGH5JptMyZP6zB-zDx1N8gULc-HIPebAoc2V7bTsz7rakye0puo6BB3z7Kz6vnr_TheEeZCxGo53HKPznQmZhCH-6EWJAYy2tEu2rpnEhAT0WdOCeGOj2FHQr2_3ub-GhR_MDUDQgmaUWvrbiuDTfeTJivsDw", "width": 1600}], "place_id": "ChIJ0-Gm8_r_0YURFNnHAGvDm4I", "plus_code": {"compound_code": "9V4M+QF Mexico City", "global_code": "76F29V4M+QF"}, "rating": 4.6, "reference": "ChIJ0-Gm8_r_0YURFNnHAGvDm4I", "types": ["bar", "restaurant", "food", "point_of_interest", "establishment"], "user_ratings_total": 5}, {"business_status": "OPERATIONAL", "formatted_address": "eje 8 sur Calzada Ermita Iztapalapa 3300, primera Ampliaci\u00f3n Santiago Acahualtepec, Iztapalapa, 09820 CDMX", "geometry": {"location": {"lat": 19.3554851, "lng": -99.1058948}, "viewport": {"northeast": {"lat": 19.35682847989272, "lng": -99.10450742010728}, "southwest": {"lat": 19.35412882010728, "lng": -99.10720707989273}}}, "icon": "https://maps.gstatic.com/mapfiles/place_api/icons/v1/png_71/bar-71.png", "name": "DulceRia", "opening_hours": {"open_now": true}, "place_id": "ChIJfVf_MK7i0YURPCdBeMuzSz4", "plus_code": {"compound_code": "9V4V+5J Mexico City", "global_code": "76F29V4V+5J"}, "rating": 4.5, "reference": "ChIJfVf_MK7i0YURPCdBeMuzSz4", "types": ["bar", "point_of_interest", "establishment"], "user_ratings_total": 2}, {"business_status": "OPERATIONAL", "formatted_address": "Ermita Iztapalapa 528b, Mexicaltzingo, Iztapalapa, 09099 Ciudad de M\u00e9xico, CDMX", "geometry": {"location": {"lat": 19.3575983, "lng": -99.11834449999999}, "viewport": {"northeast": {"lat": 19.35890577989272, "lng": -99.11700452010729}, "southwest": {"lat": 19.35620612010728, "lng": -99.11970417989272}}}, "icon": "https://maps.gstatic.com/mapfiles/place_api/icons/v1/png_71/restaurant-71.png", "name": "N\u00e9ctar Beer", "opening_hours": {"open_now": true}, "photos": [{"height": 2448, "html_attributions": ["<a href=\"https://maps.google.com/maps/contrib/113747505213933553235\">A Google User</a>"], "photo_reference": "CmRaAAAAuXZ8FtLIQGcZTp9ihNh318dU8rSU9KVa-_S3tjpfgxWX8uNiVFRrYP9YMTzP2tcC5nSGxZgcM_S7F6UFN8RPUrqiJZUB7KYS2DFneZpUHKj-fvzk1MdQvJmaJokdsPLYEhDog_Qes5swOPk88PxIiEAYGhSZMh_BlkCyJjYqLY16Lgig9TzgxQ", "width": 3264}], "place_id": "ChIJu6kPAhT-0YURYqT2UNsQCh4", "plus_code": {"compound_code": "9V5J+2M Mexico City", "global_code": "76F29V5J+2M"}, "rating": 3.8, "reference": "ChIJu6kPAhT-0YURYqT2UNsQCh4", "types": ["bar", "restaurant", "food", "point_of_interest", "establishment"], "user_ratings_total": 44}, {"business_status": "OPERATIONAL", "formatted_address": "Atanasio G. Sarabia 1661, H\u00e9roes de Churubusco, Iztapalapa, 09090 Ciudad de M\u00e9xico, CDMX", "geometry": {"location": {"lat": 19.3609965, "lng": -99.1150557}, "viewport": {"northeast": {"lat": 19.36238942989272, "lng": -99.11370067010729}, "southwest": {"lat": 19.35968977010728, "lng": -99.11640032989274}}}, "icon": "https://maps.gstatic.com/mapfiles/place_api/icons/v1/png_71/restaurant-71.png", "name": "Las Miches Del Ro", "opening_hours": {"open_now": true}, "photos": [{"height": 1920, "html_attributions": ["<a href=\"https://maps.google.com/maps/contrib/116062139896057289281\">Rulo Gonz\u00e1lez</a>"], "photo_reference": "CmRaAAAAUU87mrf-AV3tmQ0HA-Q67ojCkp8W82-fmK-dcRwOOldS-Kn0Ab5Yv82yjOnis7PC9s3VWt8MzGXktj0yXi2Fh3EBz1rL55HmYSPwpVhYgRyBKa6lguR9TFzE6Tkgx9tQEhAAYcpMnsN96ab5law-QYLPGhQ1RzHggkdv9v6verF3c3VARaRqBw", "width": 1080}], "place_id": "ChIJDeBv_hL-0YUR1_3yUDmLvTc", "plus_code": {"compound_code": "9V6M+9X Mexico City", "global_code": "76F29V6M+9X"}, "rating": 4.2, "reference": "ChIJDeBv_hL-0YUR1_3yUDmLvTc", "types": ["bar", "restaurant", "food", "point_of_interest", "establishment"], "user_ratings_total": 23}, {"business_status": "CLOSED_TEMPORARILY", "formatted_address": "Av. Tlahuac 1831, Culhuacan, Iztapalapa, 09800 Ciudad de M\u00e9xico, CDMX", "geometry": {"location": {"lat": 19.3349861, "lng": -99.109117}, "viewport": {"northeast": {"lat": 19.33634082989272, "lng": -99.10771862010728}, "southwest": {"lat": 19.33364117010728, "lng": -99.11041827989273}}}, "icon": "https://maps.gstatic.com/mapfiles/place_api/icons/v1/png_71/bar-71.png", "name": "BAR CAPRICHO", "permanently_closed": true, "photos": [{"height": 3264, "html_attributions": ["<a href=\"https://maps.google.com/maps/contrib/107222494236710268001\">A Google User</a>"], "photo_reference": "CmRaAAAAucJ1YFpMsT5WLgbn0QyImnyuPlb1iByzg3PxySXV663ziJG5usSb82q3wtye7CxjY_jZ9zY2F4XLIH9oyW6ztSLRr-sFqySkXajq2wk6ZD4ht-JTp8fbPmq2jrg75k-bEhCwTYG8PnRtTG0Zn96HluBNGhRHmDFeL0KOeVAQ1bQ0a6A3f-DYwg", "width": 2448}], "place_id": "ChIJC0JdevwBzoURhWBIeu7es50", "plus_code": {"compound_code": "8VMR+X9 Mexico City", "global_code": "76F28VMR+X9"}, "rating": 3.7, "reference": "ChIJC0JdevwBzoURhWBIeu7es50", "types": ["bar", "point_of_interest", "establishment"], "user_ratings_total": 121}, {"business_status": "CLOSED_TEMPORARILY", "formatted_address": "Emilio Berliner, Fuego Nuevo, Iztapalapa, 09800 Ciudad de M\u00e9xico, CDMX", "geometry": {"location": {"lat": 19.3322947, "lng": -99.0972816}, "viewport": {"northeast": {"lat": 19.33366397989272, "lng": -99.09592792010729}, "southwest": {"lat": 19.33096432010728, "lng": -99.09862757989274}}}, "icon": "https://maps.gstatic.com/mapfiles/place_api/icons/v1/png_71/bar-71.png", "name": "Bars Mam\u00e1 Chelas", "permanently_closed": true, "photos": [{"height": 720, "html_attributions": ["<a href=\"https://maps.google.com/maps/contrib/104082347720495952100\">DJ GAR</a>"], "photo_reference": "CmRaAAAA1VCsYwsfwoJ0l1_rqPnsLutcNy3HJT1EBHfO7yuqhNM2ABTLkyFyMEmjkxcm6_8nhajntnjnAPuPnHYKCuHCGXW4WbPWZ-lZiTbkImdZmvy7owOq9LgeeqSGF_ACvVhCEhChKABmuB9yJjSLubvLTngVGhRNeQw7ILEvvN-DCMOCvfwBZTwASw", "width": 960}], "place_id": "ChIJWSqgJ70DzoUR4IPlmv5SKpY", "plus_code": {"compound_code": "8WJ3+W3 Mexico City", "global_code": "76F28WJ3+W3"}, "rating": 4.2, "reference": "ChIJWSqgJ70DzoUR4IPlmv5SKpY", "types": ["bar", "point_of_interest", "establishment"], "user_ratings_total": 14}, {"business_status": "OPERATIONAL", "formatted_address": "Ermita Iztapalapa 585, Granjas Esmeralda, Iztapalapa, 09810 Ciudad de M\u00e9xico, CDMX", "geometry": {"location": {"lat": 19.3569094, "lng": -99.1162166}, "viewport": {"northeast": {"lat": 19.35830252989272, "lng": -99.11485942010728}, "southwest": {"lat": 19.35560287010728, "lng": -99.11755907989271}}}, "icon": "https://maps.gstatic.com/mapfiles/place_api/icons/v1/png_71/bar-71.png", "name": "Toros y Burras", "opening_hours": {"open_now": true}, "photos": [{"height": 480, "html_attributions": ["<a href=\"https://maps.google.com/maps/contrib/102266057741838701957\">A Google User</a>"], "photo_reference": "CmRaAAAA24AgU5YzIKDRcwWs_ZHePf9J6rLrKTEFTGer1pyJs-IoYqR7eSgSBvZ59v4O2ijDQIvQmzElUzmcsToEMwi9en-aDN0xbhw8XpdsKvnPV5TWxCNFyfkjBDVtYSj74uVSEhCzUqbF59LqZl6BYWk9LloVGhTta70sN16ZC9z7bOoJSLt2SYq9KQ", "width": 853}], "place_id": "ChIJJ8_PYeL90YURhxNya--cIFE", "plus_code": {"compound_code": "9V4M+QG Mexico City", "global_code": "76F29V4M+QG"}, "rating": 3.6, "reference": "ChIJJ8_PYeL90YURhxNya--cIFE", "types": ["bar", "point_of_interest", "establishment"], "user_ratings_total": 317}]