[{"business_status": "OPERATIONAL", "formatted_address": "Av. Pdte. Plutarco El\u00edas Calles 11, Nueva Sta Anita, Iztacalco, 03500 Ciudad de M\u00e9xico, CDMX", "geometry": {"location": {"lat": 19.3811975, "lng": -99.13445259999999}, "viewport": {"northeast": {"lat": 19.38254242989272, "lng": -99.13307937010728}, "southwest": {"lat": 19.37984277010728, "lng": -99.13577902989273}}}, "icon": "https://maps.gstatic.com/mapfiles/place_api/icons/v1/png_71/generic_business-71.png", "name": "Bolero El Bola", "photos": [{"height": 2560, "html_attributions": ["<a href=\"https://maps.google.com/maps/contrib/104451932992811795099\">A Google User</a>"], "photo_reference": "CmRaAAAAtceJ9iw6b_CX2zWwm-1IJudCqvLERrs9MCwMrEZLV5o2trkDI8cxDRtwm9eNxyx3yMvCfUUdq5ydJ2gPwzNOagKUbxUqHJ0iPOEXZ6T9FagKnYHZDwAYbfQYIAZ8XUSgEhAbxLjDPzaNEpezymBbHDttGhTjBa08QSEAif2E0VA1Yy7O46o8mA", "width": 1440}], "place_id": "ChIJ-2Lt4ln-0YURAkwUUncD5wk", "plus_code": {"compound_code": "9VJ8+F6 Mexico City", "global_code": "76F29VJ8+F6"}, "rating": 0, "reference": "ChIJ-2Lt4ln-0YURAkwUUncD5wk", "types": ["bowling_alley", "point_of_interest", "establishment"], "user_ratings_total": 0}, {"business_status": "OPERATIONAL", "formatted_address": "Eugenia #1664, Narvarte Poniente, Benito Ju\u00e1rez, 03020 Ciudad de M\u00e9xico, CDMX", "geometry": {"location": {"lat": 19.3841685, "lng": -99.1504638}, "viewport": {"northeast": {"lat": 19.38556367989272, "lng": -99.14917992010729}, "southwest": {"lat": 19.38286402010728, "lng": -99.15187957989272}}}, "icon": "https://maps.gstatic.com/mapfiles/place_api/icons/v1/png_71/generic_business-71.png", "name": "Bol Narvarte", "opening_hours": {"open_now": true}, "photos": [{"height": 2976, "html_attributions": ["<a href=\"https://maps.google.com/maps/contrib/106904190838039531350\">Aldo N\u00e1jera Flores</a>"], "photo_reference": "CmRaAAAA-SGMERCN8kMz9sadcGdQmnOIbqdpSNCdqdkdUxhbfa7WsJWS-hJ0_EPfjo4QpwyHvJe8mpgyfUudcRRFYMSy8zQuBbJu8a7snRFDnivBg-IDAaTYMsA4IEUgyfib_b3aEhB5OSKEP2YVxtrEXL5ZlcztGhQGSF9wKAOlwmAEMCk8WmBCvnXD3g", "width": 3968}], "place_id": "ChIJMe8yEar_0YUR05QP7RIusXw", "plus_code": {"compound_code": "9RMX+MR Mexico City", "global_code": "76F29RMX+MR"}, "rating": 4, "reference": "ChIJMe8yEar_0YUR05QP7RIusXw", "types": ["bowling_alley", "point_of_interest", "establishment"], "user_ratings_total": 1803}, {"business_status": "OPERATIONAL", "formatted_address": "Eje 8 Sur, Jos\u00e9 Mar\u00eda Rico 526, Col del Valle Sur, Benito Ju\u00e1rez, 03100 Ciudad de M\u00e9xico, CDMX", "geometry": {"location": {"lat": 19.3672886, "lng": -99.1711502}, "viewport": {"northeast": {"lat": 19.36855557989272, "lng": -99.1698195701073}, "southwest": {"lat": 19.36585592010728, "lng": -99.17251922989273}}}, "icon": "https://maps.gstatic.com/mapfiles/place_api/icons/v1/png_71/generic_business-71.png", "name": "Bolerama Coyoac\u00e1n", "opening_hours": {"open_now": true}, "photos": [{"height": 1333, "html_attributions": ["<a href=\"https://maps.google.com/maps/contrib/113066118358968581462\">Bolerama Coyoac\u00e1n</a>"], "photo_reference": "CmRaAAAAKcgAhh38wUT1ClGyWI9-nbQzVYcSyNGpyBlF6ScnBHgYjWQqw7tc4gin2Rb5lNaj4u9LsEAC6r74olL2IUSaLTGYsVe9sQVOF0SwzepCSlzsR8xpOkgIhUmLiMBAVTzUEhDV3in84EWcctPMpPEG1YU4GhTm8uhPLiAzQ7rFvgD6HF74RqoxjQ", "width": 2000}], "place_id": "ChIJHUMfYOcc0oURe4QuKWf5BwM", "plus_code": {"compound_code": "9R8H+WG Mexico City", "global_code": "76F29R8H+WG"}, "rating": 4.5, "reference": "ChIJHUMfYOcc0oURe4QuKWf5BwM", "types": ["bowling_alley", "point_of_interest", "establishment"], "user_ratings_total": 5059}, {"business_status": "OPERATIONAL", "formatted_address": "L\u00e1zaro Pavia 306, Jard\u00edn Balbuena, Venustiano Carranza, 15900 Ciudad de M\u00e9xico, CDMX", "geometry": {"location": {"lat": 19.4164861, "lng": -99.1153254}, "viewport": {"northeast": {"lat": 19.41783842989272, "lng": -99.11399692010728}, "southwest": {"lat": 19.41513877010728, "lng": -99.11669657989273}}}, "icon": "https://maps.gstatic.com/mapfiles/place_api/icons/v1/png_71/generic_business-71.png", "name": "Bolero \u201cDon Felipe\u201d", "opening_hours": {"open_now": false}, "place_id": "ChIJGfaHdWz_0YURITjT63zRDzo", "plus_code": {"compound_code": "CV8M+HV Mexico City", "global_code": "76F2CV8M+HV"}, "rating": 0, "reference": "ChIJGfaHdWz_0YURITjT63zRDzo", "types": ["bowling_alley", "point_of_interest", "establishment"], "user_ratings_total": 0}, {"business_status": "OPERATIONAL", "formatted_address": "Calz. de Tlalpan 3543, Sta. \u00darsula Coapa, Coyoac\u00e1n, 04650 Ciudad de M\u00e9xico, CDMX", "geometry": {"location": {"lat": 19.300518, "lng": -99.1491089}, "viewport": {"northeast": {"lat": 19.30174862989272, "lng": -99.14765692010728}, "southwest": {"lat": 19.29904897010728, "lng": -99.15035657989272}}}, "icon": "https://maps.gstatic.com/mapfiles/place_api/icons/v1/png_71/generic_business-71.png", "name": "BOL TLALPAN", "opening_hours": {"open_now": true}, "photos": [{"height": 3024, "html_attributions": ["<a href=\"https://maps.google.com/maps/contrib/107220160833597048439\">H\u00e9ctor Aguilar</a>"], "photo_reference": "CmRaAAAAbowOEm_zFruf1BxNtA8_jVxga9zoK8Gzw8u11bRLxN0VsbAXkbjpeoRGxT8B8eu6yLEmAcwTxx-fLgTXus4Byi0RO23fBEUZsNnyhqQ92VACCJjXa_116k2qDTCy99NCEhBtYZu7ioJrqSWBsOn4JHwAGhTzg16T3-8MI9tCjnPbabpT-qGIFQ", "width": 4032}], "place_id": "ChIJHS4ZM1gAzoURbD9ZuoRaF0A", "plus_code": {"compound_code": "8V22+69 Mexico City", "global_code": "76F28V22+69"}, "rating": 4.4, "reference": "ChIJHS4ZM1gAzoURbD9ZuoRaF0A", "types": ["bowling_alley", "point_of_interest", "establishment"], "user_ratings_total": 2723}, {"business_status": "OPERATIONAL", "formatted_address": "Av. Insurgentes Sur 1222, Tlacoquemecatl del Valle, Benito Ju\u00e1rez, 03220 Ciudad de M\u00e9xico, CDMX", "geometry": {"location": {"lat": 19.3762561, "lng": -99.17793189999999}, "viewport": {"northeast": {"lat": 19.37762457989272, "lng": -99.17665297010727}, "southwest": {"lat": 19.37492492010728, "lng": -99.17935262989272}}}, "icon": "https://maps.gstatic.com/mapfiles/place_api/icons/v1/png_71/generic_business-71.png", "name": "Bolero", "place_id": "ChIJ13InOpv_0YUR9kEQgZ1HBEw", "plus_code": {"compound_code": "9RGC+GR Mexico City", "global_code": "76F29RGC+GR"}, "rating": 0, "reference": "ChIJ13InOpv_0YUR9kEQgZ1HBEw", "types": ["bowling_alley", "point_of_interest", "establishment"], "user_ratings_total": 0}, {"business_status": "OPERATIONAL", "formatted_address": "Hermes 25, Cr\u00e9dito Constructor, Benito Ju\u00e1rez, 03940 Ciudad de M\u00e9xico, CDMX", "geometry": {"location": {"lat": 19.3637496, "lng": -99.1810366}, "viewport": {"northeast": {"lat": 19.36524577989272, "lng": -99.17964332010729}, "southwest": {"lat": 19.36254612010728, "lng": -99.18234297989272}}}, "icon": "https://maps.gstatic.com/mapfiles/place_api/icons/v1/png_71/generic_business-71.png", "name": "Boliches AMF Insurgentes", "opening_hours": {"open_now": true}, "photos": [{"height": 3024, "html_attributions": ["<a href=\"https://maps.google.com/maps/contrib/117044898817302189069\">Marc Bernal</a>"], "photo_reference": "CmRaAAAArhOkdvh9sMc6TBkUw1BLMcCFDFe11Q2k5qeONnAcVH9EnX3HZgHpmq_6pqYqzsF-neZrfU8O49l5vj_j4nia9YU4em8owq3wQb6ccjVzw8J-iPMfdh6NVOoTEfWnwkWIEhCndDikENTV81acQ9Lj4KfrGhR8yEBlaZc4CqbMCOvWM6tbY6ry1w", "width": 4032}], "place_id": "ChIJ_36SrY3_0YUROj0ZnrvAIz8", "plus_code": {"compound_code": "9R79+FH Mexico City", "global_code": "76F29R79+FH"}, "rating": 4.2, "reference": "ChIJ_36SrY3_0YUROj0ZnrvAIz8", "types": ["bowling_alley", "point_of_interest", "establishment"], "user_ratings_total": 2094}, {"business_status": "OPERATIONAL", "formatted_address": "Miguel Hidalgo 2, Tlalpan Centro I, Tlalpan, 14000 Ciudad de M\u00e9xico, CDMX", "geometry": {"location": {"lat": 19.2889744, "lng": -99.1664521}, "viewport": {"northeast": {"lat": 19.29030552989272, "lng": -99.1651348701073}, "southwest": {"lat": 19.28760587010728, "lng": -99.16783452989274}}}, "icon": "https://maps.gstatic.com/mapfiles/place_api/icons/v1/png_71/generic_business-71.png", "name": "Bolero zapatos El Maii", "opening_hours": {"open_now": false}, "photos": [{"height": 1080, "html_attributions": ["<a href=\"https://maps.google.com/maps/contrib/108170293969618111015\">Jose Alberto Hernandez Palacios</a>"], "photo_reference": "CmRaAAAAtI5xTgBpaPmmo_H4u0TrTiZUvdMiNtWd7bZG6lTGdiIazDlfliRdgA-sd3Akfl18qseEq3s2acFlJ-3Koi_Fhu0TnOZik25pIAH8umwzyQ90kBAGPxqOUhcvRwI6X1N6EhCBSZlYY3-ba_-jj8VPzadFGhRM32_vFB_ITPx8OYKSW5RnqFKg9w", "width": 1920}], "place_id": "ChIJ2cVIBqoBzoURxwdnYyJt1oE", "plus_code": {"compound_code": "7RQM+HC Mexico City", "global_code": "76F27RQM+HC"}, "rating": 0, "reference": "ChIJ2cVIBqoBzoURxwdnYyJt1oE", "types": ["bowling_alley", "point_of_interest", "establishment"], "user_ratings_total": 0}, {"business_status": "OPERATIONAL", "formatted_address": "Avenida Patriotismo 229, San Pedro de los Pinos, Benito Ju\u00e1rez, 03810 Ciudad de M\u00e9xico, CDMX", "geometry": {"location": {"lat": 19.3963898, "lng": -99.18038299999999}, "viewport": {"northeast": {"lat": 19.39782272989272, "lng": -99.17938422010727}, "southwest": {"lat": 19.39512307010728, "lng": -99.18208387989272}}}, "icon": "https://maps.gstatic.com/mapfiles/place_api/icons/v1/png_71/generic_business-71.png", "name": "Alboa Patriotismo", "opening_hours": {"open_now": true}, "photos": [{"height": 3029, "html_attributions": ["<a href=\"https://maps.google.com/maps/contrib/101140157211829159526\">Claudia Patricia Galarza</a>"], "photo_reference": "CmRaAAAANz2XlJffnL-eHQgt98528b5S0kbGQEd8ewM2xTJnm3KB_0nO3u626BfP9iapE6a4XiGLgwslHkjT0bFqC6BwgI96UOnKX-xKxvyBySc2mMMIuLQfw61p09_HGEbL7jVPEhDv9jpEpdyQFnPcvMBn5kj6GhQv3hx0nhY-m1PXnQ-RMoX5dQI_KQ", "width": 4654}], "place_id": "ChIJ3xSCN2X_0YURUG3AcC30aIM", "plus_code": {"compound_code": "9RW9+HR Mexico City", "global_code": "76F29RW9+HR"}, "rating": 4.4, "reference": "ChIJ3xSCN2X_0YURUG3AcC30aIM", "types": ["bowling_alley", "point_of_interest", "establishment"], "user_ratings_total": 1878}, {"business_status": "OPERATIONAL", "formatted_address": "Juan Vazquez de Mella #315, Chapultepec Morales, Polanco I Secc, Miguel Hidalgo, 11560 Ciudad de M\u00e9xico, CDMX", "geometry": {"location": {"lat": 19.4380673, "lng": -99.2083033}, "viewport": {"northeast": {"lat": 19.43938837989272, "lng": -99.20679817010728}, "southwest": {"lat": 19.43668872010728, "lng": -99.20949782989273}}}, "icon": "https://maps.gstatic.com/mapfiles/place_api/icons/v1/png_71/generic_business-71.png", "name": "AMF Bol Polanco", "opening_hours": {"open_now": true}, "photos": [{"height": 3072, "html_attributions": ["<a href=\"https://maps.google.com/maps/contrib/114208053094854716780\">A Google User</a>"], "photo_reference": "CmRaAAAA3IcGmnjaOkPiJ7j5i1HfIPPiR4dbGdOBnCgMwflxUwKsTgUl7HlNFOTaDs_IUc2p1w3TUubUstaqa6oChwlJh5LdMA1-K3_QxK9I_mYdsHZdLaLL-TVGiq3SLEsY-OIGEhCN1T0GsXLYISkcdI7fuHm9GhSAW7XvyE6volml-e_vD1ZDuOIoNA", "width": 4096}], "place_id": "ChIJh_LqChkC0oURfrACDsx-BBI", "plus_code": {"compound_code": "CQQR+6M Mexico City", "global_code": "76F2CQQR+6M"}, "rating": 4.3, "reference": "ChIJh_LqChkC0oURfrACDsx-BBI", "types": ["bowling_alley", "point_of_interest", "establishment"], "user_ratings_total": 1597}, {"business_status": "OPERATIONAL", "formatted_address": "Bah\u00eda Todos Los Santos 157, Ver\u00f3nica Anz\u00fares, Miguel Hidalgo, 11300 Ciudad de M\u00e9xico, CDMX", "geometry": {"location": {"lat": 19.434429, "lng": -99.17338009999999}, "viewport": {"northeast": {"lat": 19.43582157989272, "lng": -99.17200222010727}, "southwest": {"lat": 19.43312192010728, "lng": -99.17470187989272}}}, "icon": "https://maps.gstatic.com/mapfiles/place_api/icons/v1/png_71/generic_business-71.png", "name": "Bol Bah\u00eda", "opening_hours": {"open_now": true}, "photos": [{"height": 3000, "html_attributions": ["<a href=\"https://maps.google.com/maps/contrib/108327791927295591700\">Josue MRodriguez</a>"], "photo_reference": "CmRaAAAA2ZQRHoCLfUJELhLDYPOwbFEwuw_VhmdvUQXKGqQlaLnDhbqrTIMZGEpjQYaENEJWTR3S5LbNtZpPaOWU6wR_GR5TpvwbpZWDQ-avhstj5nFpsHQHubNrbCS9bJV4RDK3EhCI_5grJa7jboM5geo9hfdTGhS8GTpxwd2K57zoJRifpJ0SxYdGeg", "width": 4000}], "place_id": "ChIJR2EMgLP40YURLNErRPAizg4", "plus_code": {"compound_code": "CRMG+QJ Mexico City", "global_code": "76F2CRMG+QJ"}, "rating": 4.2, "reference": "ChIJR2EMgLP40YURLNErRPAizg4", "types": ["bowling_alley", "bar", "restaurant", "food", "point_of_interest", "store", "establishment"], "user_ratings_total": 2006}, {"business_status": "OPERATIONAL", "formatted_address": "Av. Montevideo 109, Lindavista, Gustavo A. Madero, 07300 Ciudad de M\u00e9xico, CDMX", "geometry": {"location": {"lat": 19.4877778, "lng": -99.1244444}, "viewport": {"northeast": {"lat": 19.48899527989272, "lng": -99.12314812010729}, "southwest": {"lat": 19.48629562010727, "lng": -99.12584777989272}}}, "icon": "https://maps.gstatic.com/mapfiles/place_api/icons/v1/png_71/generic_business-71.png", "name": "Bol Montevideo AMF", "opening_hours": {"open_now": true}, "photos": [{"height": 2448, "html_attributions": ["<a href=\"https://maps.google.com/maps/contrib/116062655087234941379\">A Google User</a>"], "photo_reference": "CmRaAAAAspxeUAfAM3npjGUVsN7r3-y98Z88LPtHwnfcD7NncJWw3W9Xob5TPHqu93Y6J4pD0ATQJtlIZMxVRcfKYK2Qx393wNNrldkPONmHHi1MxAmpElZo51O9mfEJs_4WnNyvEhDeL7Iwc-tcW03JIdD-mx_NGhQlT3k4eUJrRdnsLDQg8tLayuwtgQ", "width": 3264}], "place_id": "ChIJudfMGaL50YURcHmJ_yTt84s", "plus_code": {"compound_code": "FVQG+46 Mexico City", "global_code": "76F2FVQG+46"}, "rating": 4.2, "reference": "ChIJudfMGaL50YURcHmJ_yTt84s", "types": ["bowling_alley", "point_of_interest", "establishment"], "user_ratings_total": 2659}, {"business_status": "OPERATIONAL", "formatted_address": "Col del Valle Nte, Coyoac\u00e1n, 03100 Mexico City", "geometry": {"location": {"lat": 19.3898177, "lng": -99.16641949999999}, "viewport": {"northeast": {"lat": 19.39117382989272, "lng": -99.16510032010729}, "southwest": {"lat": 19.38847417010728, "lng": -99.16779997989273}}}, "icon": "https://maps.gstatic.com/mapfiles/place_api/icons/v1/png_71/generic_business-71.png", "name": "Aceadores de calzado \"Don PePe\"", "opening_hours": {"open_now": false}, "photos": [{"height": 1520, "html_attributions": ["<a href=\"https://maps.google.com/maps/contrib/104474052004159479614\">A Google User</a>"], "photo_reference": "CmRaAAAApl-j5JKBoCQcE6UhLTZ9eN3FMQZukB-V24zMC5DdP4G6gPsP61Y9guQATnutJZ8sm5Wr9MoWswIe7JfjDz-KJoTTIkq4OewxcpaJy-Zba7xj8xpAuJ8_3Ts2skdf8hVVEhBV-Ia6vnZA8mDweurzOzx3GhQB4IE_rdFRNQGcWMgFVkQz_b8KVA", "width": 720}], "place_id": "ChIJC-lD28b_0YURfgffvpY228M", "plus_code": {"compound_code": "9RQM+WC Mexico City", "global_code": "76F29RQM+WC"}, "rating": 5, "reference": "ChIJC-lD28b_0YURfgffvpY228M", "types": ["bowling_alley", "point_of_interest", "establishment"], "user_ratings_total": 1}, {"business_status": "OPERATIONAL", "formatted_address": "Violeta 140, Moctezuma 2da Secc, La Magdalena Contreras, 10610 Ciudad de M\u00e9xico, CDMX", "geometry": {"location": {"lat": 19.4340133, "lng": -99.1041674}, "viewport": {"northeast": {"lat": 19.43537652989273, "lng": -99.10284777010727}, "southwest": {"lat": 19.43267687010728, "lng": -99.10554742989272}}}, "icon": "https://maps.gstatic.com/mapfiles/place_api/icons/v1/png_71/generic_business-71.png", "name": "The Alley Cat", "place_id": "ChIJw2WQJ6v-0YURr_6zuQoiDCw", "rating": 0, "reference": "ChIJw2WQJ6v-0YURr_6zuQoiDCw", "types": ["bowling_alley", "point_of_interest", "establishment"], "user_ratings_total": 0}, {"business_status": "OPERATIONAL", "formatted_address": "Nivel B, Calle Guillermo Gonzalez Camarena 1205, \u00c1lvaro Obreg\u00f3n, 01210 CDMX", "geometry": {"location": {"lat": 19.3660229, "lng": -99.263897}, "viewport": {"northeast": {"lat": 19.36749432989272, "lng": -99.26268537010728}, "southwest": {"lat": 19.36479467010728, "lng": -99.26538502989273}}}, "icon": "https://maps.gstatic.com/mapfiles/place_api/icons/v1/png_71/generic_business-71.png", "name": "Royal Bol Garden Santa Fe", "opening_hours": {}, "photos": [{"height": 1960, "html_attributions": ["<a href=\"https://maps.google.com/maps/contrib/112170982198058447890\">Emmanuel Ignacio Orihuela</a>"], "photo_reference": "CmRaAAAAk9pz1OzYYXKVzCmDIjhdul_ff-sbT0WuZJcZf0KDMvEaUn5WZ5fIAD5U4LQ3F1xm_JiS35TL_NkJd780biNZtkAG2eJnW3KBDEOUejKJavt0q-sKZOpSQS0ojcOarjyJEhAGJkFxVNdBwZAgdrMBoTUuGhR8QjNUC52T_KRxmOQkzLXb84Dwlw", "width": 4032}], "place_id": "ChIJP2Qz78QA0oURQXaoZIgqiHk", "plus_code": {"compound_code": "9P8P+CC Mexico City", "global_code": "76F29P8P+CC"}, "rating": 4.5, "reference": "ChIJP2Qz78QA0oURQXaoZIgqiHk", "types": ["bowling_alley", "point_of_interest", "establishment"], "user_ratings_total": 392}, {"business_status": "OPERATIONAL", "formatted_address": "Av M\u00e9xico 75A, Hip\u00f3dromo, Cuauht\u00e9moc, 06100 Ciudad de M\u00e9xico, CDMX", "geometry": {"location": {"lat": 19.4115713, "lng": -99.1704196}, "viewport": {"northeast": {"lat": 19.41293677989272, "lng": -99.16911137010729}, "southwest": {"lat": 19.41023712010728, "lng": -99.17181102989274}}}, "icon": "https://maps.gstatic.com/mapfiles/place_api/icons/v1/png_71/generic_business-71.png", "name": "Boleado de zapatos Don Julio", "place_id": "ChIJ9XPWmIX_0YURDtEBT1OhCNk", "plus_code": {"compound_code": "CR6H+JR Mexico City", "global_code": "76F2CR6H+JR"}, "rating": 0, "reference": "ChIJ9XPWmIX_0YURDtEBT1OhCNk", "types": ["bowling_alley", "point_of_interest", "establishment"], "user_ratings_total": 0}, {"business_status": "OPERATIONAL", "formatted_address": "Unnamed Road, Residencial Zacatenco, 07369 Ciudad de M\u00e9xico, CDMX", "geometry": {"location": {"lat": 19.4955694, "lng": -99.120274}, "viewport": {"northeast": {"lat": 19.49692322989272, "lng": -99.11894492010728}, "southwest": {"lat": 19.49422357010728, "lng": -99.12164457989273}}}, "icon": "https://maps.gstatic.com/mapfiles/place_api/icons/v1/png_71/generic_business-71.png", "name": "Bolero saucedos", "photos": [{"height": 1920, "html_attributions": ["<a href=\"https://maps.google.com/maps/contrib/101297337972021438485\">Jose Antonio Aquino Espejel</a>"], "photo_reference": "CmRaAAAA8cZNkhtQwMN8pFFQIau_gsesMqEf4Wc8_9dOta1HnpQnkZ25a1LhijdYbNPTv5zMxaRiJlyjrQMuW4Ys4K91Qz0-MPTLRFkgW8QX-Raye9-6GwR1y3E5jzmWLH77C-BFEhDM2fgVGCFuFt4xanJm3WcjGhTKXHHj515b81isuMBJAQ7Jk0sFkQ", "width": 1080}], "place_id": "ChIJ3Q04whz50YURtGcfGx7dqa8", "plus_code": {"compound_code": "FVWH+6V Mexico City", "global_code": "76F2FVWH+6V"}, "rating": 0, "reference": "ChIJ3Q04whz50YURtGcfGx7dqa8", "types": ["bowling_alley", "point_of_interest", "establishment"], "user_ratings_total": 0}, {"business_status": "OPERATIONAL", "formatted_address": "7 de Julio, Venustiano Carranza, 15390 Mexico City", "geometry": {"location": {"lat": 19.4301744, "lng": -99.1134043}, "viewport": {"northeast": {"lat": 19.43148687989272, "lng": -99.11206282010728}, "southwest": {"lat": 19.42878722010728, "lng": -99.11476247989273}}}, "icon": "https://maps.gstatic.com/mapfiles/place_api/icons/v1/png_71/generic_business-71.png", "name": "Loter\u00eda Nacional", "place_id": "ChIJbzaxItf_0YURFhtJIn5Jxsg", "plus_code": {"compound_code": "CVJP+3J Mexico City", "global_code": "76F2CVJP+3J"}, "rating": 0, "reference": "ChIJbzaxItf_0YURFhtJIn5Jxsg", "types": ["bowling_alley", "point_of_interest", "establishment"], "user_ratings_total": 0}, {"business_status": "OPERATIONAL", "formatted_address": "Vasco de Quiroga 3850, Lomas de Santa Fe, Cuajimalpa, Cuajimalpa de Morelos, 05348 Ciudad de M\u00e9xico, CDMX", "geometry": {"location": {"lat": 19.3608689, "lng": -99.2757122}, "viewport": {"northeast": {"lat": 19.36229382989272, "lng": -99.27426802010727}, "southwest": {"lat": 19.35959417010728, "lng": -99.27696767989272}}}, "icon": "https://maps.gstatic.com/mapfiles/place_api/icons/v1/png_71/generic_business-71.png", "name": "Alboa", "opening_hours": {"open_now": true}, "photos": [{"height": 1080, "html_attributions": ["<a href=\"https://maps.google.com/maps/contrib/113087157082108599525\">aaronzon</a>"], "photo_reference": "CmRaAAAAMQ6K4sm-9OoEisGcyQ9vSZfKSbDxzr5TAjC2YUsd92W0LpWAXxNtJ2P9J8SWq2MxKMK8j1y8MtBQpMd3Rak_wzxXbUgMqY1nCsSJ6W4fVcQZ2pGKFcoyv1u03egZNRGxEhCx8L47RT1Pp4ZjYohEUbBUGhTSNfg_tSmuaOc4vdEIPBdL7gzxxg", "width": 1920}], "place_id": "ChIJ67d_YcsA0oUR-fTwGjPc9mg", "plus_code": {"compound_code": "9P6F+8P Mexico City", "global_code": "76F29P6F+8P"}, "rating": 4.4, "reference": "ChIJ67d_YcsA0oUR-fTwGjPc9mg", "types": ["bowling_alley", "bar", "restaurant", "food", "point_of_interest", "establishment"], "user_ratings_total": 1642}, {"business_status": "OPERATIONAL", "formatted_address": "Nte 82-A 6546, San Pedro el Chico, Gustavo A. Madero, 07480 Ciudad de M\u00e9xico, CDMX", "geometry": {"location": {"lat": 19.4712542, "lng": -99.09921709999999}, "viewport": {"northeast": {"lat": 19.47258222989272, "lng": -99.09780037010728}, "southwest": {"lat": 19.46988257010728, "lng": -99.10050002989273}}}, "icon": "https://maps.gstatic.com/mapfiles/place_api/icons/v1/png_71/generic_business-71.png", "name": "Exelente", "place_id": "ChIJ253dGcL70YURhHJeIQ_FppA", "plus_code": {"compound_code": "FWC2+G8 Mexico City", "global_code": "76F2FWC2+G8"}, "rating": 0, "reference": "ChIJ253dGcL70YURhHJeIQ_FppA", "types": ["bowling_alley", "point_of_interest", "establishment"], "user_ratings_total": 0}]