[{"business_status": "OPERATIONAL", "formatted_address": "Puente Titla, Ampliaci\u00f3n Ricardo Flores Mag\u00f3n, 09828 Iztapalapa, CDMX", "geometry": {"location": {"lat": 19.353705, "lng": -99.09936599999999}, "viewport": {"northeast": {"lat": 19.35504387989272, "lng": -99.09798717010729}, "southwest": {"lat": 19.35234422010728, "lng": -99.10068682989272}}}, "icon": "https://maps.gstatic.com/mapfiles/place_api/icons/v1/png_71/shopping-71.png", "name": "FlavorCup Iztapalapa", "opening_hours": {"open_now": true}, "photos": [{"height": 3456, "html_attributions": ["<a href=\"https://maps.google.com/maps/contrib/103192964286047952723\">Herbert Maldonado</a>"], "photo_reference": "CmRaAAAAZfzTXV8MLIuwG-x3tfFkOAC3UOsQIFJ1ryh__toZLkdH1Z0wru--v01It8puPMPmWa6aCwWY3I3YJIKfXjTeQWpQfil5Cpp8NHl0Ot3MnxAAZZaxIz_UmEoYWHJxhy2hEhDjKDr9g384rf4J8liSkWagGhS1TYYAB-Bb376fmcIJ8nA7MDFxyw", "width": 5184}], "place_id": "ChIJO_y7xOL90YURM8avLLGZJkM", "plus_code": {"compound_code": "9W32+F7 Mexico City", "global_code": "76F29W32+F7"}, "price_level": 2, "rating": 4.2, "reference": "ChIJO_y7xOL90YURM8avLLGZJkM", "types": ["cafe", "food", "point_of_interest", "store", "establishment"], "user_ratings_total": 120}, {"business_status": "OPERATIONAL", "formatted_address": "Puentetitla 17, Estrella del Sur, Iztapalapa, 09820 Ciudad de M\u00e9xico, CDMX", "geometry": {"location": {"lat": 19.3507276, "lng": -99.1005954}, "viewport": {"northeast": {"lat": 19.35207512989272, "lng": -99.09923922010726}, "southwest": {"lat": 19.34937547010728, "lng": -99.10193887989271}}}, "icon": "https://maps.gstatic.com/mapfiles/place_api/icons/v1/png_71/cafe-71.png", "name": "Cafe Gourmet COA", "opening_hours": {"open_now": true}, "place_id": "ChIJ7520aP390YURrx-BH57a5jw", "plus_code": {"compound_code": "9V2X+7Q Mexico City", "global_code": "76F29V2X+7Q"}, "rating": 3.3, "reference": "ChIJ7520aP390YURrx-BH57a5jw", "types": ["cafe", "food", "point_of_interest", "store", "establishment"], "user_ratings_total": 3}, {"business_status": "OPERATIONAL", "formatted_address": "A de, Sur 125 152, Los Cipreses, Iztapalapa, 09810 Ciudad de M\u00e9xico, CDMX", "geometry": {"location": {"lat": 19.350924, "lng": -99.1085023}, "viewport": {"northeast": {"lat": 19.35227707989273, "lng": -99.1071978701073}, "southwest": {"lat": 19.34957742010728, "lng": -99.10989752989275}}}, "icon": "https://maps.gstatic.com/mapfiles/place_api/icons/v1/png_71/cafe-71.png", "name": "El Capricho Coffee", "place_id": "ChIJ1445lAX-0YURjVxZwLbeJjA", "plus_code": {"compound_code": "9V2R+9H Mexico City", "global_code": "76F29V2R+9H"}, "rating": 3, "reference": "ChIJ1445lAX-0YURjVxZwLbeJjA", "types": ["cafe", "food", "point_of_interest", "establishment"], "user_ratings_total": 2}, {"business_status": "OPERATIONAL", "formatted_address": "Ermita Iztapalapa 528, H\u00e9roes de Churubusco, Iztapalapa, 09090 Ciudad de M\u00e9xico, CDMX", "geometry": {"location": {"lat": 19.355575, "lng": -99.10014319999999}, "viewport": {"northeast": {"lat": 19.35691892989272, "lng": -99.09879402010728}, "southwest": {"lat": 19.35421927010728, "lng": -99.10149367989271}}}, "icon": "https://maps.gstatic.com/mapfiles/place_api/icons/v1/png_71/cafe-71.png", "name": "El Gorila Caf\u00e9", "place_id": "ChIJgafSYeL90YUR-G4eRuX2Xgs", "plus_code": {"compound_code": "9V4X+6W Mexico City", "global_code": "76F29V4X+6W"}, "rating": 5, "reference": "ChIJgafSYeL90YUR-G4eRuX2Xgs", "types": ["cafe", "food", "point_of_interest", "establishment"], "user_ratings_total": 3}, {"business_status": "OPERATIONAL", "formatted_address": "Ilhuicamina & Tizoc, Zona Urbana Ejidal los Reyes Culhuacan, Iztapalapa, 09820 Ciudad de M\u00e9xico, CDMX", "geometry": {"location": {"lat": 19.3460694, "lng": -99.10238199999999}, "viewport": {"northeast": {"lat": 19.34738672989272, "lng": -99.10104097010729}, "southwest": {"lat": 19.34468707010728, "lng": -99.10374062989274}}}, "icon": "https://maps.gstatic.com/mapfiles/place_api/icons/v1/png_71/cafe-71.png", "name": "Cafeter\u00eda Dubai", "opening_hours": {"open_now": true}, "photos": [{"height": 4160, "html_attributions": ["<a href=\"https://maps.google.com/maps/contrib/111253931170940823278\">A Google User</a>"], "photo_reference": "CmRaAAAAqPiFVRpLPPzf_TIl0C9EZNIV1LhTtxRDQlBoeFkeQxBMqAkXlJyaHBAczZDj1VoZLJgwckamCCn4pCwlYEvqnPq_r1XcFug-ZqB8r_Atk4uuPL-N_RH9dFRwXSt24YMbEhCj_kQ5h-pN9nlJIXmn1byRGhSzhe9N4qms3pPM2OXxjPbAfF0eCg", "width": 3120}], "place_id": "ChIJt7rMtgD-0YURPGTnN60JCSY", "plus_code": {"compound_code": "8VWX+C2 Mexico City", "global_code": "76F28VWX+C2"}, "rating": 4.1, "reference": "ChIJt7rMtgD-0YURPGTnN60JCSY", "types": ["cafe", "food", "point_of_interest", "store", "establishment"], "user_ratings_total": 21}, {"business_status": "OPERATIONAL", "formatted_address": "Tlaxcanes 35, Ricardo Flores Mag\u00f3n, Iztapalapa, 09820 Ciudad de M\u00e9xico, CDMX", "geometry": {"location": {"lat": 19.3537749, "lng": -99.0977006}, "viewport": {"northeast": {"lat": 19.35515102989272, "lng": -99.09633957010728}, "southwest": {"lat": 19.35245137010728, "lng": -99.09903922989271}}}, "icon": "https://maps.gstatic.com/mapfiles/place_api/icons/v1/png_71/cafe-71.png", "name": "Cafeteria Del 37", "place_id": "ChIJ63mDO-P90YURb7hpf646RJ8", "plus_code": {"compound_code": "9W32+GW Mexico City", "global_code": "76F29W32+GW"}, "rating": 4.9, "reference": "ChIJ63mDO-P90YURb7hpf646RJ8", "types": ["cafe", "food", "point_of_interest", "store", "establishment"], "user_ratings_total": 15}, {"business_status": "OPERATIONAL", "formatted_address": "Agricultores 302, Minerva, Iztapalapa, 09810 Ciudad de M\u00e9xico, CDMX", "geometry": {"location": {"lat": 19.3548043, "lng": -99.1100336}, "viewport": {"northeast": {"lat": 19.35609862989272, "lng": -99.10868992010727}, "southwest": {"lat": 19.35339897010728, "lng": -99.11138957989272}}}, "icon": "https://maps.gstatic.com/mapfiles/place_api/icons/v1/png_71/cafe-71.png", "name": "Cafeter\u00eda El Capricho", "place_id": "ChIJuad6rA_-0YURGidQEiEJPs4", "plus_code": {"compound_code": "9V3Q+WX Mexico City", "global_code": "76F29V3Q+WX"}, "rating": 4.3, "reference": "ChIJuad6rA_-0YURGidQEiEJPs4", "types": ["cafe", "food", "point_of_interest", "store", "establishment"], "user_ratings_total": 7}, {"business_status": "OPERATIONAL", "formatted_address": "Tlaxcanes 3, Ricardo Flores Mag\u00f3n, Iztapalapa, 09820 Ciudad de M\u00e9xico, CDMX", "geometry": {"location": {"lat": 19.3542714, "lng": -99.0989953}, "viewport": {"northeast": {"lat": 19.35564462989272, "lng": -99.09763547010728}, "southwest": {"lat": 19.35294497010728, "lng": -99.10033512989271}}}, "icon": "https://maps.gstatic.com/mapfiles/place_api/icons/v1/png_71/cafe-71.png", "name": "Dulce Creaci\u00f3n", "opening_hours": {"open_now": true}, "photos": [{"height": 3096, "html_attributions": ["<a href=\"https://maps.google.com/maps/contrib/115269747581822912943\">A Google User</a>"], "photo_reference": "CmRaAAAA3TYwCQ1ELlcttj8NqMbOuN3cE2xskrGj5VYguooldBupgCy1qe9JPCcm5cYj-bgyyQrYDe9X7Vo0sFXuVyDlhlqBmkjufSYTNgVGrAPeDSeTm3gBQOqI-U6cy3VptfgjEhCBMlQLTWplXLyOrVF2wQd1GhRzURwkm7qmowO8bqq4-TKzFJOLsA", "width": 4128}], "place_id": "ChIJcTvvVTz90YURsNLRt5fIMTo", "plus_code": {"compound_code": "9W32+PC Mexico City", "global_code": "76F29W32+PC"}, "rating": 0, "reference": "ChIJcTvvVTz90YURsNLRt5fIMTo", "types": ["cafe", "food", "point_of_interest", "establishment"], "user_ratings_total": 0}, {"business_status": "OPERATIONAL", "formatted_address": "Av, Ermita Iztapalapa 190, Ricardo Flores Mag\u00f3n, Iztapalapa, 09200 CDMX", "geometry": {"location": {"lat": 19.3557008, "lng": -99.098323}, "viewport": {"northeast": {"lat": 19.35693757989272, "lng": -99.09697317010726}, "southwest": {"lat": 19.35423792010728, "lng": -99.09967282989271}}}, "icon": "https://maps.gstatic.com/mapfiles/place_api/icons/v1/png_71/restaurant-71.png", "name": "El Globo Iztapalapa", "opening_hours": {"open_now": true}, "photos": [{"height": 3464, "html_attributions": ["<a href=\"https://maps.google.com/maps/contrib/105993309410233698807\">Arturo morales torres</a>"], "photo_reference": "CmRaAAAAa_iq6h5V2ZaFVRbjLgvnF-5rNtfeA_Y5BCiak7X3J-qP9nHTnUZTa4PTWg5p-q__zPttfDpYnhZ0MWlmZWlwOVgzbhEzqa06wBlIR8RJMozEBxf-9TGxzgMUtKKPng_yEhBOpzN_jQTJtxWgxxcGeVTDGhQxijFtFsjsiFF8c6nTpk-C7IAgVg", "width": 4618}], "place_id": "ChIJfxo4Czf-0YUR-FiKlxOyF6o", "plus_code": {"compound_code": "9W42+7M Ricardo Flores Mag\u00f3n, Mexico City", "global_code": "76F29W42+7M"}, "price_level": 2, "rating": 4.1, "reference": "ChIJfxo4Czf-0YUR-FiKlxOyF6o", "types": ["bakery", "cafe", "food", "point_of_interest", "store", "establishment"], "user_ratings_total": 1505}, {"business_status": "OPERATIONAL", "formatted_address": "Av. A\u00f1o de Ju\u00e1rez 32, Granjas San Antonio, Iztapalapa, 09070 Ciudad de M\u00e9xico, CDMX", "geometry": {"location": {"lat": 19.3575777, "lng": -99.10936079999999}, "viewport": {"northeast": {"lat": 19.35891062989272, "lng": -99.10794362010728}, "southwest": {"lat": 19.35621097010728, "lng": -99.11064327989273}}}, "icon": "https://maps.gstatic.com/mapfiles/place_api/icons/v1/png_71/cafe-71.png", "name": "Caff\u00e8to", "opening_hours": {"open_now": true}, "place_id": "ChIJ2_MdhA7-0YURihmZbQkKoqI", "plus_code": {"compound_code": "9V5R+27 Mexico City", "global_code": "76F29V5R+27"}, "rating": 4.5, "reference": "ChIJ2_MdhA7-0YURihmZbQkKoqI", "types": ["cafe", "food", "point_of_interest", "establishment"], "user_ratings_total": 2}, {"business_status": "OPERATIONAL", "formatted_address": "Av. Toltecas 100, Sta B\u00e1rbara, Iztapalapa, 09000 Ciudad de M\u00e9xico, CDMX", "geometry": {"location": {"lat": 19.3591182, "lng": -99.1044681}, "viewport": {"northeast": {"lat": 19.36047522989272, "lng": -99.10313932010727}, "southwest": {"lat": 19.35777557010728, "lng": -99.10583897989271}}}, "icon": "https://maps.gstatic.com/mapfiles/place_api/icons/v1/png_71/cafe-71.png", "name": "CAFETER\u00cdA LA BUENA VIBRA", "opening_hours": {"open_now": false}, "photos": [{"height": 4032, "html_attributions": ["<a href=\"https://maps.google.com/maps/contrib/109410871523193285950\">Ivon Ruiz</a>"], "photo_reference": "CmRaAAAAzE9M5xFYg5MdACnIgq8PdlZo7SbL7QFF45LOwrIxlx8D4J-8oYsUidz9_CpNu3l6qDHKffC1EFxZWe3LXf5ifRbT8r61B_UogLjTpWg01fd_njzcC0u8c0lwDmrd2k9QEhDlxEKED3XIyg0Qz5kBxMzLGhRjFZX2TAIaeBzaz9mgeu7lWEhDVA", "width": 3024}], "place_id": "ChIJDbpnzgv-0YURz4lsz5FiCiw", "plus_code": {"compound_code": "9V5W+J6 Mexico City", "global_code": "76F29V5W+J6"}, "rating": 5, "reference": "ChIJDbpnzgv-0YURz4lsz5FiCiw", "types": ["cafe", "food", "point_of_interest", "store", "establishment"], "user_ratings_total": 1}, {"business_status": "OPERATIONAL", "formatted_address": "Campesinos 269, Progreso del Sur, Iztapalapa, 09810 Ciudad de M\u00e9xico, CDMX", "geometry": {"location": {"lat": 19.3529195, "lng": -99.11236439999999}, "viewport": {"northeast": {"lat": 19.35437117989272, "lng": -99.11100317010728}, "southwest": {"lat": 19.35167152010728, "lng": -99.11370282989273}}}, "icon": "https://maps.gstatic.com/mapfiles/place_api/icons/v1/png_71/generic_business-71.png", "name": "La Coincidencia Caf\u00e9", "opening_hours": {"open_now": true}, "photos": [{"height": 4160, "html_attributions": ["<a href=\"https://maps.google.com/maps/contrib/107683320247814384147\">monica duran</a>"], "photo_reference": "CmRaAAAAeGRak3EfZ3h-AoODl72NgstAAO3Ic8W23nf6S6m0y0enC5Vf-2y8rQQERxL_76pXkTSZkMZmujCWlZ9rG4gK4cM5O_a4VfF8KzB-l0vLmLUKl6hVcY7nAm_lshgU9HbNEhDGWxTXDV2Qp2QBNCdRE1gpGhQ1FLJw3XuE-SxjGd5MYy8xNGo5-Q", "width": 2336}], "place_id": "ChIJUZRk4g_-0YURTxELHYPfkZ8", "plus_code": {"compound_code": "9V3Q+53 Mexico City", "global_code": "76F29V3Q+53"}, "rating": 4.3, "reference": "ChIJUZRk4g_-0YURTxELHYPfkZ8", "types": ["cafe", "food", "point_of_interest", "store", "establishment"], "user_ratings_total": 62}, {"business_status": "OPERATIONAL", "formatted_address": "Cereales 332, Valle del Sur, Iztapalapa, 09819 Ciudad de M\u00e9xico, CDMX", "geometry": {"location": {"lat": 19.3481954, "lng": -99.11404809999999}, "viewport": {"northeast": {"lat": 19.34954947989272, "lng": -99.11274282010729}, "southwest": {"lat": 19.34684982010728, "lng": -99.11544247989272}}}, "icon": "https://maps.gstatic.com/mapfiles/place_api/icons/v1/png_71/cafe-71.png", "name": "Cafeter\u00eda Naranja Mec\u00e1nica", "opening_hours": {"open_now": true}, "place_id": "ChIJGQ9sFxv-0YURMyDkOH-MIM8", "plus_code": {"compound_code": "8VXP+79 Valle del Sur, Mexico City", "global_code": "76F28VXP+79"}, "rating": 3.3, "reference": "ChIJGQ9sFxv-0YURMyDkOH-MIM8", "types": ["cafe", "food", "point_of_interest", "store", "establishment"], "user_ratings_total": 7}, {"business_status": "OPERATIONAL", "formatted_address": "5 de Mayo 10, Zona Urbana Ejidal los Reyes Culhuacan, Iztapalapa, 09840 Ciudad de M\u00e9xico, CDMX", "geometry": {"location": {"lat": 19.3434052, "lng": -99.1059751}, "viewport": {"northeast": {"lat": 19.34473042989272, "lng": -99.10463392010729}, "southwest": {"lat": 19.34203077010728, "lng": -99.10733357989272}}}, "icon": "https://maps.gstatic.com/mapfiles/place_api/icons/v1/png_71/cafe-71.png", "name": "Cafeteria El Colibr\u00ed", "place_id": "ChIJ56uanQH-0YURNF3o82Dc2wI", "plus_code": {"compound_code": "8VVV+9J Mexico City", "global_code": "76F28VVV+9J"}, "rating": 0, "reference": "ChIJ56uanQH-0YURNF3o82Dc2wI", "types": ["cafe", "food", "point_of_interest", "establishment"], "user_ratings_total": 0}, {"business_status": "OPERATIONAL", "formatted_address": "Rayo 13, Valle de Luces 1ra Secc, Iztapalapa, 09800 Ciudad de M\u00e9xico, CDMX", "geometry": {"location": {"lat": 19.3409036, "lng": -99.09996029999999}, "viewport": {"northeast": {"lat": 19.34225762989272, "lng": -99.09862557010727}, "southwest": {"lat": 19.33955797010728, "lng": -99.10132522989272}}}, "icon": "https://maps.gstatic.com/mapfiles/place_api/icons/v1/png_71/cafe-71.png", "name": "Cafeteria Sarava", "opening_hours": {"open_now": true}, "photos": [{"height": 3120, "html_attributions": ["<a href=\"https://maps.google.com/maps/contrib/105716790268190186272\">Daz li</a>"], "photo_reference": "CmRaAAAAGsJBxKbTbfM2N_Ww5b_AaE7B-zYBVj8rI--wAoIlTKFOxSrrQPhcvHu_OyNjioXXrg6BlAPAqCsivhPEn9qMsc5VD8pJq1a8ZJte3DcrimspHJ0IalC4KSvd9R__b59aEhDrGfehLBvJ2dEZ9EE21r3NGhQtJWx2Xg1-0-VXafOv5VZpiOVwGQ", "width": 4160}], "place_id": "ChIJt5bKiv_90YURjqE3Lr06YDY", "plus_code": {"compound_code": "8WR2+92 Mexico City", "global_code": "76F28WR2+92"}, "rating": 4.7, "reference": "ChIJt5bKiv_90YURjqE3Lr06YDY", "types": ["cafe", "food", "point_of_interest", "store", "establishment"], "user_ratings_total": 12}, {"business_status": "OPERATIONAL", "formatted_address": "Av. Toltecas 160, Sta B\u00e1rbara, Iztapalapa, 09000 Ciudad de M\u00e9xico, CDMX", "geometry": {"location": {"lat": 19.3609698, "lng": -99.10389599999999}, "viewport": {"northeast": {"lat": 19.36230562989272, "lng": -99.10251287010728}, "southwest": {"lat": 19.35960597010727, "lng": -99.10521252989271}}}, "icon": "https://maps.gstatic.com/mapfiles/place_api/icons/v1/png_71/cafe-71.png", "name": "Caffe De'l Barrio", "opening_hours": {"open_now": false}, "photos": [{"height": 2448, "html_attributions": ["<a href=\"https://maps.google.com/maps/contrib/111459823024172637257\">Aries Uriel Gomez Lopez</a>"], "photo_reference": "CmRaAAAA_pMsobH5pR8dxH9aeKg_iOtiVh1aHuX0WJbFyGw5kfd-22g33Q-s2HWiZbyO5DbjD-P2ulivS5QQXd6m8f_0EW94KHSsXsVA30MiRAG2P0Y74yC6FZAu92l5y6Wuf1PwEhCC8c1I5e5evFGzIODGD3PUGhSJs37UZzWWFuajLssWt1ASfvt9KA", "width": 3264}], "place_id": "ChIJDaFqVAr-0YURfLkjgqhDy38", "plus_code": {"compound_code": "9V6W+9C Mexico City", "global_code": "76F29V6W+9C"}, "rating": 4.1, "reference": "ChIJDaFqVAr-0YURfLkjgqhDy38", "types": ["cafe", "food", "point_of_interest", "store", "establishment"], "user_ratings_total": 14}, {"business_status": "OPERATIONAL", "formatted_address": "Cjon. Victoria, San Lucas, Iztapalapa, 09000 Ciudad de M\u00e9xico, CDMX", "geometry": {"location": {"lat": 19.3598205, "lng": -99.0968741}, "viewport": {"northeast": {"lat": 19.36116437989272, "lng": -99.09550017010727}, "southwest": {"lat": 19.35846472010727, "lng": -99.09819982989272}}}, "icon": "https://maps.gstatic.com/mapfiles/place_api/icons/v1/png_71/cafe-71.png", "name": "Pasteleria Y Cafeteria La Peke", "place_id": "ChIJiY-NJOH90YURWyekJXLJksE", "plus_code": {"compound_code": "9W53+W7 Mexico City", "global_code": "76F29W53+W7"}, "rating": 0, "reference": "ChIJiY-NJOH90YURWyekJXLJksE", "types": ["cafe", "food", "point_of_interest", "establishment"], "user_ratings_total": 0}, {"business_status": "OPERATIONAL", "formatted_address": "Ignacio Comonfort 80, San Lucas, Iztapalapa, 09000 Ciudad de M\u00e9xico, CDMX", "geometry": {"location": {"lat": 19.3591981, "lng": -99.0958347}, "viewport": {"northeast": {"lat": 19.36058277989273, "lng": -99.09447447010727}, "southwest": {"lat": 19.35788312010728, "lng": -99.09717412989272}}}, "icon": "https://maps.gstatic.com/mapfiles/place_api/icons/v1/png_71/cafe-71.png", "name": "Kafetsin", "opening_hours": {"open_now": true}, "place_id": "ChIJqQoyU-H90YUR_WZDbY_u4V8", "plus_code": {"compound_code": "9W53+MM Mexico City", "global_code": "76F29W53+MM"}, "rating": 4.4, "reference": "ChIJqQoyU-H90YUR_WZDbY_u4V8", "types": ["cafe", "food", "point_of_interest", "store", "establishment"], "user_ratings_total": 9}, {"business_status": "OPERATIONAL", "formatted_address": "Granjas San Antonio, Iztapalapa, 09070 Mexico City", "geometry": {"location": {"lat": 19.356827, "lng": -99.10948959999999}, "viewport": {"northeast": {"lat": 19.35817052989272, "lng": -99.10811442010728}, "southwest": {"lat": 19.35547087010728, "lng": -99.11081407989273}}}, "icon": "https://maps.gstatic.com/mapfiles/place_api/icons/v1/png_71/cafe-71.png", "name": "MONTPARNASSE ERMITA", "opening_hours": {"open_now": true}, "photos": [{"height": 4160, "html_attributions": ["<a href=\"https://maps.google.com/maps/contrib/113030449376943157318\">A Google User</a>"], "photo_reference": "CmRaAAAA3rT3YrQvfunj_BfAjDkQW9xFY3CghYpzO-0vnoPjHqXlZKZ6rwsg3NqFxqAD76lIqIpCZ6XLVo4U136o_QbgzClGhCAZoKg6MgSP2wE2cTsbhEmdxyHpPRvPf8D3rW47EhBMTfXxKSVAhTVxsa1B21MmGhSmvKcdC0pClN1BEr8mxV8BbFpqhw", "width": 3120}], "place_id": "ChIJ9cAFFZv_0YURoSqPLtukWBc", "plus_code": {"compound_code": "9V4R+P6 Mexico City", "global_code": "76F29V4R+P6"}, "price_level": 2, "rating": 4.3, "reference": "ChIJ9cAFFZv_0YURoSqPLtukWBc", "types": ["cafe", "food", "point_of_interest", "establishment"], "user_ratings_total": 17}, {"business_status": "OPERATIONAL", "formatted_address": "San Pedro, Santa Mar\u00eda del Monte, Iztapalapa, 09850 Ciudad de M\u00e9xico, CDMX", "geometry": {"location": {"lat": 19.3520721, "lng": -99.0891146}, "viewport": {"northeast": {"lat": 19.35342652989272, "lng": -99.08779202010727}, "southwest": {"lat": 19.35072687010728, "lng": -99.09049167989272}}}, "icon": "https://maps.gstatic.com/mapfiles/place_api/icons/v1/png_71/cafe-71.png", "name": "T\u00fa cafeter\u00eda", "opening_hours": {"open_now": true}, "photos": [{"height": 3024, "html_attributions": ["<a href=\"https://maps.google.com/maps/contrib/118391688336619369915\">Itandehui Linares Teodocio</a>"], "photo_reference": "CmRaAAAApRpm9d2EZPaax6LOP18Y0kk4YTk7oUvVZcKz-xq_IXGSUC4FJLZJ_UiwkAHndVFFyJjuVGg1AOr5ZuRxQ70jUStD_sxaBj5DcEuupXT-4TziCBpThHnEei_kpWtiMEyMEhAKdcxyPQGBAgGb9mBXtLTZGhQU_svKqRsewOPkx5OBtrioKkQ9jA", "width": 4032}], "place_id": "ChIJkYMheqn90YURedR_rbL6Sk8", "plus_code": {"compound_code": "9W26+R9 Mexico City", "global_code": "76F29W26+R9"}, "rating": 4.6, "reference": "ChIJkYMheqn90YURedR_rbL6Sk8", "types": ["cafe", "food", "point_of_interest", "store", "establishment"], "user_ratings_total": 14}]