[{"business_status": "OPERATIONAL", "geometry": {"location": {"lat": 19.3520521, "lng": -99.1030163}, "viewport": {"northeast": {"lat": 19.35341178029151, "lng": -99.1016987197085}, "southwest": {"lat": 19.3507138197085, "lng": -99.10439668029152}}}, "icon": "https://maps.gstatic.com/mapfiles/place_api/icons/v1/png_71/generic_business-71.png", "name": "La NeuroCueva", "place_id": "ChIJfSEuQqf_0YURRmZSGHEPco8", "plus_code": {"compound_code": "9V2W+RQ Mexico City, CDMX, Mexico", "global_code": "76F29V2W+RQ"}, "reference": "ChIJfSEuQqf_0YURRmZSGHEPco8", "scope": "GOOGLE", "types": ["doctor", "health", "point_of_interest", "establishment"], "vicinity": "camino antiguo a culhuacan #126 colonia, Camino Antiguo a Culhuacan #126, Santa Isabel Industrial, Ciudad de M\u00e9xico"}, {"business_status": "OPERATIONAL", "geometry": {"location": {"lat": 19.349268, "lng": -99.10110499999999}, "viewport": {"northeast": {"lat": 19.3506332802915, "lng": -99.09979466970847}, "southwest": {"lat": 19.3479353197085, "lng": -99.1024926302915}}}, "icon": "https://maps.gstatic.com/mapfiles/place_api/icons/v1/png_71/generic_business-71.png", "name": "Consultorio M\u00e9dico Farmacia Rosy", "opening_hours": {"open_now": true}, "place_id": "ChIJZ9k5gf390YURORPAlq4ANVs", "plus_code": {"compound_code": "8VXX+PH Mexico City, CDMX, Mexico", "global_code": "76F28VXX+PH"}, "reference": "ChIJZ9k5gf390YURORPAlq4ANVs", "scope": "GOOGLE", "types": ["doctor", "health", "point_of_interest", "establishment"], "vicinity": "Puente Titla Esq. Tonathiu Local 2, Estrella del Sur, Iztapalapa"}, {"business_status": "OPERATIONAL", "geometry": {"location": {"lat": 19.3486727, "lng": -99.1070525}, "viewport": {"northeast": {"lat": 19.3500253302915, "lng": -99.1057255697085}, "southwest": {"lat": 19.34732736970849, "lng": -99.1084235302915}}}, "icon": "https://maps.gstatic.com/mapfiles/place_api/icons/v1/png_71/generic_business-71.png", "name": "Moises Iba\u00f1ez Galic\u00eda", "place_id": "ChIJT06UChUCzoUR0WlQJjSQv6s", "plus_code": {"compound_code": "8VXV+F5 Mexico City, CDMX, Mexico", "global_code": "76F28VXV+F5"}, "reference": "ChIJT06UChUCzoUR0WlQJjSQv6s", "scope": "GOOGLE", "types": ["doctor", "health", "point_of_interest", "establishment"], "vicinity": "Avenida Tlahuac 826, Culhuacan, Ciudad de M\u00e9xico"}]