[{"business_status": "OPERATIONAL", "formatted_address": "Avenida Tlahuac No. 331 Y 333, Los Reyes Culhuacan, 09800 CDMX", "geometry": {"location": {"lat": 19.3462167, "lng": -99.1075365}, "viewport": {"northeast": {"lat": 19.34756417989272, "lng": -99.10616837010728}, "southwest": {"lat": 19.34486452010728, "lng": -99.10886802989273}}}, "icon": "https://maps.gstatic.com/mapfiles/place_api/icons/v1/png_71/gas_station-71.png", "name": "Gasolinera Pemex", "opening_hours": {"open_now": true}, "photos": [{"height": 3024, "html_attributions": ["<a href=\"https://maps.google.com/maps/contrib/113091431763993262000\">Edgar Jesus Regalado Jimenez</a>"], "photo_reference": "CmRaAAAA9g8Ot-LV5SYKMFOuO6w_cP-TQZLbwOVMDSLU7qmVvCFZORXQ2jXQ0dtbuoJmxPlkfkdulVLenEJKxee_Mi1qPUqqQGhAMCJp9MMx7NF76pFdiUf-uZSGT5wxzAVGhGDfEhCsyuCLbJDIu6XiKHqZCDgAGhR7HWuunxd_a2wWprViT4s-Wre9-g", "width": 4032}], "place_id": "ChIJER4j-AP-0YURnswjzNHH9y4", "plus_code": {"compound_code": "8VWR+FX Los Reyes Culhuacan, Mexico City", "global_code": "76F28VWR+FX"}, "rating": 3.3, "reference": "ChIJER4j-AP-0YURnswjzNHH9y4", "types": ["gas_station", "point_of_interest", "establishment"], "user_ratings_total": 136}, {"business_status": "OPERATIONAL", "formatted_address": "Ermita Iztapalapa 221, San Lucas, Iztapalapa, 09000 Ciudad de M\u00e9xico, CDMX", "geometry": {"location": {"lat": 19.3566924, "lng": -99.09783859999999}, "viewport": {"northeast": {"lat": 19.35799372989272, "lng": -99.09647632010727}, "southwest": {"lat": 19.35529407010728, "lng": -99.09917597989272}}}, "icon": "https://maps.gstatic.com/mapfiles/place_api/icons/v1/png_71/gas_station-71.png", "name": "Gasolinera", "opening_hours": {}, "photos": [{"height": 2988, "html_attributions": ["<a href=\"https://maps.google.com/maps/contrib/105143792918166207379\">German Mora</a>"], "photo_reference": "CmRaAAAAoXsTBlE4epVHjHoYCam7i-LAy7W0ZieikKpqmrUt3WBcKVef0TUhw9569YjTIK4W0mvwSpdDOAChS_THQgukpSVKnx0Rs-RFS4rt_O0LVE5KzvY12k9dEP7gb0ayjQSsEhACWzKHC3-kOGzcvSVCFJtKGhRfE_f5JgQYXKreY4RbjV1YcLJgsQ", "width": 5312}], "place_id": "ChIJEx6ksOP90YUR4i6bNQwtGtc", "plus_code": {"compound_code": "9W42+MV Mexico City", "global_code": "76F29W42+MV"}, "rating": 3.5, "reference": "ChIJEx6ksOP90YUR4i6bNQwtGtc", "types": ["gas_station", "point_of_interest", "establishment"], "user_ratings_total": 28}, {"business_status": "OPERATIONAL", "formatted_address": "esq. Porfirio Diaz, Ermita Iztapalapa s/n, San Lucas, Iztapalapa, 09000 Ciudad de M\u00e9xico, CDMX", "geometry": {"location": {"lat": 19.3567934, "lng": -99.09751829999999}, "viewport": {"northeast": {"lat": 19.35808732989272, "lng": -99.09615067010729}, "southwest": {"lat": 19.35538767010728, "lng": -99.09885032989273}}}, "icon": "https://maps.gstatic.com/mapfiles/place_api/icons/v1/png_71/gas_station-71.png", "name": "Pemex", "opening_hours": {"open_now": true}, "photos": [{"height": 2988, "html_attributions": ["<a href=\"https://maps.google.com/maps/contrib/105143792918166207379\">German Mora</a>"], "photo_reference": "CmRaAAAA48imq8ktgC3reC4VhWGF8VJ9IfvQeYnJgxnWqXUXig1htDoHICDJA8Dj3TQol0JWDlZEjC4I0Aw-bVOjMC2unbvIde2q4al6nWSaVcbg7OVXvYNOIYcru5zoa67JZdqUEhCW0jGGLlySNuH8GQdCPLwgGhTeprQNtd5n3rTF_LEjGzjHFYPZ4A", "width": 5312}], "place_id": "ChIJPQgmuuP90YUR7Lnp4r8Zqpg", "plus_code": {"compound_code": "9W42+PX Mexico City", "global_code": "76F29W42+PX"}, "rating": 3.4, "reference": "ChIJPQgmuuP90YUR7Lnp4r8Zqpg", "types": ["gas_station", "point_of_interest", "establishment"], "user_ratings_total": 127}, {"business_status": "OPERATIONAL", "formatted_address": "Ermita Iztapalapa 205, El Santuario, Iztapalapa, 09836 Ciudad de M\u00e9xico, CDMX", "geometry": {"location": {"lat": 19.3558621, "lng": -99.0937275}, "viewport": {"northeast": {"lat": 19.35727932989272, "lng": -99.09238762010727}, "southwest": {"lat": 19.35457967010728, "lng": -99.09508727989272}}}, "icon": "https://maps.gstatic.com/mapfiles/place_api/icons/v1/png_71/gas_station-71.png", "name": "Gasolinera G500 Operadora Ermita", "opening_hours": {}, "photos": [{"height": 1920, "html_attributions": ["<a href=\"https://maps.google.com/maps/contrib/116304696686178133844\">Eduardo Rufino</a>"], "photo_reference": "CmRaAAAACncGtS7pWvcxGg2yzOnxUIhsl69cXI3bN4ZBfTmEftPXbXFL60Et-kt4oVfpUcAAbud2cUp8qnokAlLmd0YkMAYtDT1VXXaoM-xErY-t4dNmVXV-vQq8L5uqXYVzjBgNEhCSr5SNuXokSabd2QZPOKYkGhQMqT9rxL5Eg-1YEVBkLkZbYYIJNg", "width": 1080}], "place_id": "ChIJDRLmEu790YURpZRQAv28OWE", "plus_code": {"compound_code": "9W44+8G Mexico City", "global_code": "76F29W44+8G"}, "rating": 4, "reference": "ChIJDRLmEu790YURpZRQAv28OWE", "types": ["gas_station", "point_of_interest", "establishment"], "user_ratings_total": 99}, {"business_status": "OPERATIONAL", "formatted_address": "Calz Taxque\u00f1a 2391, Tula, Iztapalapa, 09800 Ciudad de M\u00e9xico, CDMX", "geometry": {"location": {"lat": 19.3372937, "lng": -99.11266359999999}, "viewport": {"northeast": {"lat": 19.33863712989272, "lng": -99.11141412010727}, "southwest": {"lat": 19.33593747010728, "lng": -99.11411377989272}}}, "icon": "https://maps.gstatic.com/mapfiles/place_api/icons/v1/png_71/gas_station-71.png", "name": "PEMEX", "opening_hours": {"open_now": true}, "photos": [{"height": 1902, "html_attributions": ["<a href=\"https://maps.google.com/maps/contrib/105143792918166207379\">German Mora</a>"], "photo_reference": "CmRaAAAALwwRZRiaF3Ug4q4QGuPMBOOU7oN_egdu_mDpUZDVaulReUsMLoBEJNxix5XDzxGfXWXhVZAgxH5N1zeVa2JZ4p9nZwPz6i07iE8GEHhASvueuOdMV_q9cN_UsPWvNpyrEhC8ouXodsm_lQcYMr6jvV4dGhRq2mgRRyHdI87aGmlPAr_XwmMuaw", "width": 2366}], "place_id": "ChIJx3Kt1uIBzoURsKpyjoUgT4c", "plus_code": {"compound_code": "8VPP+WW Mexico City", "global_code": "76F28VPP+WW"}, "rating": 3.6, "reference": "ChIJx3Kt1uIBzoURsKpyjoUgT4c", "types": ["gas_station", "point_of_interest", "establishment"], "user_ratings_total": 172}, {"business_status": "OPERATIONAL", "formatted_address": "Av. 5 106, Granjas San Antonio, Iztapalapa, 09070 Ciudad de M\u00e9xico, CDMX", "geometry": {"location": {"lat": 19.3602888, "lng": -99.1106787}, "viewport": {"northeast": {"lat": 19.36162972989272, "lng": -99.10928277010727}, "southwest": {"lat": 19.35893007010727, "lng": -99.11198242989272}}}, "icon": "https://maps.gstatic.com/mapfiles/place_api/icons/v1/png_71/gas_station-71.png", "name": "Mex Fuel Aditivo, Escuadron 201", "opening_hours": {"open_now": false}, "photos": [{"height": 3264, "html_attributions": ["<a href=\"https://maps.google.com/maps/contrib/117365084833677920885\">A Google User</a>"], "photo_reference": "CmRaAAAAYGWTnvn8WEwAdwK_Hf2X27zDxhDeH1YgKbG5BfA9N2l45eLhdwVYuY-xkTL7LjOOkfMLPYMEJgug972N9FonXZXx8bCaAb4spA_AGbUIYs_N9tqxMM7PjW9-_OS-d-7sEhC9zP0tC-iOb50o2kIJNn7cGhTgTgrSHn6PIA6L0QeyeTLNOmAxCw", "width": 1836}], "place_id": "ChIJQ6CdBPv_0YURcpGN_oqHSfA", "plus_code": {"compound_code": "9V6Q+4P Mexico City", "global_code": "76F29V6Q+4P"}, "rating": 4, "reference": "ChIJQ6CdBPv_0YURcpGN_oqHSfA", "types": ["gas_station", "point_of_interest", "establishment"], "user_ratings_total": 18}, {"business_status": "OPERATIONAL", "formatted_address": "Esq San Jose, Eje 6 Sur Trabajadoras Sociales, La Asunci\u00f3n, 09000 Ciudad de M\u00e9xico, CDMX", "geometry": {"location": {"lat": 19.3667386, "lng": -99.0902347}, "viewport": {"northeast": {"lat": 19.36814597989272, "lng": -99.08888277010728}, "southwest": {"lat": 19.36544632010728, "lng": -99.09158242989271}}}, "icon": "https://maps.gstatic.com/mapfiles/place_api/icons/v1/png_71/gas_station-71.png", "name": "Gasolinera PEMEX", "opening_hours": {}, "photos": [{"height": 1836, "html_attributions": ["<a href=\"https://maps.google.com/maps/contrib/107300181147229840454\">Diana Osorio</a>"], "photo_reference": "CmRaAAAAC-tmuVjrcIEhGRV_EdFKzly4VmODk-2FNs6VsmegFVGPJSv8Dj4FJXiTbIR-NzgqFw2eh9TfEAf3TdasGmag_FPfUy0TxxOCVXkdehoyBEqIffoces8eaqUGnciVgieLEhAZDt4IA9jI8fzYG27svm8oGhTE-AJJ0G4qfHUSdpcE0SWEjDBqmg", "width": 3264}], "place_id": "ChIJYc65zML90YURGvAtHDF45Zs", "plus_code": {"compound_code": "9W85+MW Mexico City", "global_code": "76F29W85+MW"}, "rating": 3.5, "reference": "ChIJYc65zML90YURGvAtHDF45Zs", "types": ["gas_station", "point_of_interest", "establishment"], "user_ratings_total": 144}, {"business_status": "OPERATIONAL", "formatted_address": "Ermita Iztapalapa No.1565, El Manto, Iztapalapa, 09830 Ciudad de M\u00e9xico, CDMX", "geometry": {"location": {"lat": 19.354233, "lng": -99.0824514}, "viewport": {"northeast": {"lat": 19.35564117989273, "lng": -99.08107182010728}, "southwest": {"lat": 19.35294152010728, "lng": -99.08377147989272}}}, "icon": "https://maps.gstatic.com/mapfiles/place_api/icons/v1/png_71/gas_station-71.png", "name": "Gasolinera Pemex", "opening_hours": {}, "photos": [{"height": 1920, "html_attributions": ["<a href=\"https://maps.google.com/maps/contrib/116248061681006405702\">Naum Garcia</a>"], "photo_reference": "CmRaAAAA_VPPZ4ESDIv-dXCxEBSNnGwvdxerd8QUsLGhlhXCcVlMc2LN2OY0J7hn2uIAkgWUQZeoG6TFzdTvvaZgsMs1ZQKDZb8xMdWv1fBHscBG6O6AxdF3y8kKI6peu5G6HPc9EhAefkFSHJrKQNcEJKYBy7VuGhSqi6B93P99skJ8RqY9ROEcOIcYAA", "width": 1080}], "place_id": "ChIJi8P_hO390YURcamzTEHBfrI", "plus_code": {"compound_code": "9W39+M2 Mexico City", "global_code": "76F29W39+M2"}, "rating": 3.9, "reference": "ChIJi8P_hO390YURcamzTEHBfrI", "types": ["gas_station", "point_of_interest", "establishment"], "user_ratings_total": 43}, {"business_status": "OPERATIONAL", "formatted_address": "Ermita Iztapalapa, Calzada, Iztapalapa, 09080 Ciudad de M\u00e9xico, CDMX", "geometry": {"location": {"lat": 19.3582344, "lng": -99.12566299999999}, "viewport": {"northeast": {"lat": 19.35948957989272, "lng": -99.12432407010728}, "southwest": {"lat": 19.35678992010728, "lng": -99.12702372989273}}}, "icon": "https://maps.gstatic.com/mapfiles/place_api/icons/v1/png_71/gas_station-71.png", "name": "bp", "opening_hours": {"open_now": true}, "photos": [{"height": 2988, "html_attributions": ["<a href=\"https://maps.google.com/maps/contrib/108061552693457390277\">JORGE JOS\u00c9 TERR\u00c9 OLIVA</a>"], "photo_reference": "CmRaAAAAL34u_c2CQYCKSZ7L5OOlapemr3WA0aNBiRDtcMlxOpecBekH7Pw5UiVvk4dTlq7IgebS5MA-qSFtkwfJudQUpugWHhNLGEHXVdfjcUrjhZ5er_bDNdFHB2dl80ucsR5sEhBoEffz0fNE7hGgACuFVGejGhSlf1p4g88go48kpPpdKBa18QjsdQ", "width": 4755}], "place_id": "ChIJx3qjZT7-0YURhzdIQtKDxEc", "plus_code": {"compound_code": "9V5F+7P Mexico City", "global_code": "76F29V5F+7P"}, "rating": 3.5, "reference": "ChIJx3qjZT7-0YURhzdIQtKDxEc", "types": ["gas_station", "convenience_store", "food", "point_of_interest", "store", "establishment"], "user_ratings_total": 163}, {"business_status": "OPERATIONAL", "formatted_address": "Eje 3 Ote 24, Los Reyes Culhuacan, Iztapalapa, 09840 Ciudad de M\u00e9xico, CDMX", "geometry": {"location": {"lat": 19.3414782, "lng": -99.112526}, "viewport": {"northeast": {"lat": 19.34283627989272, "lng": -99.11124617010728}, "southwest": {"lat": 19.34013662010728, "lng": -99.11394582989273}}}, "icon": "https://maps.gstatic.com/mapfiles/place_api/icons/v1/png_71/generic_business-71.png", "name": "Super Flex", "photos": [{"height": 1920, "html_attributions": ["<a href=\"https://maps.google.com/maps/contrib/106601951629316928851\">Raul Cortes</a>"], "photo_reference": "CmRaAAAACZndShedt99Yj2OZPzct7ckcQEekrDDdDuJbOYALMGaibzb5laP_sgMeuXaXzSAjw9AlrjyJsufhTKsY2J4b32lyMPNly2FrfhO2mS_LpLRZLZfqKEMupggmdUb8ijo2EhBwfO3xkCT6qKuPSfbF8GUoGhQDoJJDb_q0gsZT-otGFCNHLPT9TQ", "width": 1080}], "place_id": "ChIJOT5ontP_0YURf5TpM0cM7WQ", "plus_code": {"compound_code": "8VRP+HX Mexico City", "global_code": "76F28VRP+HX"}, "rating": 4.7, "reference": "ChIJOT5ontP_0YURf5TpM0cM7WQ", "types": ["gas_station", "point_of_interest", "establishment"], "user_ratings_total": 6}, {"business_status": "OPERATIONAL", "formatted_address": "\u00c1rea Federal Central de Abastos, Iztapalapa, Mexico City", "geometry": {"location": {"lat": 19.3757837, "lng": -99.0974069}, "viewport": {"northeast": {"lat": 19.37712077989272, "lng": -99.09605877010728}, "southwest": {"lat": 19.37442112010728, "lng": -99.09875842989273}}}, "icon": "https://maps.gstatic.com/mapfiles/place_api/icons/v1/png_71/gas_station-71.png", "name": "Gasolinera PEMEX", "photos": [{"height": 1080, "html_attributions": ["<a href=\"https://maps.google.com/maps/contrib/109270014146315771284\">Juan Mora</a>"], "photo_reference": "CmRaAAAAVfdN0RTK3pmIgzL72DYleO6KA9-Ih5MWQS1SEQ4LLHuPXgnoc5pw0k2dEwicYcGMc6MoAzdszJEQuB_euEwxbWHTaZSaTrk0mQTGISbYqqAkszfzJVTjBbvpM2i2fDztEhCQzQssT1E0C15iTo6IucG_GhTKo2fU2iVK8vTrHXijGWPWQiLzAg", "width": 1920}], "place_id": "ChIJbStQ3Nn90YURyfsalxsDPb8", "plus_code": {"compound_code": "9WG3+82 Mexico City", "global_code": "76F29WG3+82"}, "rating": 3, "reference": "ChIJbStQ3Nn90YURyfsalxsDPb8", "types": ["gas_station", "point_of_interest", "establishment"], "user_ratings_total": 25}, {"business_status": "OPERATIONAL", "formatted_address": "Eje 3 Oriente, Prolongaci\u00f3n Arneses 549 Col, San Francisco Culhuacan, Iztapalapa, 09800 Ciudad de M\u00e9xico, CDMX", "geometry": {"location": {"lat": 19.3372347, "lng": -99.1131508}, "viewport": {"northeast": {"lat": 19.33858842989272, "lng": -99.11173017010728}, "southwest": {"lat": 19.33588877010727, "lng": -99.11442982989271}}}, "icon": "https://maps.gstatic.com/mapfiles/place_api/icons/v1/png_71/gas_station-71.png", "name": "Rio Tuerto, S.A. de C.V.", "opening_hours": {"open_now": true}, "photos": [{"height": 1560, "html_attributions": ["<a href=\"https://maps.google.com/maps/contrib/102792506529501835684\">Rio Tuerto, S.A. de C.V.</a>"], "photo_reference": "CmRaAAAAS6TCvGDa4SwKfjLWW9_2VCPwIrzB_DkEgxDBLylbSIfXf3LtRYcv0lpvADKJk7L77IgF-Gh-lfZdaeiA5SEoJokbthFHGbnlfcH7862cw-bUi963xYbjGLYBTgfMnuJvEhDjH5aCMpgJ-Z2osj0CeNaSGhT4kVKDhyeYKQxFbL8_Z4V_erh3HA", "width": 2493}], "place_id": "ChIJHUMfYOcc0oURhzI1yp14lBI", "plus_code": {"compound_code": "8VPP+VP Mexico City", "global_code": "76F28VPP+VP"}, "rating": 3.8, "reference": "ChIJHUMfYOcc0oURhzI1yp14lBI", "types": ["gas_station", "point_of_interest", "establishment"], "user_ratings_total": 216}, {"business_status": "OPERATIONAL", "formatted_address": "Eje 5 Ote 311, San Miguel, Iztapalapa, 09360 Ciudad de M\u00e9xico, CDMX", "geometry": {"location": {"lat": 19.365712, "lng": -99.08229709999999}, "viewport": {"northeast": {"lat": 19.36708187989272, "lng": -99.08100722010727}, "southwest": {"lat": 19.36438222010728, "lng": -99.08370687989272}}}, "icon": "https://maps.gstatic.com/mapfiles/place_api/icons/v1/png_71/gas_station-71.png", "name": "Gasolinera", "opening_hours": {"open_now": true}, "photos": [{"height": 1600, "html_attributions": ["<a href=\"https://maps.google.com/maps/contrib/112428251335404115048\">Oscar M\u00e9ndez</a>"], "photo_reference": "CmRaAAAAV9IXvpzDj2OxnLb32n_thuGafHvsqy2T1uzZUZvn_3Atf0LVrLjHZu81BUsIBHYRvyN8tRDV6FhQKL6q2hohMFCCgJBbGHT0r1a9TPIU2vNgepymTNdtjhAT-6ljO3P2EhCJdA-4C8_5UxBLmdH_Zc-vGhTfMWF3qZINnDttg_k6imLAaJVBCw", "width": 1200}], "place_id": "ChIJz83n08H90YURPzJVLzhlAyQ", "plus_code": {"compound_code": "9W89+73 Mexico City", "global_code": "76F29W89+73"}, "rating": 3.7, "reference": "ChIJz83n08H90YURPzJVLzhlAyQ", "types": ["gas_station", "point_of_interest", "establishment"], "user_ratings_total": 9}, {"business_status": "OPERATIONAL", "formatted_address": "09410, Francisco del Paso y Troncoso 34, Jardines de Churubusco, Iztapalapa, Ciudad de M\u00e9xico, CDMX", "geometry": {"location": {"lat": 19.3744294, "lng": -99.10814239999999}, "viewport": {"northeast": {"lat": 19.37580602989272, "lng": -99.10671822010728}, "southwest": {"lat": 19.37310637010728, "lng": -99.10941787989272}}}, "icon": "https://maps.gstatic.com/mapfiles/place_api/icons/v1/png_71/gas_station-71.png", "name": "Gasolinera Pemex", "opening_hours": {}, "photos": [{"height": 4160, "html_attributions": ["<a href=\"https://maps.google.com/maps/contrib/100942778659706309404\">Antonio Esqueda Slim</a>"], "photo_reference": "CmRaAAAAg0bFVZUUhDg7IlNQjfA6wflVmQ-OQXsb3JPUTnOvUypYwAfaJMtnLQ4PUh6yX9Fbv-HXxi3fCJxxICrLRyiPqd5AYLrOw7gPu35524LbvprqEzqQvAo6FBKFbdvuwUfKEhCAYJ8aA715bEnvk9w6HX-tGhTlwqc87KZ-fZp0c5OcWAcH18JFxg", "width": 3120}], "place_id": "ChIJ1Uywv3D-0YURUYVASr_SM5A", "plus_code": {"compound_code": "9VFR+QP Mexico City", "global_code": "76F29VFR+QP"}, "rating": 3.7, "reference": "ChIJ1Uywv3D-0YURUYVASr_SM5A", "types": ["gas_station", "point_of_interest", "establishment"], "user_ratings_total": 78}, {"business_status": "OPERATIONAL", "formatted_address": "Ermita Iztapalapa, 8va Amp San Miguel, Iztapalapa, 09837 Ciudad de M\u00e9xico, CDMX", "geometry": {"location": {"lat": 19.3543159, "lng": -99.0826628}, "viewport": {"northeast": {"lat": 19.35572937989272, "lng": -99.08128052010727}, "southwest": {"lat": 19.35302972010728, "lng": -99.08398017989272}}}, "icon": "https://maps.gstatic.com/mapfiles/place_api/icons/v1/png_71/gas_station-71.png", "name": "Gasolinera", "photos": [{"height": 4608, "html_attributions": ["<a href=\"https://maps.google.com/maps/contrib/104391880036234623040\">JARAMILLO CLUB</a>"], "photo_reference": "CmRaAAAAmRq88wNxyiKuC7MiFWwzMlJVSSjtgj9OQ_IcjI_XQrPTAYtrBhlwgxatOaPW7v2YIHMGzxlj891Ke8vo4uk5WuAs9AxgSgnxt8y3vv9PCejEi4iLyDUs4ZFXCpP2WIRSEhBaN2AQu9pPH7R4o5tCbLFMGhQoUhq3mXeI136srJQ4mM5-nRfxVw", "width": 3456}], "place_id": "ChIJ-YsJkO390YURMCzx7mWLZLA", "plus_code": {"compound_code": "9W38+PW Mexico City", "global_code": "76F29W38+PW"}, "rating": 3.5, "reference": "ChIJ-YsJkO390YURMCzx7mWLZLA", "types": ["gas_station", "point_of_interest", "establishment"], "user_ratings_total": 4}, {"business_status": "OPERATIONAL", "formatted_address": "Col., Av. Arneses 550, San Antonio Culhuacan, Iztapalapa, 09800 Ciudad de M\u00e9xico, CDMX", "geometry": {"location": {"lat": 19.3369765, "lng": -99.1127345}, "viewport": {"northeast": {"lat": 19.33832162989272, "lng": -99.11143697010729}, "southwest": {"lat": 19.33562197010728, "lng": -99.11413662989274}}}, "icon": "https://maps.gstatic.com/mapfiles/place_api/icons/v1/png_71/gas_station-71.png", "name": "Service Shield, S.A. De C.V.", "opening_hours": {"open_now": true}, "photos": [{"height": 3456, "html_attributions": ["<a href=\"https://maps.google.com/maps/contrib/101621358354093937024\">Edgar Daniel Vargas</a>"], "photo_reference": "CmRaAAAAkPfFkwnAzqJhn9_2Jg-PXTIObvbYC-V2WRE_dhrZDJ1K2F5uFX3hYwbZLaEjysSmFlnbryFtwJhLNpg839K15xiileaeeTfv8iCClxTr5P74eeU33v4ayLy4bfL0lsKjEhDnpR7-e2lnXb48_39IK-x7GhRdBE0HP1-QXPo3SxNN5RqKSHbEJQ", "width": 4608}], "place_id": "ChIJE8_GHyj-0YUR0ZIuwEywjXo", "plus_code": {"compound_code": "8VPP+QW Mexico City", "global_code": "76F28VPP+QW"}, "rating": 3.6, "reference": "ChIJE8_GHyj-0YUR0ZIuwEywjXo", "types": ["gas_station", "point_of_interest", "establishment"], "user_ratings_total": 30}, {"business_status": "OPERATIONAL", "formatted_address": "Calz Taxque\u00f1a, Paseos de Taxque\u00f1a, Coyoac\u00e1n, 04250 Ciudad de M\u00e9xico, CDMX", "geometry": {"location": {"lat": 19.339024, "lng": -99.1274207}, "viewport": {"northeast": {"lat": 19.34029782989272, "lng": -99.12609677010728}, "southwest": {"lat": 19.33759817010727, "lng": -99.12879642989273}}}, "icon": "https://maps.gstatic.com/mapfiles/place_api/icons/v1/png_71/gas_station-71.png", "name": "bp", "opening_hours": {"open_now": true}, "photos": [{"height": 1080, "html_attributions": ["<a href=\"https://maps.google.com/maps/contrib/105143792918166207379\">German Mora</a>"], "photo_reference": "CmRaAAAAa8f_rCbP4G2Tn_TaVcejSpXwrshVoJWVVkCcBsJ3Wjnjcq-CjW-lHAzQw4Liiax2gN_Ej3HCSDL4xAXFxF-TJOidI329J9E0LMgxJsbbJI0HpByl6Li71WZz3BWPcellEhB6h23_e-nz04ZSMGoVOFaBGhRpitUZykVxERwzHPh4N9w78COv3A", "width": 1920}], "place_id": "ChIJK_xYZt8BzoURbT3Awxdx49E", "plus_code": {"compound_code": "8VQF+J2 Mexico City", "global_code": "76F28VQF+J2"}, "rating": 4.2, "reference": "ChIJK_xYZt8BzoURbT3Awxdx49E", "types": ["gas_station", "convenience_store", "food", "point_of_interest", "store", "establishment"], "user_ratings_total": 2012}, {"business_status": "OPERATIONAL", "formatted_address": "Av. Javier Rojo G\u00f3mez 482, Guadalupe del Moral, Iztapalapa, 09300 Ciudad de M\u00e9xico, CDMX", "geometry": {"location": {"lat": 19.3712477, "lng": -99.0800836}, "viewport": {"northeast": {"lat": 19.37263522989272, "lng": -99.07885312010727}, "southwest": {"lat": 19.36993557010728, "lng": -99.08155277989272}}}, "icon": "https://maps.gstatic.com/mapfiles/place_api/icons/v1/png_71/gas_station-71.png", "name": "PEMEX", "opening_hours": {"open_now": true}, "photos": [{"height": 4608, "html_attributions": ["<a href=\"https://maps.google.com/maps/contrib/108335018323530019599\">Patricia Puga</a>"], "photo_reference": "CmRaAAAAzMPT9I8PnQTEj7sVLT05PBjKebb8JS7NysRHFTsubMjRGIgK7_AGmYaf1wYTV53XsiowtKbrXMoXBiGFBiqqKSYbelxBrHdKpXvCjOzoqyjvDC3MEbEYtFPMxChRikMiEhBSjA7KCYExb1w2TzqkdvcbGhSKEDEmfZAhKImPCtfOZUSV2jvCZQ", "width": 3456}], "place_id": "ChIJHUMfYOcc0oURbiFLIFRmEWs", "plus_code": {"compound_code": "9WC9+FX Mexico City", "global_code": "76F29WC9+FX"}, "rating": 3.7, "reference": "ChIJHUMfYOcc0oURbiFLIFRmEWs", "types": ["gas_station", "point_of_interest", "establishment"], "user_ratings_total": 548}, {"business_status": "OPERATIONAL", "formatted_address": "Calz. de la Viga 1112, H\u00e9roes de Churubusco, Iztapalapa, 09090 Ciudad de M\u00e9xico, CDMX", "geometry": {"location": {"lat": 19.3600697, "lng": -99.1218061}, "viewport": {"northeast": {"lat": 19.36141557989272, "lng": -99.1205353201073}, "southwest": {"lat": 19.35871592010728, "lng": -99.12323497989273}}}, "icon": "https://maps.gstatic.com/mapfiles/place_api/icons/v1/png_71/gas_station-71.png", "name": "Shell", "opening_hours": {"open_now": true}, "photos": [{"height": 3120, "html_attributions": ["<a href=\"https://maps.google.com/maps/contrib/111805689511602849555\">Jesus Marcial</a>"], "photo_reference": "CmRaAAAADZ7rPk21s1kjWcqQqEF0PIY48XR-UI0DdzGswe3f5gcnza0s4buaZgdWacULy3Ne25q06tGs5_3_Tog3xn5lWNwOaOkrmSoWYjVOhcvKDqVLc0efd7zACvWacEVMu-6GEhCR_iyO176y1O2pvRUya8mQGhRfti-MD4UcML35L2B7cbSyYHLvDQ", "width": 4160}], "place_id": "ChIJVfekA2P_0YURMyFRWJuBmUA", "plus_code": {"compound_code": "9V6H+27 Mexico City", "global_code": "76F29V6H+27"}, "rating": 3.9, "reference": "ChIJVfekA2P_0YURMyFRWJuBmUA", "types": ["gas_station", "point_of_interest", "establishment"], "user_ratings_total": 23}, {"business_status": "OPERATIONAL", "formatted_address": "Frutas y Legumbres 189, \u00c1rea Federal Central de Abastos, Iztapalapa, 09819 Ciudad de M\u00e9xico, CDMX", "geometry": {"location": {"lat": 19.374505, "lng": -99.0953634}, "viewport": {"northeast": {"lat": 19.37594182989272, "lng": -99.09401167010728}, "southwest": {"lat": 19.37324217010728, "lng": -99.09671132989271}}}, "icon": "https://maps.gstatic.com/mapfiles/place_api/icons/v1/png_71/gas_station-71.png", "name": "Gasolinera", "opening_hours": {}, "photos": [{"height": 3264, "html_attributions": ["<a href=\"https://maps.google.com/maps/contrib/111745022311792005194\">A Google User</a>"], "photo_reference": "CmRaAAAAUADmJzQRSz6XrMrNK6R9a7ti1qudpOFSm_33_g_U9RgLJv0xSJv_UQP_iE4sBQgaXUy4NMV2tvLMYYULc7uyOAb7vsJRrtLYIrhhOlQDbrplDJYv4Um7TRVwJ_6bHVhlEhAPEXf2otd-2TG_ybBfBTVkGhTgSfVifv_Jz4v4y5sFkSO8A1zy2g", "width": 2448}], "place_id": "ChIJXQFuJNr90YURT1iDlAQyAns", "plus_code": {"compound_code": "9WF3+RV Mexico City", "global_code": "76F29WF3+RV"}, "rating": 3.8, "reference": "ChIJXQFuJNr90YURT1iDlAQyAns", "types": ["gas_station", "point_of_interest", "establishment"], "user_ratings_total": 14}]