[{"business_status": "OPERATIONAL", "formatted_address": "Privada Ermita Iztapalapa 53, Amp Ricardo Flores Mag\u00f3n, Iztapalapa, 09828 Ciudad de M\u00e9xico, CDMX, Mexico", "geometry": {"location": {"lat": 19.3525446, "lng": -99.1006536}, "viewport": {"northeast": {"lat": 19.3538979802915, "lng": -99.09931846970849}, "southwest": {"lat": 19.3512000197085, "lng": -99.1020164302915}}}, "icon": "https://maps.gstatic.com/mapfiles/place_api/icons/v1/png_71/generic_business-71.png", "name": "Estetica Jenni", "opening_hours": {"open_now": true}, "place_id": "ChIJ2ZhVTf390YUR4uhFVjvX5GM", "plus_code": {"compound_code": "9V3X+2P Mexico City, CDMX, Mexico", "global_code": "76F29V3X+2P"}, "rating": 5, "reference": "ChIJ2ZhVTf390YUR4uhFVjvX5GM", "types": ["hair_care", "point_of_interest", "establishment"], "user_ratings_total": 2}, {"business_status": "OPERATIONAL", "formatted_address": "Casi esquina con Calle Cacama, manzana 21, lote 3, Axayacatl 6, Zona Urbana Ejidal los Reyes Culhuacan, Iztapalapa, 09840 Ciudad de M\u00e9xico, CDMX, Mexico", "geometry": {"location": {"lat": 19.3473985, "lng": -99.1033824}, "viewport": {"northeast": {"lat": 19.3487545302915, "lng": -99.10205876970849}, "southwest": {"lat": 19.3460565697085, "lng": -99.10475673029151}}}, "icon": "https://maps.gstatic.com/mapfiles/place_api/icons/v1/png_71/generic_business-71.png", "name": "EST\u00c9TICA UNISEX NATALIA", "opening_hours": {"open_now": true}, "place_id": "ChIJ6RHSOgf-0YUR96x68R3_cnw", "plus_code": {"compound_code": "8VWW+XJ Mexico City, CDMX, Mexico", "global_code": "76F28VWW+XJ"}, "reference": "ChIJ6RHSOgf-0YUR96x68R3_cnw", "types": ["beauty_salon", "hair_care", "point_of_interest", "establishment"]}, {"business_status": "OPERATIONAL", "formatted_address": "09820, Cuicacalli 18, Estrella del Sur, Iztapalapa, 09820 Ciudad de M\u00e9xico, CDMX, Mexico", "geometry": {"location": {"lat": 19.348627, "lng": -99.1006819}, "viewport": {"northeast": {"lat": 19.3499791802915, "lng": -99.0993315197085}, "southwest": {"lat": 19.3472812197085, "lng": -99.1020294802915}}}, "icon": "https://maps.gstatic.com/mapfiles/place_api/icons/v1/png_71/generic_business-71.png", "name": "Estetica", "place_id": "ChIJqSMkjv390YURQ-lM86RcF9g", "plus_code": {"compound_code": "8VXX+FP Mexico City, CDMX, Mexico", "global_code": "76F28VXX+FP"}, "reference": "ChIJqSMkjv390YURQ-lM86RcF9g", "types": ["hair_care", "health", "point_of_interest", "establishment"]}, {"business_status": "OPERATIONAL", "formatted_address": "Moctezuma 34, Estrella del Sur, Iztapalapa, 09820 Iztapalapa, CDMX, Mexico", "geometry": {"location": {"lat": 19.3485261, "lng": -99.10073709999999}, "viewport": {"northeast": {"lat": 19.3499143802915, "lng": -99.09937076970847}, "southwest": {"lat": 19.3472164197085, "lng": -99.10206873029149}}}, "icon": "https://maps.gstatic.com/mapfiles/place_api/icons/v1/png_71/generic_business-71.png", "name": "Sal\u00f3n Seduction", "opening_hours": {"open_now": true}, "place_id": "ChIJ0Ypyjv390YUR90cjdNdcw90", "plus_code": {"compound_code": "8VXX+CP Mexico City, CDMX, Mexico", "global_code": "76F28VXX+CP"}, "rating": 4.2, "reference": "ChIJ0Ypyjv390YUR90cjdNdcw90", "types": ["beauty_salon", "hair_care", "point_of_interest", "establishment"], "user_ratings_total": 6}, {"business_status": "OPERATIONAL", "formatted_address": "Granjeros 142, Los Cipreses, Iztapalapa, 09810 Ciudad de M\u00e9xico, CDMX, Mexico", "geometry": {"location": {"lat": 19.351254, "lng": -99.1083678}, "viewport": {"northeast": {"lat": 19.3526029802915, "lng": -99.10701881970849}, "southwest": {"lat": 19.3499050197085, "lng": -99.1097167802915}}}, "icon": "https://maps.gstatic.com/mapfiles/place_api/icons/v1/png_71/generic_business-71.png", "name": "Afas BarberShop", "opening_hours": {"open_now": true}, "photos": [{"height": 1673, "html_attributions": ["<a href=\"https://maps.google.com/maps/contrib/102998115025162688626\">Afas BarberShop</a>"], "photo_reference": "CmRaAAAAgO4cLajOsB_lBtALKSmRlUdGVk2SbqI0zIhyXA8OWHJgGZsFBQlj89VWJUwJ0HweBcvXcewkJkF40YQEYTaiOpGsh4NCYBmivFP6fmQ5avypTMhEJemOBXotzQhDSvdmEhBNRTqAuKq-0UX3ytki9N87GhScOk6O4UaOI19bq45IASD-LwHXzA", "width": 2462}], "place_id": "ChIJP3wboZb_0YURZTn__ixYhhc", "plus_code": {"compound_code": "9V2R+GM Mexico City, CDMX, Mexico", "global_code": "76F29V2R+GM"}, "rating": 5, "reference": "ChIJP3wboZb_0YURZTn__ixYhhc", "types": ["hair_care", "health", "point_of_interest", "establishment"], "user_ratings_total": 1}]