[{"business_status": "OPERATIONAL", "geometry": {"location": {"lat": 19.3504842, "lng": -99.10249460000001}, "viewport": {"northeast": {"lat": 19.3519995802915, "lng": -99.10162336970849}, "southwest": {"lat": 19.3493016197085, "lng": -99.1043213302915}}}, "icon": "https://maps.gstatic.com/mapfiles/place_api/icons/v1/png_71/shopping-71.png", "name": "Ferre CAPITAL s.a. de c.v", "place_id": "ChIJLzKA1ln_0YUREJ2sQvwEBAw", "plus_code": {"compound_code": "9V2X+52 Mexico City, CDMX, Mexico", "global_code": "76F29V2X+52"}, "reference": "ChIJLzKA1ln_0YUREJ2sQvwEBAw", "scope": "GOOGLE", "types": ["hardware_store", "point_of_interest", "store", "establishment"], "vicinity": "Camino Antiguo a Culhuacan 160, Estrella del Sur, Ciudad de M\u00e9xico"}, {"business_status": "OPERATIONAL", "geometry": {"location": {"lat": 19.3510401, "lng": -99.1078977}, "viewport": {"northeast": {"lat": 19.3524349302915, "lng": -99.1065447197085}, "southwest": {"lat": 19.34973696970849, "lng": -99.10924268029152}}}, "icon": "https://maps.gstatic.com/mapfiles/place_api/icons/v1/png_71/shopping-71.png", "name": "Tortilleria Lupita", "opening_hours": {"open_now": false}, "place_id": "ChIJZ8LcfEz_0YURI-lsLBgmLPk", "plus_code": {"compound_code": "9V2R+CR Mexico City, CDMX, Mexico", "global_code": "76F29V2R+CR"}, "rating": 4, "reference": "ChIJZ8LcfEz_0YURI-lsLBgmLPk", "scope": "GOOGLE", "types": ["grocery_or_supermarket", "hardware_store", "food", "point_of_interest", "store", "establishment"], "user_ratings_total": 1, "vicinity": "Granjeros 349, Minerva, Ciudad de M\u00e9xico"}, {"business_status": "OPERATIONAL", "geometry": {"location": {"lat": 19.3485373, "lng": -99.1007422}, "viewport": {"northeast": {"lat": 19.3499216302915, "lng": -99.09937761970848}, "southwest": {"lat": 19.3472236697085, "lng": -99.1020755802915}}}, "icon": "https://maps.gstatic.com/mapfiles/place_api/icons/v1/png_71/shopping-71.png", "name": "Tlapaler\u00eda Montoya", "opening_hours": {"open_now": true}, "place_id": "ChIJBfYSjv390YURcy4d-Pzi2lQ", "plus_code": {"compound_code": "8VXX+CP Mexico City, CDMX, Mexico", "global_code": "76F28VXX+CP"}, "rating": 2.5, "reference": "ChIJBfYSjv390YURcy4d-Pzi2lQ", "scope": "GOOGLE", "types": ["hardware_store", "point_of_interest", "store", "establishment"], "user_ratings_total": 2, "vicinity": "Mz 1, Lt 1, Callej\u00f3n Moctezuma S/N, Estrella del Sur, Ciudad de M\u00e9xico"}, {"business_status": "OPERATIONAL", "geometry": {"location": {"lat": 19.3480243, "lng": -99.1069632}, "viewport": {"northeast": {"lat": 19.3493768302915, "lng": -99.1056358697085}, "southwest": {"lat": 19.3466788697085, "lng": -99.1083338302915}}}, "icon": "https://maps.gstatic.com/mapfiles/place_api/icons/v1/png_71/shopping-71.png", "name": "Ricky", "opening_hours": {"open_now": true}, "place_id": "ChIJW0CLIAT-0YURu2sq1rA7v5A", "plus_code": {"compound_code": "8VXV+66 Mexico City, CDMX, Mexico", "global_code": "76F28VXV+66"}, "reference": "ChIJW0CLIAT-0YURu2sq1rA7v5A", "scope": "GOOGLE", "types": ["hardware_store", "point_of_interest", "store", "establishment"], "vicinity": "Manzana 3 Lote A, Avenida Tlahuac, Los Reyes Culhuacan, Iztapalapa, Ciudad de M\u00e9xico"}, {"business_status": "OPERATIONAL", "geometry": {"location": {"lat": 19.3512584, "lng": -99.10847129999999}, "viewport": {"northeast": {"lat": 19.3525634802915, "lng": -99.1071250697085}, "southwest": {"lat": 19.3498655197085, "lng": -99.10982303029151}}}, "icon": "https://maps.gstatic.com/mapfiles/place_api/icons/v1/png_71/restaurant-71.png", "name": "Comedor Las Delicias", "opening_hours": {"open_now": false}, "photos": [{"height": 3264, "html_attributions": ["<a href=\"https://maps.google.com/maps/contrib/100544233399434488171\">almita fuhsl</a>"], "photo_reference": "CmRaAAAAM7m340xT_v4oTeFG10DKfhbEnYNfhnZUY_JhtivkjAx1IY6N3q0s6St-P2ozDy6tEj4-BV_TXp0TtbMMUTYb_2UKgwvxP2O5WlUWLxHMQ-iDKAnlkiTm6UCAWBM90fAgEhAEkIpRJrlr-Uelhxvy5ZaYGhQaXxZY6Iyy3uK3QR_V9Kz50vvE0A", "width": 1836}], "place_id": "ChIJ2_du3SP_0YURy37TH54eB1c", "plus_code": {"compound_code": "9V2R+GJ Minerva, Mexico City, CDMX, Mexico", "global_code": "76F29V2R+GJ"}, "rating": 3.9, "reference": "ChIJ2_du3SP_0YURy37TH54eB1c", "scope": "GOOGLE", "types": ["restaurant", "hardware_store", "food", "point_of_interest", "store", "establishment"], "user_ratings_total": 125, "vicinity": "Sur 125-A, Granjeros Esq, Minerva"}]