[{"business_status": "OPERATIONAL", "formatted_address": "Eje 8 Sur, Ermita Iztapalapa, San Miguel, 09360 Ciudad de M\u00e9xico", "geometry": {"location": {"lat": 19.3553227, "lng": -99.08397889999999}, "viewport": {"northeast": {"lat": 19.35661922989272, "lng": -99.08265607010728}, "southwest": {"lat": 19.35391957010728, "lng": -99.08535572989273}}}, "icon": "https://maps.gstatic.com/mapfiles/place_api/icons/v1/png_71/hospital-71.png", "name": "Covidien Mexico", "opening_hours": {}, "place_id": "ChIJaUU82-390YURmgYYOaAlwig", "plus_code": {"compound_code": "9W48+4C Mexico City", "global_code": "76F29W48+4C"}, "rating": 0, "reference": "ChIJaUU82-390YURmgYYOaAlwig", "types": ["hospital", "health", "point_of_interest", "establishment"], "user_ratings_total": 0}, {"business_status": "OPERATIONAL", "formatted_address": "Magnolia 116, Los \u00c1ngeles, Iztapalapa, 09630 Ciudad de M\u00e9xico, CDMX", "geometry": {"location": {"lat": 19.3443178, "lng": -99.06929439999999}, "viewport": {"northeast": {"lat": 19.34567677989272, "lng": -99.06798212010726}, "southwest": {"lat": 19.34297712010728, "lng": -99.07068177989271}}}, "icon": "https://maps.gstatic.com/mapfiles/place_api/icons/v1/png_71/hospital-71.png", "name": "Hospital Jos\u00e9 Magnolia", "opening_hours": {"open_now": true}, "place_id": "ChIJzRLJPIj90YURZduP2uX188I", "plus_code": {"compound_code": "8WVJ+P7 Mexico City", "global_code": "76F28WVJ+P7"}, "rating": 2.9, "reference": "ChIJzRLJPIj90YURZduP2uX188I", "types": ["hospital", "health", "point_of_interest", "establishment"], "user_ratings_total": 15}, {"business_status": "OPERATIONAL", "formatted_address": "Ermita Iztapalapa 1739, 8va Amp San Miguel, Iztapalapa, 09837 Ciudad de M\u00e9xico, CDMX", "geometry": {"location": {"lat": 19.3515587, "lng": -99.07736849999999}, "viewport": {"northeast": {"lat": 19.35310212989272, "lng": -99.07591972010728}, "southwest": {"lat": 19.35040247010728, "lng": -99.07861937989271}}}, "icon": "https://maps.gstatic.com/mapfiles/place_api/icons/v1/png_71/hospital-71.png", "name": "Imss", "photos": [{"height": 1280, "html_attributions": ["<a href=\"https://maps.google.com/maps/contrib/113460253056086061609\">gaby venegas</a>"], "photo_reference": "CmRaAAAA0VNcBprr74c_kSXV-FlVBZWWvk2UEErFPlqGIVcjeEHOwc1PsGmutwivvh0VxtyzToBdjrRT0lxP7TzACyXalRx8IMuf-oBvhGZW4AOSqjTpTDfvp92XIaisLRmev9E_EhByBthpdkPi5ym7YpL6FSCGGhT4l_u6xcEMFALJTPFMA00s8r3ePw", "width": 622}], "place_id": "ChIJlbDfBI390YURZFUhcWvclxU", "plus_code": {"compound_code": "9W2F+J3 Mexico City", "global_code": "76F29W2F+J3"}, "rating": 3.4, "reference": "ChIJlbDfBI390YURZFUhcWvclxU", "types": ["hospital", "health", "point_of_interest", "establishment"], "user_ratings_total": 7}, {"business_status": "OPERATIONAL", "formatted_address": "Ermita Iztapalapa 272, Sinatel, Iztapalapa, 09470 Ciudad de M\u00e9xico, CDMX", "geometry": {"location": {"lat": 19.3588688, "lng": -99.1318015}, "viewport": {"northeast": {"lat": 19.36014737989273, "lng": -99.13046047010728}, "southwest": {"lat": 19.35744772010728, "lng": -99.13316012989273}}}, "icon": "https://maps.gstatic.com/mapfiles/place_api/icons/v1/png_71/hospital-71.png", "name": "Sanatorium San Agustin", "opening_hours": {"open_now": true}, "photos": [{"height": 1310, "html_attributions": ["<a href=\"https://maps.google.com/maps/contrib/105143792918166207379\">German Mora</a>"], "photo_reference": "CmRaAAAAkOq2sCUSXCmjsjBLZo9_9jK3KKoTgb5RN-e2BY3Vu4hhSnNVakVGAIajllgc0J0B8gvL3izFKuHRW0B3O56lc1z8j7WsEpUkzQU_d6KvljvHRsHcjkSHjILmgcKaI0BMEhBACvleaGyDevBYNQ-As0U1GhS8SQK0kiZTDBYYwK3Uq8iVK_f_Yg", "width": 2048}], "place_id": "ChIJAZTeKBT-0YURezVJTfITYlA", "plus_code": {"compound_code": "9V59+G7 Mexico City", "global_code": "76F29V59+G7"}, "rating": 3.3, "reference": "ChIJAZTeKBT-0YURezVJTfITYlA", "types": ["hospital", "health", "point_of_interest", "establishment"], "user_ratings_total": 72}, {"business_status": "OPERATIONAL", "formatted_address": "Francisco J. Mujica 48, Constituci\u00f3n de 1917, Iztapalapa, 09260 Ciudad de M\u00e9xico, CDMX", "geometry": {"location": {"lat": 19.3496614, "lng": -99.0620804}, "viewport": {"northeast": {"lat": 19.35095702989272, "lng": -99.0607428201073}, "southwest": {"lat": 19.34825737010728, "lng": -99.06344247989273}}}, "icon": "https://maps.gstatic.com/mapfiles/place_api/icons/v1/png_71/hospital-71.png", "name": "Clinica Constitucion", "opening_hours": {"open_now": true}, "photos": [{"height": 630, "html_attributions": ["<a href=\"https://maps.google.com/maps/contrib/111339414036384536676\">Clinica Constitucion</a>"], "photo_reference": "CmRaAAAAraXHL_sIyhp9lUpxpvcfu09UV9khjXN7ww7kbhvHmSYFAu8MRi1zXmMnLSxhOy8-P5gBCfkME5Q8S75qiTKY7l1rQFDe3bxkEOOsCGmU9Ykn4cNstYYicCohKRXOc2zKEhD_hiy6gjjgp3P3cRkOVBAzGhRW1Jg9_Wv2IVhaKthTiWOJdq5wBQ", "width": 1702}], "place_id": "ChIJiz0L8YP90YURbFDp4bq5nko", "plus_code": {"compound_code": "8WXQ+V5 Mexico City", "global_code": "76F28WXQ+V5"}, "rating": 3.8, "reference": "ChIJiz0L8YP90YURbFDp4bq5nko", "types": ["hospital", "health", "point_of_interest", "establishment"], "user_ratings_total": 52}, {"business_status": "OPERATIONAL", "formatted_address": "Campa\u00f1a del \u00c9bano s/n, U.H. Vicente Guerrero, Iztapalapa, 09200 Ciudad de M\u00e9xico, CDMX", "geometry": {"location": {"lat": 19.3575459, "lng": -99.0542583}, "viewport": {"northeast": {"lat": 19.35913282989272, "lng": -99.05285317010728}, "southwest": {"lat": 19.35643317010728, "lng": -99.05555282989273}}}, "icon": "https://maps.gstatic.com/mapfiles/place_api/icons/v1/png_71/hospital-71.png", "name": "IMSS General Hospital of Zone 47", "opening_hours": {"open_now": true}, "photos": [{"height": 3492, "html_attributions": ["<a href=\"https://maps.google.com/maps/contrib/113230650033458584004\">Osiris L\u00f3pez Ram\u00edrez</a>"], "photo_reference": "CmRaAAAANtZ9vWIG1HGKjFQS-kaWMW4duMhmfsMyC0U34M5wfGYJ8Z_UiwbR4MuvEVyvLMTuyoF3f8Qd0MGXAGOLhH2lDxlolD74MfJF78lAYAEgI0Nz7xulsKsCqMymHsVqC_jyEhAYd_iGxzHgPLz4mUwvTiqQGhRursyj_qwLQ9v51lc98Nd4r8hCkQ", "width": 4656}], "place_id": "ChIJxXKSVXb90YURmhJ8Mowo4TQ", "plus_code": {"compound_code": "9W5W+27 Mexico City", "global_code": "76F29W5W+27"}, "rating": 2.9, "reference": "ChIJxXKSVXb90YURmhJ8Mowo4TQ", "types": ["hospital", "health", "point_of_interest", "establishment"], "user_ratings_total": 133}, {"business_status": "OPERATIONAL", "formatted_address": "Armada de Mexico 1476, Coapa, Cafetales I, Coyoac\u00e1n, 04930 Ciudad de M\u00e9xico, CDMX", "geometry": {"location": {"lat": 19.315402, "lng": -99.1108656}, "viewport": {"northeast": {"lat": 19.31670192989272, "lng": -99.10962132010728}, "southwest": {"lat": 19.31400227010728, "lng": -99.11232097989271}}}, "icon": "https://maps.gstatic.com/mapfiles/place_api/icons/v1/png_71/hospital-71.png", "name": "Alexander Hospital Clinica S.A. DE C.V.", "opening_hours": {"open_now": true}, "place_id": "ChIJTYt0P40BzoURrg_prwm0ygE", "plus_code": {"compound_code": "8V8Q+5M Mexico City", "global_code": "76F28V8Q+5M"}, "rating": 4.1, "reference": "ChIJTYt0P40BzoURrg_prwm0ygE", "types": ["hospital", "health", "point_of_interest", "establishment"], "user_ratings_total": 9}, {"business_status": "OPERATIONAL", "formatted_address": "Calz de la Virgen 701, Coapa, Presidentes Ejidales 1ra Secc, Coyoac\u00e1n, 04470 Ciudad de M\u00e9xico, CDMX", "geometry": {"location": {"lat": 19.3229334, "lng": -99.1254742}, "viewport": {"northeast": {"lat": 19.32428322989272, "lng": -99.1241243701073}, "southwest": {"lat": 19.32158357010728, "lng": -99.12682402989275}}}, "icon": "https://maps.gstatic.com/mapfiles/place_api/icons/v1/png_71/hospital-71.png", "name": "Hospital General Naval De Alta Especialidad", "place_id": "ChIJZfjJg8MBzoURvPRpwDXiTS4", "plus_code": {"compound_code": "8VFF+5R Mexico City", "global_code": "76F28VFF+5R"}, "rating": 5, "reference": "ChIJZfjJg8MBzoURvPRpwDXiTS4", "types": ["hospital", "health", "point_of_interest", "establishment"], "user_ratings_total": 5}, {"business_status": "OPERATIONAL", "formatted_address": "Calle \u00c1rbol del Fuego 80, El Rosario, Coyoac\u00e1n, 04380 Ciudad de M\u00e9xico, CDMX", "geometry": {"location": {"lat": 19.3279731, "lng": -99.1436114}, "viewport": {"northeast": {"lat": 19.330261, "lng": -99.14189340000001}, "southwest": {"lat": 19.325597, "lng": -99.146121}}}, "icon": "https://maps.gstatic.com/mapfiles/place_api/icons/v1/png_71/hospital-71.png", "name": "HMG Coyoac\u00e1n", "opening_hours": {"open_now": true}, "photos": [{"height": 2592, "html_attributions": ["<a href=\"https://maps.google.com/maps/contrib/116671323850773947745\">Luis Goico</a>"], "photo_reference": "CmRaAAAA8P2bT7XR8R1kbWaB0yOVtJ1EncKxLhfq7VcqASyVueb8nwRIt1dM1bXG306DV38bfOpoCmsRmCjqoPA03SKKbDtCyWDXDhYkPZ9MIekXePThkWHzF4tE9r1nk9_xhp-VEhBB8scd2yzD_y54_oWpWBeXGhRDrcZQt0xyb9rJT8iJMxp1J1SUKg", "width": 4608}], "place_id": "ChIJ____zywAzoURsUePBHE1b3g", "plus_code": {"compound_code": "8VH4+5H Mexico City", "global_code": "76F28VH4+5H"}, "rating": 3.8, "reference": "ChIJ____zywAzoURsUePBHE1b3g", "types": ["hospital", "health", "point_of_interest", "establishment"], "user_ratings_total": 190}, {"business_status": "OPERATIONAL", "formatted_address": "Av. Tlahuac 4866, San Lorenzo Tezonco, Iztapalapa, Ciudad de M\u00e9xico, CDMX", "geometry": {"location": {"lat": 19.3071537, "lng": -99.0653646}, "viewport": {"northeast": {"lat": 19.30837597989272, "lng": -99.06375482010729}, "southwest": {"lat": 19.30567632010727, "lng": -99.06645447989273}}}, "icon": "https://maps.gstatic.com/mapfiles/place_api/icons/v1/png_71/hospital-71.png", "name": "Specialist Hospital Dr. Belisario Dominguez", "opening_hours": {"open_now": false}, "photos": [{"height": 2976, "html_attributions": ["<a href=\"https://maps.google.com/maps/contrib/107385612292086320587\">Carlos Fuentes</a>"], "photo_reference": "CmRaAAAAx1Rd9cKKSVZHISuidRG8qU7Mv4BVtgGEIWqGQhb3mcYSt5nbqLQIyQ1phA6mDtwSxkwpqiBU2HUyKG4WvkvBzteyPsKIE9NmGf-4AXTHufcOBEt0PgoDW8cy72yHpTMzEhAYPPg8nUJpTcpxo5XNInqQGhTeohouTZmBv5akIXh1zl9zwQA3IA", "width": 3968}], "place_id": "ChIJXcoLFFsCzoURcKCpYcep610", "plus_code": {"compound_code": "8W4M+VV Mexico City", "global_code": "76F28W4M+VV"}, "rating": 3.7, "reference": "ChIJXcoLFFsCzoURcKCpYcep610", "types": ["hospital", "health", "point_of_interest", "establishment"], "user_ratings_total": 238}, {"business_status": "OPERATIONAL", "formatted_address": "Eje 4 Sur, Av. Pdte. Plutarco El\u00edas Calles 473, Santa Anita, Iztacalco, 08300 Ciudad de M\u00e9xico, CDMX", "geometry": {"location": {"lat": 19.3986738, "lng": -99.1174278}, "viewport": {"northeast": {"lat": 19.39985767989272, "lng": -99.11602282010729}, "southwest": {"lat": 19.39715802010728, "lng": -99.11872247989272}}}, "icon": "https://maps.gstatic.com/mapfiles/place_api/icons/v1/png_71/hospital-71.png", "name": "IMSS General Hospital of Zone 30", "opening_hours": {"open_now": true}, "photos": [{"height": 2448, "html_attributions": ["<a href=\"https://maps.google.com/maps/contrib/106921891391541124570\">Jonathan Euroza</a>"], "photo_reference": "CmRaAAAAhO2nVtrfF7nwXo_kOI1Ehm52ZchhycdXNTwGg4LyGWWiouCIWgFBihB7PZ10zd7Qrm7gAqyNbhyfQtNvILOXgzuY3QsZdGnIXHOJkAOZl60plnjISvpO9mhqjiGetC5pEhB60y5ied4VssZEeXQK6AZWGhTQZpSdetivLL4h0NVQBS9-6VgY_g", "width": 3264}], "place_id": "ChIJ3-kSBI7-0YURwAVY4vXoK1U", "plus_code": {"compound_code": "9VXM+F2 Mexico City", "global_code": "76F29VXM+F2"}, "rating": 3.5, "reference": "ChIJ3-kSBI7-0YURwAVY4vXoK1U", "types": ["hospital", "health", "point_of_interest", "establishment"], "user_ratings_total": 132}, {"business_status": "OPERATIONAL", "formatted_address": "Ferrocarril de R\u00edo Fr\u00edo MZ16 LT4, El Rodeo, Iztacalco, 08510 Ciudad de M\u00e9xico, CDMX", "geometry": {"location": {"lat": 19.3931261, "lng": -99.08538109999999}, "viewport": {"northeast": {"lat": 19.39451227989272, "lng": -99.08400992010728}, "southwest": {"lat": 19.39181262010728, "lng": -99.08670957989273}}}, "icon": "https://maps.gstatic.com/mapfiles/place_api/icons/v1/png_71/hospital-71.png", "name": "Centromedico Siglo 21", "place_id": "ChIJ-w_QFX_90YURLZRS8LHoAS8", "plus_code": {"compound_code": "9WV7+7R Mexico City", "global_code": "76F29WV7+7R"}, "rating": 0, "reference": "ChIJ-w_QFX_90YURLZRS8LHoAS8", "types": ["hospital", "health", "point_of_interest", "establishment"], "user_ratings_total": 0}, {"business_status": "OPERATIONAL", "formatted_address": "Reforma Aeron\u00e1utica 3018, Reforma Pol\u00edtica, Iztapalapa, 09730 Iztapalapa, CDMX", "geometry": {"location": {"lat": 19.343323, "lng": -99.0273498}, "viewport": {"northeast": {"lat": 19.34497227989272, "lng": -99.02614572010727}, "southwest": {"lat": 19.34227262010728, "lng": -99.02884537989272}}}, "icon": "https://maps.gstatic.com/mapfiles/place_api/icons/v1/png_71/hospital-71.png", "name": "General Hospital Dr. Juan Ramon de la Fuente", "opening_hours": {"open_now": true}, "photos": [{"height": 648, "html_attributions": ["<a href=\"https://maps.google.com/maps/contrib/110703496566904656242\">Rulo Metalero</a>"], "photo_reference": "CmRaAAAAMAihBT4O3c0QPVWf5XRsqrPuZhef_FE6zVupISUKA_K-cOVv44AA3GIQrwPihTAHWJflQnq5AHenAzcc5lb--ah1Xm-fe8cp6lpEMYFwH_roP1HptmQCTlUde9TK77v5EhCESi7QiytWfH3oTAQ-KDZ-GhRZC_KednPAabXsl4cpC8Qgf30aAw", "width": 1152}], "place_id": "ChIJEewZYacCzoURmLmbkzRAxMM", "plus_code": {"compound_code": "8XVF+83 Reforma Pol\u00edtica, Mexico City", "global_code": "76F28XVF+83"}, "rating": 3.1, "reference": "ChIJEewZYacCzoURmLmbkzRAxMM", "types": ["hospital", "health", "point_of_interest", "establishment"], "user_ratings_total": 199}, {"business_status": "OPERATIONAL", "formatted_address": "Av. del Iman No.257 Pedregal de Santa Ursula Deleg, Coyoac\u00e1n, 09820 CDMX", "geometry": {"location": {"lat": 19.3559099, "lng": -99.1042774}, "viewport": {"northeast": {"lat": 19.35729377989272, "lng": -99.10292407010728}, "southwest": {"lat": 19.35459412010728, "lng": -99.10562372989273}}}, "icon": "https://maps.gstatic.com/mapfiles/place_api/icons/v1/png_71/hospital-71.png", "name": "Hospital Shriners M\u00e9xico", "photos": [{"height": 640, "html_attributions": ["<a href=\"https://maps.google.com/maps/contrib/102483781826875854844\">A Google User</a>"], "photo_reference": "CmRaAAAAb19NR2CG2T8vYThQdr6kDfKwPRCqyGnXYySF1HvLTFqyvyglgaNLsY7vJBX91fRObL70i9A6xPgkOndXMWQCzLDpUODlCnSv6Kic0k5fyGYlEc0_icbFHBNO-psCeXFCEhCzSI0JdT2LrlvxY7d9y64zGhREIF1HixgL-9ViKKh83hqPhx4dDQ", "width": 480}], "place_id": "ChIJlaqtBwn-0YURUW043dnm34k", "plus_code": {"compound_code": "9V4W+97 Mexico City", "global_code": "76F29V4W+97"}, "rating": 4.8, "reference": "ChIJlaqtBwn-0YURUW043dnm34k", "types": ["hospital", "health", "point_of_interest", "establishment"], "user_ratings_total": 22}, {"business_status": "OPERATIONAL", "formatted_address": "Calz. de las Bombas 117, Coapa, Girasoles I, Tlalpan, 14310 Ciudad de M\u00e9xico, CDMX", "geometry": {"location": {"lat": 19.3091272, "lng": -99.1297306}, "viewport": {"northeast": {"lat": 19.31187445, "lng": -99.12619575}, "southwest": {"lat": 19.30442625, "lng": -99.13432275}}}, "icon": "https://maps.gstatic.com/mapfiles/place_api/icons/v1/png_71/hospital-71.png", "name": "IMSS Hospital General Regional #2", "opening_hours": {"open_now": true}, "photos": [{"height": 3456, "html_attributions": ["<a href=\"https://maps.google.com/maps/contrib/101929253836952302108\">DR. MILLAN HGR1</a>"], "photo_reference": "CmRaAAAAnVkM6vjbFKX4EWfD3ETeuH4eefJVYmPSjJlpIEHEeXMnTH9BG_08clYopjcZ18nUB13gDjTowZdElsKcCYMw8Zqqx9Z9FfqKSP7kKW80Mck06CXLbSFQkuX3XM9jmb4cEhA7EI1sCsHxJrQVIZi9bdXQGhRqXSiWTjr9Yl_mq0Hr_Raax181bA", "width": 4608}], "place_id": "ChIJ5x6e2rsBzoURP9kg5ybObKI", "plus_code": {"compound_code": "8V5C+M4 Mexico City", "global_code": "76F28V5C+M4"}, "rating": 3.7, "reference": "ChIJ5x6e2rsBzoURP9kg5ybObKI", "types": ["hospital", "health", "point_of_interest", "establishment"], "user_ratings_total": 208}, {"business_status": "OPERATIONAL", "formatted_address": "A\u00f1il 144, Granjas M\u00e9xico, Iztacalco, 08400 Ciudad de M\u00e9xico, CDMX", "geometry": {"location": {"lat": 19.4053733, "lng": -99.11287370000001}, "viewport": {"northeast": {"lat": 19.40672987989272, "lng": -99.11129557010727}, "southwest": {"lat": 19.40403022010728, "lng": -99.11399522989272}}}, "icon": "https://maps.gstatic.com/mapfiles/place_api/icons/v1/png_71/hospital-71.png", "name": "IMSS Hospital General de Zona 2A \"Troncoso\"", "opening_hours": {"open_now": true}, "photos": [{"height": 1920, "html_attributions": ["<a href=\"https://maps.google.com/maps/contrib/105393917257631648676\">sara</a>"], "photo_reference": "CmRaAAAAGzWwlFQzGB7n7BPPAQ5h1vMmnNJjhj_xc2WqM7qutgmTW0SynAVe-HxepKY88LNLyiRnLfMzGolZXRT9FGBLEbhMKLPz3p_2ef330SVREzUcxnG9NZX26hXxx5ecLx9oEhCE9Dwn2y_RfLvw5oK8khrvGhTTDb4hKRDmwIGm8fAoV5h1gBf-Ag", "width": 2560}], "place_id": "ChIJ9-dYAZr-0YURKHtbry1e4nI", "plus_code": {"compound_code": "CV4P+4V Mexico City", "global_code": "76F2CV4P+4V"}, "rating": 3.4, "reference": "ChIJ9-dYAZr-0YURKHtbry1e4nI", "types": ["hospital", "health", "point_of_interest", "establishment"], "user_ratings_total": 214}, {"business_status": "OPERATIONAL", "formatted_address": "Calz. del Hueso s/n, Coapa, Sta. \u00darsula Coapa, Coyoac\u00e1n, 04980 Ciudad de M\u00e9xico, CDMX", "geometry": {"location": {"lat": 19.3076704, "lng": -99.1312131}, "viewport": {"northeast": {"lat": 19.30867042989273, "lng": -99.13003262010729}, "southwest": {"lat": 19.30597077010728, "lng": -99.13273227989274}}}, "icon": "https://maps.gstatic.com/mapfiles/place_api/icons/v1/png_71/hospital-71.png", "name": "HGZ 32", "opening_hours": {"open_now": true}, "photos": [{"height": 1920, "html_attributions": ["<a href=\"https://maps.google.com/maps/contrib/110566524165208882032\">Gerardo Cort\u00e9s Velasco</a>"], "photo_reference": "CmRaAAAANN-VX9OCDPhuoWqTc2ouuELLPCOAgEvlwQt0HYsNK0a5uyiZ4Ldc7A25WqjBqi9eR0c6uFvTTlWB_OiZl0rWwiMmC_6y-mZ5I1jptelxU8MhPDKfoPEIdkdMVTDGTbuVEhCQHRLK9HHt0CvXLWnQPLf4GhR4eYvhUH8riVzVTWV5SU6vAfkOTA", "width": 2560}], "place_id": "ChIJYeREVLoBzoURGn-H1qzATTg", "plus_code": {"compound_code": "8V59+3G Mexico City", "global_code": "76F28V59+3G"}, "rating": 3.6, "reference": "ChIJYeREVLoBzoURGn-H1qzATTg", "types": ["hospital", "health", "point_of_interest", "establishment"], "user_ratings_total": 129}, {"business_status": "OPERATIONAL", "formatted_address": "Calz. del Hueso 7700, Coapa, Granjas Coapa, Tlalpan, 14330 Tlalpan, CDMX", "geometry": {"location": {"lat": 19.299561, "lng": -99.10238570000001}, "viewport": {"northeast": {"lat": 19.30106567989272, "lng": -99.10104637010727}, "southwest": {"lat": 19.29836602010728, "lng": -99.10374602989272}}}, "icon": "https://maps.gstatic.com/mapfiles/place_api/icons/v1/png_71/hospital-71.png", "name": "Cl\u00ednica Naval Cuemanco - SEMAR", "opening_hours": {"open_now": false}, "photos": [{"height": 3264, "html_attributions": ["<a href=\"https://maps.google.com/maps/contrib/103360385021463965950\">Arturo Arenas</a>"], "photo_reference": "CmRaAAAA6x1xyXw9kcDuDcCAAlwfR8mhJc74UFVbqdBR7ozuWablJEBTcI2nOXDBAqMflmOfSU8W9M06E4n0ShnPh1ztI6kRcplChyAy3St-VWetvqCReRPYvUNw9mqK5xP5axanEhA50v1KaBaBifLegv-J3dfxGhSdsrIyIrHgSgfznDDXjYzT4plHAQ", "width": 2448}], "place_id": "ChIJ50vDTIcBzoURcj83WGHZxhk", "plus_code": {"compound_code": "7VXX+R2 Granjas Coapa, Mexico City", "global_code": "76F27VXX+R2"}, "rating": 4.6, "reference": "ChIJ50vDTIcBzoURcj83WGHZxhk", "types": ["hospital", "health", "point_of_interest", "establishment"], "user_ratings_total": 29}, {"business_status": "OPERATIONAL", "formatted_address": "Dr Jos\u00e9 Mar\u00eda Vertiz 1247, Letran Valle, Benito Ju\u00e1rez, 03650 Ciudad de M\u00e9xico, CDMX", "geometry": {"location": {"lat": 19.3767465, "lng": -99.15403599999999}, "viewport": {"northeast": {"lat": 19.37808222989272, "lng": -99.15260047010727}, "southwest": {"lat": 19.37538257010728, "lng": -99.15530012989271}}}, "icon": "https://maps.gstatic.com/mapfiles/place_api/icons/v1/png_71/hospital-71.png", "name": "Sanatorium El Refugio", "opening_hours": {"open_now": true}, "place_id": "ChIJR35UVQH_0YURezOTVdr0mCs", "plus_code": {"compound_code": "9RGW+M9 Mexico City", "global_code": "76F29RGW+M9"}, "rating": 4.1, "reference": "ChIJR35UVQH_0YURezOTVdr0mCs", "types": ["hospital", "health", "point_of_interest", "establishment"], "user_ratings_total": 10}, {"business_status": "OPERATIONAL", "formatted_address": "Municipio Libre 270, Portales Nte, Benito Ju\u00e1rez, 03300 Ciudad de M\u00e9xico, CDMX", "geometry": {"location": {"lat": 19.3696537, "lng": -99.1558374}, "viewport": {"northeast": {"lat": 19.37102707989272, "lng": -99.15418942010727}, "southwest": {"lat": 19.36832742010727, "lng": -99.15688907989271}}}, "icon": "https://maps.gstatic.com/mapfiles/place_api/icons/v1/png_71/hospital-71.png", "name": "Hgz 1A Venados", "opening_hours": {"open_now": true}, "photos": [{"height": 3136, "html_attributions": ["<a href=\"https://maps.google.com/maps/contrib/111087279963246051641\">Jesus Valera</a>"], "photo_reference": "CmRaAAAAiduevAkokVwKinQydAVVA84vsbu2pLA3X3-_mxV1FwC07CSey3H7YaAsesY4gNRtVWqATpNowLF_6FAKvsiJWS881Yfgeb17eS93pvGHuzP_Gb7ooKaZYVRLmsLbaHqbEhAnlUzj4b5od2n3-5zGwIEoGhR8DnjvQYoqKTVrukRqrQtUdx33bQ", "width": 4800}], "place_id": "ChIJuZ-UkrD_0YURSnAZVB7TwD4", "plus_code": {"compound_code": "9R9V+VM Mexico City", "global_code": "76F29R9V+VM"}, "rating": 3, "reference": "ChIJuZ-UkrD_0YURSnAZVB7TwD4", "types": ["hospital", "health", "point_of_interest", "establishment"], "user_ratings_total": 173}]