[{"business_status": "OPERATIONAL", "formatted_address": "Ocelopan Mz.9 Lt.1, Zona Urbana Ejidal los Reyes Culhuacan, Iztapalapa, 09840 Ciudad de M\u00e9xico, CDMX", "geometry": {"location": {"lat": 19.3474447, "lng": -99.10607979999999}, "viewport": {"northeast": {"lat": 19.34879542989272, "lng": -99.10473362010728}, "southwest": {"lat": 19.34609577010728, "lng": -99.10743327989273}}}, "icon": "https://maps.gstatic.com/mapfiles/place_api/icons/v1/png_71/generic_business-71.png", "name": "LAVANDER\u00cdA", "place_id": "ChIJ6zBvuwb-0YUR8-PJALkbfZo", "plus_code": {"compound_code": "8VWV+XH Mexico City", "global_code": "76F28VWV+XH"}, "rating": 0, "reference": "ChIJ6zBvuwb-0YUR8-PJALkbfZo", "types": ["laundry", "point_of_interest", "establishment"], "user_ratings_total": 0}, {"business_status": "OPERATIONAL", "formatted_address": "Sur 125 122, Los Cipreses, Iztapalapa, 09810 Ciudad de M\u00e9xico, CDMX", "geometry": {"location": {"lat": 19.3519918, "lng": -99.1083817}, "viewport": {"northeast": {"lat": 19.35338632989272, "lng": -99.10732237010728}, "southwest": {"lat": 19.35068667010728, "lng": -99.11002202989273}}}, "icon": "https://maps.gstatic.com/mapfiles/place_api/icons/v1/png_71/generic_business-71.png", "name": "Lavander\u00eda y Planchaduria Olin Clean", "opening_hours": {"open_now": false}, "place_id": "ChIJKdK0tH3_0YUR0uucL9YQ3qg", "plus_code": {"compound_code": "9V2R+QJ Mexico City", "global_code": "76F29V2R+QJ"}, "rating": 0, "reference": "ChIJKdK0tH3_0YUR0uucL9YQ3qg", "types": ["laundry", "point_of_interest", "establishment"], "user_ratings_total": 0}, {"business_status": "OPERATIONAL", "formatted_address": "Arroyo Tlaloc 326, Iztapalapa, 09820 Ciudad de M\u00e9xico, CDMX", "geometry": {"location": {"lat": 19.3516701, "lng": -99.1013651}, "viewport": {"northeast": {"lat": 19.35299982989272, "lng": -99.10002282010728}, "southwest": {"lat": 19.35030017010727, "lng": -99.10272247989273}}}, "icon": "https://maps.gstatic.com/mapfiles/place_api/icons/v1/png_71/generic_business-71.png", "name": "TINTORER\u00cdA Y LAVANDER\u00cdA \" JUQUILA\"", "opening_hours": {"open_now": true}, "place_id": "ChIJySt2WP390YUR8yPvk-ejxao", "plus_code": {"compound_code": "9V2X+MF Mexico City", "global_code": "76F29V2X+MF"}, "rating": 4, "reference": "ChIJySt2WP390YUR8yPvk-ejxao", "types": ["laundry", "point_of_interest", "establishment"], "user_ratings_total": 1}, {"business_status": "OPERATIONAL", "formatted_address": "Puentetitla 140, Estrella del Sur, Iztapalapa, 09820 Ciudad de M\u00e9xico, CDMX", "geometry": {"location": {"lat": 19.3498769, "lng": -99.1007443}, "viewport": {"northeast": {"lat": 19.35125582989272, "lng": -99.09946387010727}, "southwest": {"lat": 19.34855617010728, "lng": -99.10216352989272}}}, "icon": "https://maps.gstatic.com/mapfiles/place_api/icons/v1/png_71/generic_business-71.png", "name": "Lavander\u00eda Tour", "opening_hours": {"open_now": true}, "place_id": "ChIJD3XAef390YURgMYJMuHhL7Y", "plus_code": {"compound_code": "8VXX+XP Estrella del Sur, Mexico City", "global_code": "76F28VXX+XP"}, "rating": 4, "reference": "ChIJD3XAef390YURgMYJMuHhL7Y", "types": ["laundry", "point_of_interest", "establishment"], "user_ratings_total": 2}, {"business_status": "OPERATIONAL", "formatted_address": "Xochipilli mz19 lt14, Estrella del sur, 09820 Iztapalapa, CDMX", "geometry": {"location": {"lat": 19.3485515, "lng": -99.10038499999999}, "viewport": {"northeast": {"lat": 19.34987142989272, "lng": -99.09904792010727}, "southwest": {"lat": 19.34717177010728, "lng": -99.10174757989272}}}, "icon": "https://maps.gstatic.com/mapfiles/place_api/icons/v1/png_71/generic_business-71.png", "name": "Lavander\u00eda la gran espuma", "opening_hours": {"open_now": true}, "place_id": "ChIJmTFfkf390YUR8EP3zzpjL4c", "plus_code": {"compound_code": "8VXX+CR Mexico City", "global_code": "76F28VXX+CR"}, "rating": 4, "reference": "ChIJmTFfkf390YUR8EP3zzpjL4c", "types": ["laundry", "point_of_interest", "establishment"], "user_ratings_total": 2}, {"business_status": "OPERATIONAL", "formatted_address": "Av Estrella 11, Ricardo Flores Mag\u00f3n, Iztapalapa, 09820 Ciudad de M\u00e9xico, CDMX", "geometry": {"location": {"lat": 19.3528936, "lng": -99.09903829999999}, "viewport": {"northeast": {"lat": 19.35423187989272, "lng": -99.09769767010728}, "southwest": {"lat": 19.35153222010728, "lng": -99.10039732989273}}}, "icon": "https://maps.gstatic.com/mapfiles/place_api/icons/v1/png_71/generic_business-71.png", "name": "LAVANDERIA JAMI-EL", "opening_hours": {"open_now": false}, "place_id": "ChIJc1O50-L90YURBZwM9p3_ZfM", "plus_code": {"compound_code": "9W32+59 Mexico City", "global_code": "76F29W32+59"}, "rating": 0, "reference": "ChIJc1O50-L90YURBZwM9p3_ZfM", "types": ["laundry", "point_of_interest", "establishment"], "user_ratings_total": 0}, {"business_status": "OPERATIONAL", "formatted_address": "Agricultores 323, Los Cipreses, Iztapalapa, 09810 Ciudad de M\u00e9xico, CDMX", "geometry": {"location": {"lat": 19.3545048, "lng": -99.10892349999999}, "viewport": {"northeast": {"lat": 19.35589537989272, "lng": -99.10756977010728}, "southwest": {"lat": 19.35319572010728, "lng": -99.11026942989271}}}, "icon": "https://maps.gstatic.com/mapfiles/place_api/icons/v1/png_71/generic_business-71.png", "name": "Lavanderia Y Planchaduria S\u00e1nchez", "photos": [{"height": 3000, "html_attributions": ["<a href=\"https://maps.google.com/maps/contrib/108337579805768484883\">Jonathan Aguirre</a>"], "photo_reference": "CmRaAAAA_4FQH08q1L21N4ofUAuFIk-WLIeJ9sntCX98j4VkcgB2MTompakVDNXsv5DLhESx6lQVpNdQLuH2Wkm3Mxyt43xH2EK7gxDYyTzzde-jRJyh5JB7kbUqWJ58hw7FP2VnEhAAN4CTZXJlFapPIXasdIHJGhSjtbS1jXxw3zFmYBONslTuOVXNuw", "width": 4000}], "place_id": "ChIJecKFMdj_0YURzcp-eF7_SEE", "plus_code": {"compound_code": "9V3R+RC Mexico City", "global_code": "76F29V3R+RC"}, "rating": 0, "reference": "ChIJecKFMdj_0YURzcp-eF7_SEE", "types": ["laundry", "point_of_interest", "establishment"], "user_ratings_total": 0}, {"business_status": "OPERATIONAL", "formatted_address": "Sur 125 174, Los Cipreses, Iztapalapa, 09810 Ciudad de M\u00e9xico, CDMX", "geometry": {"location": {"lat": 19.3507236, "lng": -99.1090014}, "viewport": {"northeast": {"lat": 19.35207677989272, "lng": -99.10769477010729}, "southwest": {"lat": 19.34937712010728, "lng": -99.11039442989272}}}, "icon": "https://maps.gstatic.com/mapfiles/place_api/icons/v1/png_71/generic_business-71.png", "name": "Lavander\u00eda Luere", "opening_hours": {"open_now": true}, "photos": [{"height": 1600, "html_attributions": ["<a href=\"https://maps.google.com/maps/contrib/116205621553219805538\">A Google User</a>"], "photo_reference": "CmRaAAAAodeo9MatrpZ0sTGfrZ1R1HFK4NqD6_rSvBVh5a_1-yhdac0dReE7JIfqHXIkPv-FaR7oCJ5bviGenFw-f_7qkSSphvmlbo-XZc1iJXiD2oL0W2ukdj02d_J2lCIchaGpEhA-fS_xu-kDzrBYkClYb9QKGhQvTjqQXJHXJosMNRCQu4uKy9D4Rw", "width": 1200}], "place_id": "ChIJiXgxFGP_0YURRu0Ooj0NfRg", "plus_code": {"compound_code": "9V2R+79 Mexico City", "global_code": "76F29V2R+79"}, "rating": 0, "reference": "ChIJiXgxFGP_0YURRu0Ooj0NfRg", "types": ["laundry", "point_of_interest", "establishment"], "user_ratings_total": 0}, {"business_status": "OPERATIONAL", "formatted_address": "Agricultores 334, Los Cipreses, Iztapalapa, 09810 Ciudad de M\u00e9xico, CDMX", "geometry": {"location": {"lat": 19.3546161, "lng": -99.10804929999999}, "viewport": {"northeast": {"lat": 19.35591637989272, "lng": -99.10670362010727}, "southwest": {"lat": 19.35321672010728, "lng": -99.10940327989272}}}, "icon": "https://maps.gstatic.com/mapfiles/place_api/icons/v1/png_71/generic_business-71.png", "name": "tintorer\u00eda agricultores", "opening_hours": {"open_now": true}, "photos": [{"height": 1200, "html_attributions": ["<a href=\"https://maps.google.com/maps/contrib/105578003960019804270\">A Google User</a>"], "photo_reference": "CmRaAAAASZxhRxiFvtl2pbaktZrMFBi6vmNOs2XSF0G7D2bs4rHNktefVPzzZFUjgEpls7tW0h5Q-jZi64QXaf0WGwZQxMoL4Kv5CWK53522mw0VeX2KRfsCGCtzJJi6DCZjjKNxEhC8B_FaJOAuSEiFeuj6XoL7GhT4QtVGBn4DVGqOwH5vniz6tUfdxw", "width": 1600}], "place_id": "ChIJ4WkJIw_-0YURkt7V4MA248g", "plus_code": {"compound_code": "9V3R+RQ Mexico City", "global_code": "76F29V3R+RQ"}, "rating": 3.7, "reference": "ChIJ4WkJIw_-0YURkt7V4MA248g", "types": ["laundry", "point_of_interest", "establishment"], "user_ratings_total": 3}, {"business_status": "OPERATIONAL", "formatted_address": "Ahuizotl Mz. 16, Los Reyes Culhuacan, Iztapalapa, 09840 Ciudad de M\u00e9xico, CDMX", "geometry": {"location": {"lat": 19.345729, "lng": -99.105105}, "viewport": {"northeast": {"lat": 19.34709047989272, "lng": -99.10380432010729}, "southwest": {"lat": 19.34439082010728, "lng": -99.10650397989274}}}, "icon": "https://maps.gstatic.com/mapfiles/place_api/icons/v1/png_71/generic_business-71.png", "name": "Lavander\u00eda BURBUJITA", "opening_hours": {"open_now": false}, "place_id": "ChIJmTL-OQH-0YURfzG-IKh03Kg", "plus_code": {"compound_code": "8VWV+7X Los Reyes Culhuacan, Mexico City", "global_code": "76F28VWV+7X"}, "rating": 5, "reference": "ChIJmTL-OQH-0YURfzG-IKh03Kg", "types": ["laundry", "point_of_interest", "establishment"], "user_ratings_total": 3}, {"business_status": "OPERATIONAL", "formatted_address": "Esq. Cihuatl, Arroyo Tlaloc, Estrella del Sur, 09820 Ciudad de M\u00e9xico, CDMX", "geometry": {"location": {"lat": 19.3498864, "lng": -99.0981293}, "viewport": {"northeast": {"lat": 19.35129387989272, "lng": -99.09675957010728}, "southwest": {"lat": 19.34859422010728, "lng": -99.09945922989273}}}, "icon": "https://maps.gstatic.com/mapfiles/place_api/icons/v1/png_71/generic_business-71.png", "name": "LAVANDER\u00cdA AUTOMATICA", "opening_hours": {"open_now": true}, "place_id": "ChIJWeID-fz90YURwRvtU7ZwaYk", "plus_code": {"compound_code": "8WX2+XP Mexico City", "global_code": "76F28WX2+XP"}, "rating": 4, "reference": "ChIJWeID-fz90YURwRvtU7ZwaYk", "types": ["laundry", "point_of_interest", "establishment"], "user_ratings_total": 1}, {"business_status": "OPERATIONAL", "formatted_address": "Ermita Iztapalapa 963B, Ricardo Flores Mag\u00f3n, Iztapalapa, 09000 Ciudad de M\u00e9xico, CDMX", "geometry": {"location": {"lat": 19.3560375, "lng": -99.1008621}, "viewport": {"northeast": {"lat": 19.35743557989272, "lng": -99.09951872010728}, "southwest": {"lat": 19.35473592010728, "lng": -99.10221837989273}}}, "icon": "https://maps.gstatic.com/mapfiles/place_api/icons/v1/png_71/generic_business-71.png", "name": "Lavander\u00eda Tintorer\u00eda y Planchadur\u00eda Verde Mar", "opening_hours": {"open_now": false}, "photos": [{"height": 4160, "html_attributions": ["<a href=\"https://maps.google.com/maps/contrib/116692420291763985325\">Ma Ba</a>"], "photo_reference": "CmRaAAAA2LX6BLo6bOhvkdwsix5TD0HaW1hWw8k72X7BxSqYs3DupShsbYp17IzmkSyy3oI7M20wAkNrplkHZ6aD_OF8i6DrFCI9kGkdLNt_vAO2knC5SI7XCzrdRlY6NUjpymx4EhBmBgDxXKXaBavMfKwnFKacGhSFKwpbw6PuYixvP1bHx5D-L-WAHQ", "width": 2336}], "place_id": "ChIJreSse-L90YURg2dni2-YJ8U", "plus_code": {"compound_code": "9V4X+CM Mexico City", "global_code": "76F29V4X+CM"}, "rating": 3, "reference": "ChIJreSse-L90YURg2dni2-YJ8U", "types": ["laundry", "point_of_interest", "establishment"], "user_ratings_total": 2}, {"business_status": "OPERATIONAL", "formatted_address": "Tlaxcanes 38, Ricardo Flores Mag\u00f3n, Iztapalapa, 09820 Ciudad de M\u00e9xico, CDMX", "geometry": {"location": {"lat": 19.3539151, "lng": -99.0977259}, "viewport": {"northeast": {"lat": 19.35523732989272, "lng": -99.09638787010729}, "southwest": {"lat": 19.35253767010728, "lng": -99.09908752989273}}}, "icon": "https://maps.gstatic.com/mapfiles/place_api/icons/v1/png_71/generic_business-71.png", "name": "Lavanderia Automatica Aries", "place_id": "ChIJ36xCPOP90YURs9Sd_RCbMiE", "plus_code": {"compound_code": "9W32+HW Mexico City", "global_code": "76F29W32+HW"}, "rating": 0, "reference": "ChIJ36xCPOP90YURs9Sd_RCbMiE", "types": ["laundry", "point_of_interest", "establishment"], "user_ratings_total": 0}, {"business_status": "OPERATIONAL", "formatted_address": "Granjeros 142, Minerva, Iztapalapa, 09810 Ciudad de M\u00e9xico, CDMX", "geometry": {"location": {"lat": 19.3512072, "lng": -99.1105156}, "viewport": {"northeast": {"lat": 19.35260742989272, "lng": -99.10916162010729}, "southwest": {"lat": 19.34990777010728, "lng": -99.11186127989272}}}, "icon": "https://maps.gstatic.com/mapfiles/place_api/icons/v1/png_71/generic_business-71.png", "name": "Lavander\u00eda Lupita", "opening_hours": {"open_now": true}, "place_id": "ChIJU7FXFP3_0YURxcxXie-9H1w", "plus_code": {"compound_code": "9V2Q+FQ Mexico City", "global_code": "76F29V2Q+FQ"}, "rating": 0, "reference": "ChIJU7FXFP3_0YURxcxXie-9H1w", "types": ["laundry", "point_of_interest", "establishment"], "user_ratings_total": 0}, {"business_status": "OPERATIONAL", "formatted_address": "Ermita Iztapalapa 1073, San Lucas, Iztapalapa, 09000 Ciudad de M\u00e9xico, CDMX", "geometry": {"location": {"lat": 19.356382, "lng": -99.09818109999999}, "viewport": {"northeast": {"lat": 19.35780242989272, "lng": -99.09684512010728}, "southwest": {"lat": 19.35510277010728, "lng": -99.09954477989271}}}, "icon": "https://maps.gstatic.com/mapfiles/place_api/icons/v1/png_71/generic_business-71.png", "name": "Lavander\u00eda AquaTec", "opening_hours": {"open_now": true}, "photos": [{"height": 4032, "html_attributions": ["<a href=\"https://maps.google.com/maps/contrib/105540512244846120021\">Juan Martinez</a>"], "photo_reference": "CmRZAAAAajBusFUsnbHwyVxII7ge_u3VPTwTbnPwcoAcEvFBi_aJxS1d4AgDzSSoyUNzw65bhaMlpLOo967fNz_qtaLq2XbyM6kMLZ9gQrRj2QT5cbWGL2boiRY3QchQYY-Go7WgEhBXApmPwF-KSUz1rYbbUaIhGhRYUPs52VHbrpb0bsW-4o00gMhcGg", "width": 3024}], "place_id": "ChIJz-7_Xoz90YURiowUK0y-mrg", "plus_code": {"compound_code": "9W42+HP Mexico City", "global_code": "76F29W42+HP"}, "rating": 4.8, "reference": "ChIJz-7_Xoz90YURiowUK0y-mrg", "types": ["laundry", "point_of_interest", "establishment"], "user_ratings_total": 5}, {"business_status": "OPERATIONAL", "formatted_address": "Calle Tlatolcatzin Mz. 21, Zona Urbana Ejidal los Reyes Culhuacan, Iztapalapa, 09840 Ciudad de M\u00e9xico, CDMX", "geometry": {"location": {"lat": 19.3456281, "lng": -99.1001945}, "viewport": {"northeast": {"lat": 19.34697102989272, "lng": -99.09881527010727}, "southwest": {"lat": 19.34427137010728, "lng": -99.10151492989272}}}, "icon": "https://maps.gstatic.com/mapfiles/place_api/icons/v1/png_71/generic_business-71.png", "name": "Centro de Planchado Cielito Lindo", "opening_hours": {"open_now": false}, "place_id": "ChIJFwFoE_790YUR5jW6VDmYRiI", "plus_code": {"compound_code": "8VWX+7W Mexico City", "global_code": "76F28VWX+7W"}, "rating": 0, "reference": "ChIJFwFoE_790YUR5jW6VDmYRiI", "types": ["laundry", "point_of_interest", "establishment"], "user_ratings_total": 0}, {"business_status": "OPERATIONAL", "formatted_address": "Av. Arneses 296, Los Reyes Culhuacan, Iztapalapa, 09840 Ciudad de M\u00e9xico, CDMX", "geometry": {"location": {"lat": 19.3468579, "lng": -99.1114496}, "viewport": {"northeast": {"lat": 19.34822137989272, "lng": -99.11016087010728}, "southwest": {"lat": 19.34552172010728, "lng": -99.11286052989271}}}, "icon": "https://maps.gstatic.com/mapfiles/place_api/icons/v1/png_71/generic_business-71.png", "name": "Lavander\u00eda y Tintorer\u00eda El Delf\u00edn", "opening_hours": {"open_now": true}, "photos": [{"height": 495, "html_attributions": ["<a href=\"https://maps.google.com/maps/contrib/109121261164392370611\">A Google User</a>"], "photo_reference": "CmRaAAAA2jInW_L99IvBP-BvKHMYmNtFgRre8Q_NnkFoXl2POlzbX3UAQHxK8BeJb3ouege4-vLM9VyGxkOH1jclFpa-q6QNNwY2-yT2A8mabKuZtzgyjpkemD4lQuD5625nRik1EhCLRJ4MQNN-hEWbrr5whkH-GhSQ06Ga7legoMVIj48BH-v3YtpU0A", "width": 595}], "place_id": "ChIJfYqE3e7_0YUR3YRuiSoDuiE", "plus_code": {"compound_code": "8VWQ+PC Mexico City", "global_code": "76F28VWQ+PC"}, "rating": 3, "reference": "ChIJfYqE3e7_0YUR3YRuiSoDuiE", "types": ["laundry", "point_of_interest", "establishment"], "user_ratings_total": 2}, {"business_status": "OPERATIONAL", "formatted_address": "Calle Pirul 2, Valle del Sur, Iztapalapa, 09819 Ciudad de M\u00e9xico, CDMX", "geometry": {"location": {"lat": 19.3478863, "lng": -99.1117746}, "viewport": {"northeast": {"lat": 19.34925112989272, "lng": -99.11042057010728}, "southwest": {"lat": 19.34655147010728, "lng": -99.11312022989271}}}, "icon": "https://maps.gstatic.com/mapfiles/place_api/icons/v1/png_71/generic_business-71.png", "name": "Lavanderia Perico Azul", "opening_hours": {"open_now": true}, "place_id": "ChIJ0UgZUav_0YURZVRQRHNx2sE", "plus_code": {"compound_code": "8VXQ+57 Mexico City", "global_code": "76F28VXQ+57"}, "rating": 0, "reference": "ChIJ0UgZUav_0YURZVRQRHNx2sE", "types": ["laundry", "point_of_interest", "establishment"], "user_ratings_total": 0}, {"business_status": "OPERATIONAL", "formatted_address": "Esquina Camino A Los Reyes Manzana 20 Lote 1, 5 de Mayo, Zona Urbana Ejidal los Reyes Culhuacan, 09800 Ciudad de M\u00e9xico, CDMX", "geometry": {"location": {"lat": 19.343324, "lng": -99.10570059999999}, "viewport": {"northeast": {"lat": 19.34464807989272, "lng": -99.10435927010727}, "southwest": {"lat": 19.34194842010728, "lng": -99.10705892989272}}}, "icon": "https://maps.gstatic.com/mapfiles/place_api/icons/v1/png_71/generic_business-71.png", "name": "TINTORER\u00cdA Y LAVANDER\u00cdA \" UNIVERSAL\"", "opening_hours": {"open_now": true}, "place_id": "ChIJxdtbngH-0YURvpOHQzhZNH0", "plus_code": {"compound_code": "8VVV+8P Mexico City", "global_code": "76F28VVV+8P"}, "rating": 1, "reference": "ChIJxdtbngH-0YURvpOHQzhZNH0", "types": ["laundry", "point_of_interest", "establishment"], "user_ratings_total": 1}, {"business_status": "OPERATIONAL", "formatted_address": "Mza 46 Lt 11, Tlacatecutli, Zona Urbana Ejidal los Reyes Culhuacan, 09840 Ciudad de M\u00e9xico, CDMX", "geometry": {"location": {"lat": 19.3423982, "lng": -99.1016054}, "viewport": {"northeast": {"lat": 19.34375377989273, "lng": -99.10027897010728}, "southwest": {"lat": 19.34105412010728, "lng": -99.10297862989272}}}, "icon": "https://maps.gstatic.com/mapfiles/place_api/icons/v1/png_71/generic_business-71.png", "name": "LAVANDER\u00cdA BUSSY", "opening_hours": {"open_now": false}, "place_id": "ChIJf5tddAD-0YURzp4Yj3a0WTg", "plus_code": {"compound_code": "8VRX+X9 Mexico City", "global_code": "76F28VRX+X9"}, "rating": 0, "reference": "ChIJf5tddAD-0YURzp4Yj3a0WTg", "types": ["laundry", "point_of_interest", "establishment"], "user_ratings_total": 0}]