[{"business_status": "OPERATIONAL", "formatted_address": "Colorines, Valle del Sur, Iztapalapa, 09819 Ciudad de M\u00e9xico, CDMX", "geometry": {"location": {"lat": 19.3480647, "lng": -99.11447799999999}, "viewport": {"northeast": {"lat": 19.34937402989273, "lng": -99.11313787010728}, "southwest": {"lat": 19.34667437010728, "lng": -99.11583752989272}}}, "icon": "https://maps.gstatic.com/mapfiles/place_api/icons/v1/png_71/shopping-71.png", "name": "Vinos Y Licores \"Fama\"", "place_id": "ChIJOygnEBv-0YURrEVgrtC0pKU", "plus_code": {"compound_code": "8VXP+66 Mexico City", "global_code": "76F28VXP+66"}, "rating": 0, "reference": "ChIJOygnEBv-0YURrEVgrtC0pKU", "types": ["liquor_store", "point_of_interest", "store", "establishment"], "user_ratings_total": 0}, {"business_status": "OPERATIONAL", "formatted_address": "Av. Tlahuac 429, San Antonio Culhuacan, Iztapalapa, 09800 Ciudad de M\u00e9xico, CDMX", "geometry": {"location": {"lat": 19.3386669, "lng": -99.1091995}, "viewport": {"northeast": {"lat": 19.34001927989273, "lng": -99.10773537010728}, "southwest": {"lat": 19.33731962010728, "lng": -99.11043502989271}}}, "icon": "https://maps.gstatic.com/mapfiles/place_api/icons/v1/png_71/shopping-71.png", "name": "bodegas alianza", "opening_hours": {"open_now": true}, "photos": [{"height": 720, "html_attributions": ["<a href=\"https://maps.google.com/maps/contrib/115737807946875711119\">Ana Karen Iba\u00f1ez</a>"], "photo_reference": "CmRZAAAAwb5i0gyHF9XKwhNwSvarRGGkDYMyay_42NEFkkw8aXtyW4p79U-Wxf38-kj2JXRTFqHSdYzHjTudK-LFRlZp-6U2acrQ_xDRYwzlSYR3mWhHIsuVaai4Fgqk536g8rRwEhAp3_N3c0nVgY1mwjODklUkGhQc3zSWs355ZtiOkP0x9t-fASx_0Q", "width": 1280}], "place_id": "ChIJ_xeYpP0BzoURI0p4sS5eKCQ", "plus_code": {"compound_code": "8VQR+F8 Mexico City", "global_code": "76F28VQR+F8"}, "rating": 4.1, "reference": "ChIJ_xeYpP0BzoURI0p4sS5eKCQ", "types": ["liquor_store", "food", "point_of_interest", "store", "establishment"], "user_ratings_total": 237}, {"business_status": "OPERATIONAL", "formatted_address": "Porfirio D\u00edaz 48, San Lucas, Iztapalapa, 09000 Ciudad de M\u00e9xico, CDMX", "geometry": {"location": {"lat": 19.3577325, "lng": -99.09656369999999}, "viewport": {"northeast": {"lat": 19.35907152989272, "lng": -99.09520582010727}, "southwest": {"lat": 19.35637187010727, "lng": -99.09790547989272}}}, "icon": "https://maps.gstatic.com/mapfiles/place_api/icons/v1/png_71/shopping-71.png", "name": "Dep\u00f3sito Diablos", "opening_hours": {"open_now": false}, "photos": [{"height": 4608, "html_attributions": ["<a href=\"https://maps.google.com/maps/contrib/102512667763426738478\">David Aguilar Lara</a>"], "photo_reference": "CmRaAAAA0TiT0diQQPMWFD4rdvrX_-OUVJsp1GkAq4rVNdTZLem2P5W3hKl9eaR93i59hy4-VEQCnDn-KhurS-7pvLdtSeC3EuxnORW_ty1rXTwZXvcms9-Ri1jUOY4o-JnwjBh0EhCxYVInU-veOfUBRkDkowTLGhR6CGvvoHE4LWYF7gV-Kj-IKCjGeA", "width": 3456}], "place_id": "ChIJZ36hyo790YURyn8kWYHqOHk", "plus_code": {"compound_code": "9W53+39 Mexico City", "global_code": "76F29W53+39"}, "rating": 0, "reference": "ChIJZ36hyo790YURyn8kWYHqOHk", "types": ["liquor_store", "point_of_interest", "store", "establishment"], "user_ratings_total": 0}, {"business_status": "OPERATIONAL", "formatted_address": "Camino Cerro de la Estrella 5A, San Pablo, Iztapalapa, 09000 Ciudad de M\u00e9xico, CDMX", "geometry": {"location": {"lat": 19.3579989, "lng": -99.0902263}, "viewport": {"northeast": {"lat": 19.35933742989272, "lng": -99.08883562010728}, "southwest": {"lat": 19.35663777010728, "lng": -99.09153527989272}}}, "icon": "https://maps.gstatic.com/mapfiles/place_api/icons/v1/png_71/shopping-71.png", "name": "Expendio", "place_id": "ChIJSUeSWO_90YURN0mf5jaJizM", "plus_code": {"compound_code": "9W55+5W Mexico City", "global_code": "76F29W55+5W"}, "rating": 0, "reference": "ChIJSUeSWO_90YURN0mf5jaJizM", "types": ["liquor_store", "point_of_interest", "store", "establishment"], "user_ratings_total": 0}, {"business_status": "OPERATIONAL", "formatted_address": "Campesinos 223, Granjas Esmeralda, Iztapalapa, 09810 Ciudad de M\u00e9xico, CDMX", "geometry": {"location": {"lat": 19.3531912, "lng": -99.11400069999999}, "viewport": {"northeast": {"lat": 19.35457987989272, "lng": -99.11264687010728}, "southwest": {"lat": 19.35188022010728, "lng": -99.11534652989272}}}, "icon": "https://maps.gstatic.com/mapfiles/place_api/icons/v1/png_71/shopping-71.png", "name": "Puro Vino", "place_id": "ChIJa7boaBD-0YURtVSbm6eBLNQ", "plus_code": {"compound_code": "9V3P+79 Mexico City", "global_code": "76F29V3P+79"}, "rating": 3.5, "reference": "ChIJa7boaBD-0YURtVSbm6eBLNQ", "types": ["liquor_store", "point_of_interest", "store", "establishment"], "user_ratings_total": 2}, {"business_status": "OPERATIONAL", "formatted_address": "Por Arroyo Tlaloc, Puentetitla 117, Estrella del Sur, Iztapalapa, 09820 Ciudad de M\u00e9xico, CDMX", "geometry": {"location": {"lat": 19.3508154, "lng": -99.10056569999999}, "viewport": {"northeast": {"lat": 19.35216127989272, "lng": -99.09920477010728}, "southwest": {"lat": 19.34946162010728, "lng": -99.10190442989271}}}, "icon": "https://maps.gstatic.com/mapfiles/place_api/icons/v1/png_71/shopping-71.png", "name": "ABARROTES VINOS Y LICORES EL TREBOL", "opening_hours": {"open_now": true}, "place_id": "ChIJYxvqaP390YUR2dUhbYi0oTY", "plus_code": {"compound_code": "9V2X+8Q Mexico City", "global_code": "76F29V2X+8Q"}, "rating": 5, "reference": "ChIJYxvqaP390YUR2dUhbYi0oTY", "types": ["convenience_store", "liquor_store", "food", "point_of_interest", "store", "establishment"], "user_ratings_total": 3}, {"business_status": "OPERATIONAL", "formatted_address": "Ermita Iztapalapa 585, Granjas Esmeralda, Iztapalapa, 09810 Ciudad de M\u00e9xico, CDMX", "geometry": {"location": {"lat": 19.3554616, "lng": -99.1003241}, "viewport": {"northeast": {"lat": 19.35688922989272, "lng": -99.09896542010729}, "southwest": {"lat": 19.35418957010728, "lng": -99.10166507989274}}}, "icon": "https://maps.gstatic.com/mapfiles/place_api/icons/v1/png_71/shopping-71.png", "name": "Vinos y Licores Carrera", "place_id": "ChIJJ8_PYeL90YURv5v2wqA4z1o", "plus_code": {"compound_code": "9V4X+5V Mexico City", "global_code": "76F29V4X+5V"}, "rating": 0, "reference": "ChIJJ8_PYeL90YURv5v2wqA4z1o", "types": ["liquor_store", "food", "point_of_interest", "store", "establishment"], "user_ratings_total": 0}, {"business_status": "OPERATIONAL", "formatted_address": "Pastores, Av. Tlahuac Esq, Santa Isabel Industrial, Iztapalapa, 09820 CDMX", "geometry": {"location": {"lat": 19.3546605, "lng": -99.1057582}, "viewport": {"northeast": {"lat": 19.35601637989272, "lng": -99.10444442010727}, "southwest": {"lat": 19.35331672010728, "lng": -99.10714407989272}}}, "icon": "https://maps.gstatic.com/mapfiles/place_api/icons/v1/png_71/shopping-71.png", "name": "Bodegas alianza Xpress", "opening_hours": {"open_now": true}, "photos": [{"height": 3000, "html_attributions": ["<a href=\"https://maps.google.com/maps/contrib/108964223385391288738\">Eduardo Martinez</a>"], "photo_reference": "CmRaAAAAwkBLvXo6gUnIqwH8lmyjImCDwshE8cGv3uEcoNM9eM7sTd1fbzqC8kG0n5X58QYijFujgr1KkAVy35MEPo8DBUVrku9N_cve2keaHMAcSrd9oj21gjYO5omW24JH8EirEhABRXRBdSPAmEzmkPMmCBYYGhScrhKebjGw7gkBn0SC2-6pQyp_fQ", "width": 4000}], "place_id": "ChIJE4EE3Qj-0YURqUelrRTgEZ0", "plus_code": {"compound_code": "9V3V+VM Santa Isabel Industrial, Mexico City", "global_code": "76F29V3V+VM"}, "rating": 4.5, "reference": "ChIJE4EE3Qj-0YURqUelrRTgEZ0", "types": ["liquor_store", "food", "point_of_interest", "store", "establishment"], "user_ratings_total": 27}, {"business_status": "OPERATIONAL", "formatted_address": "R\u00edo Churubusco 1015 bodega H 90, Central de Abasto, Iztapalapa, 09040 CDMX", "geometry": {"location": {"lat": 19.3754771, "lng": -99.09140959999999}, "viewport": {"northeast": {"lat": 19.37709447989272, "lng": -99.09005107010728}, "southwest": {"lat": 19.37439482010728, "lng": -99.09275072989273}}}, "icon": "https://maps.gstatic.com/mapfiles/place_api/icons/v1/png_71/shopping-71.png", "name": "Drinks Depot", "opening_hours": {"open_now": false}, "photos": [{"height": 4032, "html_attributions": ["<a href=\"https://maps.google.com/maps/contrib/109645230937025009405\">Alejandro De los reyes</a>"], "photo_reference": "CmRaAAAAjGw94zkY1P-MIQSPeiNskTM3d-87aUnJETePzCUESCeqdOv64FY-c4RDDiHdWJQBGIjF2z5EHxx6ybsaQaFbxXFyu6OAwHH6T3d7mfLy50WZo3aShEON9TnaJQIEKbzlEhB8Iez4Mepk2Zbq7GHRwx2qGhT1OnvFFleTjv87glgngIqkKbBSjA", "width": 3024}], "place_id": "ChIJyShyK8790YURrSrX4A1q8Lk", "plus_code": {"compound_code": "9WG5+5C Mexico City", "global_code": "76F29WG5+5C"}, "rating": 4.3, "reference": "ChIJyShyK8790YURrSrX4A1q8Lk", "types": ["liquor_store", "point_of_interest", "store", "establishment"], "user_ratings_total": 81}, {"business_status": "OPERATIONAL", "formatted_address": "Calz. de Tlalpan 2531, Xotepingo, Coyoac\u00e1n, 04610 Ciudad de M\u00e9xico, CDMX", "geometry": {"location": {"lat": 19.3281699, "lng": -99.1399265}, "viewport": {"northeast": {"lat": 19.32956407989272, "lng": -99.13859032010728}, "southwest": {"lat": 19.32686442010728, "lng": -99.14128997989273}}}, "icon": "https://maps.gstatic.com/mapfiles/place_api/icons/v1/png_71/shopping-71.png", "name": "Bodegas Alianza", "opening_hours": {"open_now": true}, "photos": [{"height": 3120, "html_attributions": ["<a href=\"https://maps.google.com/maps/contrib/110062218505267071744\">A Google User</a>"], "photo_reference": "CmRaAAAAEjgaiqnarJ84smaCm6-gs641Xi2Og-xqu3k4Dt74o8KMyAImii1S_S_f3Z3H_poGn7luQ_Gt0Tcm1D-i-TEYpMjwcvw0MaY21I5mL5cE2HBBuIMOdsFv4HrZieXgt2WnEhAw4XCKcPfwbO-Kkxb-1adbGhSf5GPXBTwCebDRknrDcrkgAJgpIg", "width": 4160}], "place_id": "ChIJOWvV9dEBzoURKod5jHDndhw", "plus_code": {"compound_code": "8VH6+72 Mexico City", "global_code": "76F28VH6+72"}, "rating": 4.4, "reference": "ChIJOWvV9dEBzoURKod5jHDndhw", "types": ["liquor_store", "food", "point_of_interest", "store", "establishment"], "user_ratings_total": 491}, {"business_status": "OPERATIONAL", "formatted_address": "Canal Nacional #30, San Antonio Culhuacan, Coyoac\u00e1n, 09800 Ciudad de M\u00e9xico, CDMX", "geometry": {"location": {"lat": 19.3423711, "lng": -99.1149719}, "viewport": {"northeast": {"lat": 19.34372147989272, "lng": -99.11362082010727}, "southwest": {"lat": 19.34102182010728, "lng": -99.11632047989272}}}, "icon": "https://maps.gstatic.com/mapfiles/place_api/icons/v1/png_71/shopping-71.png", "name": "LA ESPERANZITA", "opening_hours": {"open_now": false}, "place_id": "ChIJRQp69EH_0YURRq5RwiZXhE0", "plus_code": {"compound_code": "8VRP+W2 Mexico City", "global_code": "76F28VRP+W2"}, "rating": 0, "reference": "ChIJRQp69EH_0YURRq5RwiZXhE0", "types": ["liquor_store", "point_of_interest", "store", "establishment"], "user_ratings_total": 0}, {"business_status": "OPERATIONAL", "formatted_address": "Benito Ju\u00e1rez 11BIS, San Francisco Culhuacan, San Francisco Culhuacan de San Francisco, Coyoac\u00e1n, 04260 Ciudad de M\u00e9xico, CDMX", "geometry": {"location": {"lat": 19.3368441, "lng": -99.11437079999999}, "viewport": {"northeast": {"lat": 19.33814812989272, "lng": -99.11303517010727}, "southwest": {"lat": 19.33544847010728, "lng": -99.11573482989272}}}, "icon": "https://maps.gstatic.com/mapfiles/place_api/icons/v1/png_71/shopping-71.png", "name": "Pulques \"el charro negro \"", "opening_hours": {"open_now": true}, "photos": [{"height": 1080, "html_attributions": ["<a href=\"https://maps.google.com/maps/contrib/105303752357245054489\">A Google User</a>"], "photo_reference": "CmRaAAAAIugwZUarwQg7T_5TbRsncjDwerW7JKWhGg0rnPxQ-7clYM0YepF1Fb_U77fUCER2oQcI-3Prtuwk6L9G1ahvtzPlnWPf8GjNALm8CfiOmx8uyA2531ec-qzClWBtLJz4EhCCj1guNGt6rmduivU7jFiTGhTzUfKPrk4IiCyRzp1gVbDxAS77sg", "width": 1920}], "place_id": "ChIJAfoTY6sBzoURlOBOWNDOEAo", "plus_code": {"compound_code": "8VPP+P7 Mexico City", "global_code": "76F28VPP+P7"}, "rating": 0, "reference": "ChIJAfoTY6sBzoURlOBOWNDOEAo", "types": ["liquor_store", "point_of_interest", "store", "establishment"], "user_ratings_total": 0}, {"business_status": "OPERATIONAL", "formatted_address": "Av. Juan N. \u00c1lvarez #158, Campamento 2 de Octubre, Iztacalco, 08930 Ciudad de M\u00e9xico, CDMX", "geometry": {"location": {"lat": 19.3846456, "lng": -99.11228969999999}, "viewport": {"northeast": {"lat": 19.38602647989272, "lng": -99.11093417010729}, "southwest": {"lat": 19.38332682010727, "lng": -99.11363382989272}}}, "icon": "https://maps.gstatic.com/mapfiles/place_api/icons/v1/png_71/shopping-71.png", "name": "TIENDA SIX 2 DE OCTUBRE", "opening_hours": {"open_now": true}, "place_id": "ChIJXds5K33-0YURcrT-0j1MJSM", "plus_code": {"compound_code": "9VMQ+V3 Mexico City", "global_code": "76F29VMQ+V3"}, "rating": 2.9, "reference": "ChIJXds5K33-0YURcrT-0j1MJSM", "types": ["liquor_store", "point_of_interest", "store", "establishment"], "user_ratings_total": 13}, {"business_status": "OPERATIONAL", "formatted_address": "Gonz\u00e1lez Camarena, Av Samuel Gompers esquina, Jacarandas, Iztapalapa, 09280 CDMX", "geometry": {"location": {"lat": 19.3509797, "lng": -99.0512}, "viewport": {"northeast": {"lat": 19.35229667989272, "lng": -99.04985472010728}, "southwest": {"lat": 19.34959702010728, "lng": -99.05255437989273}}}, "icon": "https://maps.gstatic.com/mapfiles/place_api/icons/v1/png_71/shopping-71.png", "name": "Dep\u00f3sito Chantal", "opening_hours": {"open_now": true}, "place_id": "ChIJIcGV23v90YUR5Fpc3_x2TE8", "plus_code": {"compound_code": "9W2X+9G Jacarandas, Mexico City", "global_code": "76F29W2X+9G"}, "rating": 0, "reference": "ChIJIcGV23v90YUR5Fpc3_x2TE8", "types": ["liquor_store", "point_of_interest", "store", "establishment"], "user_ratings_total": 0}, {"business_status": "OPERATIONAL", "formatted_address": "Av.Insurgentes 135 Esq. El Vergel, Las Pe\u00f1as, 09750 Iztapalapa, CDMX", "geometry": {"location": {"lat": 19.338606, "lng": -99.05151099999999}, "viewport": {"northeast": {"lat": 19.33993037989272, "lng": -99.05013667010729}, "southwest": {"lat": 19.33723072010728, "lng": -99.05283632989273}}}, "icon": "https://maps.gstatic.com/mapfiles/place_api/icons/v1/png_71/shopping-71.png", "name": "Vinos Y Licores \"Amy\"", "opening_hours": {"open_now": true}, "place_id": "ChIJ1WHJ4YMCzoUR26sgnir8VFo", "plus_code": {"compound_code": "8WQX+C9 Mexico City", "global_code": "76F28WQX+C9"}, "rating": 4.6, "reference": "ChIJ1WHJ4YMCzoUR26sgnir8VFo", "types": ["liquor_store", "point_of_interest", "store", "establishment"], "user_ratings_total": 9}, {"business_status": "OPERATIONAL", "formatted_address": "Calle Canarias 301, Portales Nte, Benito Ju\u00e1rez, 03300 Ciudad de M\u00e9xico, CDMX", "geometry": {"location": {"lat": 19.3700019, "lng": -99.14657}, "viewport": {"northeast": {"lat": 19.37136087989272, "lng": -99.14528187010728}, "southwest": {"lat": 19.36866122010728, "lng": -99.14798152989272}}}, "icon": "https://maps.gstatic.com/mapfiles/place_api/icons/v1/png_71/shopping-71.png", "name": "Los \u00c1ngeles", "place_id": "ChIJ5SdtO7P_0YURj801BQ0XtnI", "plus_code": {"compound_code": "9VC3+29 Mexico City", "global_code": "76F29VC3+29"}, "rating": 0, "reference": "ChIJ5SdtO7P_0YURj801BQ0XtnI", "types": ["liquor_store", "convenience_store", "grocery_or_supermarket", "food", "point_of_interest", "store", "establishment"], "user_ratings_total": 0}, {"business_status": "OPERATIONAL", "formatted_address": "Manzana Lote 4 S/N, Morelos 2, Valle de Luces, Iztapalapa, Ciudad de M\u00e9xico, CDMX", "geometry": {"location": {"lat": 19.347304, "lng": -99.10743269999999}, "viewport": {"northeast": {"lat": 19.34862727989272, "lng": -99.10605797010727}, "southwest": {"lat": 19.34592762010728, "lng": -99.10875762989271}}}, "icon": "https://maps.gstatic.com/mapfiles/place_api/icons/v1/png_71/shopping-71.png", "name": "Oasis Morelos", "photos": [{"height": 720, "html_attributions": ["<a href=\"https://maps.google.com/maps/contrib/118086831409458887319\">A Google User</a>"], "photo_reference": "CmRaAAAAaB-Ir2pedciqgbVKEfcq5o0JtmUYUzXA177VwuIMcMygQpKu3eOtTJ0igJyygWDLIeyvSLzRW-2V9KMVsR41n9q6oHebDrkgoS7dlpXPjQ4SGSIWs0JrvC4BKhaFawpAEhDX6Lhsk14afCOPeqL7vMNkGhRznJhlYvtm-qye7iRxMIyJbVssFw", "width": 1280}], "place_id": "ChIJm2lYBQT-0YURny_L08SL0cQ", "plus_code": {"compound_code": "8VWV+W2 Mexico City", "global_code": "76F28VWV+W2"}, "rating": 2, "reference": "ChIJm2lYBQT-0YURny_L08SL0cQ", "types": ["liquor_store", "point_of_interest", "store", "establishment"], "user_ratings_total": 1}, {"business_status": "OPERATIONAL", "formatted_address": "Agricultores 329, Los Cipreses, Iztapalapa, 09810 Ciudad de M\u00e9xico, CDMX", "geometry": {"location": {"lat": 19.3543775, "lng": -99.1085466}, "viewport": {"northeast": {"lat": 19.35581567989272, "lng": -99.10718867010726}, "southwest": {"lat": 19.35311602010728, "lng": -99.10988832989271}}}, "icon": "https://maps.gstatic.com/mapfiles/place_api/icons/v1/png_71/shopping-71.png", "name": "Modelorama", "opening_hours": {"open_now": true}, "photos": [{"height": 1836, "html_attributions": ["<a href=\"https://maps.google.com/maps/contrib/106865235837209484325\">EDWIN LEON</a>"], "photo_reference": "CmRZAAAA2ApdQf4ceWtmeGMeYPr7uOgSLRa589f69r2FUg2eHCXVjFCU4w5B3ibTjLDDXpMImDBilQ6Je4vLkabadUFdvEDTBRUG6jizHqkpkcOyX9hLJ9PjQiAfCWBRRUDtXkR5EhCDk5VkYqMOL892no2U_GhkGhRzlfWdz2apSvA5Xtopg3kwIdy8-A", "width": 3264}], "place_id": "ChIJo7tnGA_-0YURlqG-UMHZ2zs", "plus_code": {"compound_code": "9V3R+QH Mexico City", "global_code": "76F29V3R+QH"}, "rating": 3.7, "reference": "ChIJo7tnGA_-0YURlqG-UMHZ2zs", "types": ["liquor_store", "point_of_interest", "store", "establishment"], "user_ratings_total": 22}, {"business_status": "OPERATIONAL", "formatted_address": "Doctor Jos\u00e9 Mar\u00eda Vertiz 1271 ACC A y B, Narvarte Poniente, Benito Ju\u00e1rez, 03020 CDMX", "geometry": {"location": {"lat": 19.3755937, "lng": -99.1542429}, "viewport": {"northeast": {"lat": 19.37689492989272, "lng": -99.15286612010729}, "southwest": {"lat": 19.37419527010728, "lng": -99.15556577989273}}}, "icon": "https://maps.gstatic.com/mapfiles/place_api/icons/v1/png_71/shopping-71.png", "name": "Bodegas Alianza", "opening_hours": {"open_now": true}, "photos": [{"height": 4032, "html_attributions": ["<a href=\"https://maps.google.com/maps/contrib/111276800674140840952\">Hugo Serrano</a>"], "photo_reference": "CmRaAAAAUS98IMROe_vKuryPl8P0dsSgVxeXrIFDTF3PqAWP0zAykAEPfZgcdbJgs79aNlLVw5wqqvrCGCdAcm7RwHJVlNAYSdn1fJlK4AiO3YFrdCfgwikzy1tXCXLYfzRcMt4aEhC_k2uN6VpK0E5vWZJAReE3GhST0DD02GXAq7oR71U__BLATiSGPQ", "width": 3024}], "place_id": "ChIJiRA9sq__0YURMzwkWzJVJ9g", "plus_code": {"compound_code": "9RGW+68 Narvarte Poniente, Mexico City", "global_code": "76F29RGW+68"}, "rating": 4.3, "reference": "ChIJiRA9sq__0YURMzwkWzJVJ9g", "types": ["liquor_store", "food", "point_of_interest", "store", "establishment"], "user_ratings_total": 156}, {"business_status": "OPERATIONAL", "formatted_address": "Escuadr\u00f3n 201, 09060 Mexico City, CDMX", "geometry": {"location": {"lat": 19.3682742, "lng": -99.10964849999999}, "viewport": {"northeast": {"lat": 19.36963227989272, "lng": -99.10833772010729}, "southwest": {"lat": 19.36693262010727, "lng": -99.11103737989272}}}, "icon": "https://maps.gstatic.com/mapfiles/place_api/icons/v1/png_71/shopping-71.png", "name": "Alitas House", "place_id": "ChIJhy2tSnL-0YUREZ5MIWJl_xk", "plus_code": {"compound_code": "9V9R+84 Mexico City", "global_code": "76F29V9R+84"}, "rating": 5, "reference": "ChIJhy2tSnL-0YUREZ5MIWJl_xk", "types": ["liquor_store", "point_of_interest", "store", "establishment"], "user_ratings_total": 3}]