[{"business_status": "OPERATIONAL", "formatted_address": "Carrretera Escenica al cerro de la estrella Km 2 S/N Ampliacion Veracruzana, Parque Nacional Cerro de la Estrella, 09856 Iztapalapa, CDMX", "geometry": {"location": {"lat": 19.3481804, "lng": -99.0914754}, "viewport": {"northeast": {"lat": 19.34949492989272, "lng": -99.09021587010727}, "southwest": {"lat": 19.34679527010728, "lng": -99.09291552989272}}}, "icon": "https://maps.gstatic.com/mapfiles/place_api/icons/v1/png_71/museum-71.png", "name": "New Fire Museum", "opening_hours": {"open_now": false}, "photos": [{"height": 381, "html_attributions": ["<a href=\"https://maps.google.com/maps/contrib/114978382915770117536\">Eduardo Estrada</a>"], "photo_reference": "CmRaAAAArgs4Bq6OMp3rwqBayrnCo3mSV8ynH38osEtH7U65RFZYH0lZkIoE0hqN7eHE-osi6Zel8Qsr3TLZHWxUDrLh9dvZFdnBpOO0mq_Qa2iCm3jqsXK8hTNrY2zX1h3LYIeOEhDJeK3ChBXktC-Gn1nVxa9mGhSalrZj4YFbXBn9rGzk1Wr9AZClPA", "width": 1440}], "place_id": "ChIJXa5Vx_n90YURs_lMS6srvdQ", "plus_code": {"compound_code": "8WX5+7C Parque Nacional Cerro de la Estrella, Mexico City", "global_code": "76F28WX5+7C"}, "rating": 4.4, "reference": "ChIJXa5Vx_n90YURs_lMS6srvdQ", "types": ["tourist_attraction", "museum", "point_of_interest", "establishment"], "user_ratings_total": 1338}, {"business_status": "OPERATIONAL", "formatted_address": "Ermita Iztapalapa 100, San Pablo, Iztapalapa, 09000 Ciudad de M\u00e9xico, CDMX", "geometry": {"location": {"lat": 19.3577118, "lng": -99.0875015}, "viewport": {"northeast": {"lat": 19.35892557989272, "lng": -99.08626027010729}, "southwest": {"lat": 19.35622592010728, "lng": -99.08895992989272}}}, "icon": "https://maps.gstatic.com/mapfiles/place_api/icons/v1/png_71/museum-71.png", "name": "Museum of Cultures By Iztapalapa Passion", "opening_hours": {"open_now": true}, "photos": [{"height": 2448, "html_attributions": ["<a href=\"https://maps.google.com/maps/contrib/103414011285415466598\">Diana Saavedra</a>"], "photo_reference": "CmRaAAAAVi6GrPbRfFltFmXjsyWF-Ob0-MsEgLeTOkUs_4xWvDkyFhhkJXt-xc4jpdItaEcW7YS7zxqGO_YKIYYpXdCJ-FFFjaMpB_YOZ9cOIt2fGesGNMAkUdbH6Fk5iqpFTgQ_EhAuj760N6VwMRJB1X3vk9IcGhRBvmw7IXzhTj_Fj2u7C_jqC5PZGA", "width": 3264}], "place_id": "ChIJs2qaH-_90YURPoYyZ3ZSlxA", "plus_code": {"compound_code": "9W56+3X Mexico City", "global_code": "76F29W56+3X"}, "rating": 4.4, "reference": "ChIJs2qaH-_90YURPoYyZ3ZSlxA", "types": ["museum", "tourist_attraction", "point_of_interest", "establishment"], "user_ratings_total": 519}, {"business_status": "OPERATIONAL", "formatted_address": "Calle Tlatolcatzin 11, Zona Urbana Ejidal los Reyes Culhuacan, Iztapalapa, 09840 Ciudad de M\u00e9xico, CDMX", "geometry": {"location": {"lat": 19.345672, "lng": -99.10015620000001}, "viewport": {"northeast": {"lat": 19.34702082989272, "lng": -99.09880207010728}, "southwest": {"lat": 19.34432117010728, "lng": -99.10150172989273}}}, "icon": "https://maps.gstatic.com/mapfiles/place_api/icons/v1/png_71/museum-71.png", "name": "Black\u00c1nimaTattoo", "place_id": "ChIJ39hsiC_90YUR7OYdw5ucgQM", "plus_code": {"compound_code": "8VWX+7W Mexico City", "global_code": "76F28VWX+7W"}, "rating": 0, "reference": "ChIJ39hsiC_90YUR7OYdw5ucgQM", "types": ["museum", "point_of_interest", "establishment"], "user_ratings_total": 0}, {"business_status": "OPERATIONAL", "formatted_address": "Av. Jos\u00e9 Ma. Morelos 10, Culhuacan, Iztapalapa, 09800 Ciudad de M\u00e9xico, CDMX", "geometry": {"location": {"lat": 19.3398939, "lng": -99.10747889999999}, "viewport": {"northeast": {"lat": 19.34105552989272, "lng": -99.10645207010727}, "southwest": {"lat": 19.33835587010728, "lng": -99.10915172989272}}}, "icon": "https://maps.gstatic.com/mapfiles/place_api/icons/v1/png_71/museum-71.png", "name": "Former Convent of San Juan Evangelista Culhuac\u00e1n", "opening_hours": {"open_now": false}, "photos": [{"height": 3326, "html_attributions": ["<a href=\"https://maps.google.com/maps/contrib/116950746933876144643\">Luis Valle Alfaro</a>"], "photo_reference": "CmRaAAAAEJ-SCNQxDsM2A5oCmzUFCw-HaHv6ddmB-0UPSUL9Iik9zYdXnCLBXU1K0qRY2uwDSnG0Tl15zdOAf-5c8VjjGy6RuLCSe2XJQNlSuQbKRHjojUQF5UZKY7Atvz15kI8UEhCVNXTLa479WxH1k0CrTyzCGhTfLnHZLIKEkiQ1teBB7YoOuwwHyA", "width": 4987}], "place_id": "ChIJQ16Y7f0BzoUR1qDtZh01mUE", "plus_code": {"compound_code": "8VQV+X2 Mexico City", "global_code": "76F28VQV+X2"}, "rating": 4.4, "reference": "ChIJQ16Y7f0BzoUR1qDtZh01mUE", "types": ["museum", "tourist_attraction", "point_of_interest", "establishment"], "user_ratings_total": 1066}, {"business_status": "OPERATIONAL", "formatted_address": "1a de Libertad, San Lucas, Iztapalapa, 09000 Ciudad de M\u00e9xico, CDMX", "geometry": {"location": {"lat": 19.3584068, "lng": -99.0977923}, "viewport": {"northeast": {"lat": 19.35975842989272, "lng": -99.09647762010728}, "southwest": {"lat": 19.35705877010728, "lng": -99.09917727989273}}}, "icon": "https://maps.gstatic.com/mapfiles/place_api/icons/v1/png_71/museum-71.png", "name": "ArhurHouse", "opening_hours": {"open_now": false}, "photos": [{"height": 3264, "html_attributions": ["<a href=\"https://maps.google.com/maps/contrib/106266705193694964899\">Jose Arturo Hernandez Flores</a>"], "photo_reference": "CmRaAAAA4t74TqKWxKd8d4jlH1VlX4Epm4tPyUHwycHGg4GLsyQTDzsm3C4kp-dLVg4BUY13ydJz-A_Y6bfg1hBADiFjIIIRxnIAflkELmnFnUxPP1wIU22pbIiR0etiPLvRpi-WEhB2lmZtFpcWHzu0qtjfDZIuGhTPatsjKB8En3A3mU6-SVwVatX5eA", "width": 2448}], "place_id": "ChIJjc-02eP90YURVtu9J0nlUpo", "plus_code": {"compound_code": "9W52+9V Mexico City", "global_code": "76F29W52+9V"}, "rating": 4, "reference": "ChIJjc-02eP90YURVtu9J0nlUpo", "types": ["museum", "point_of_interest", "establishment"], "user_ratings_total": 3}, {"business_status": "OPERATIONAL", "formatted_address": "Museo 150, San Pablo Tepetlapa, Coyoac\u00e1n, 04620 Ciudad de M\u00e9xico, CDMX", "geometry": {"location": {"lat": 19.3231754, "lng": -99.1439285}, "viewport": {"northeast": {"lat": 19.32425462989272, "lng": -99.14230537010728}, "southwest": {"lat": 19.32155497010728, "lng": -99.14500502989272}}}, "icon": "https://maps.gstatic.com/mapfiles/place_api/icons/v1/png_71/museum-71.png", "name": "Museo Anahuacalli", "opening_hours": {"open_now": false}, "photos": [{"height": 784, "html_attributions": ["<a href=\"https://maps.google.com/maps/contrib/107160462899974481589\">Victor Fernando Hern\u00e1ndez Ulloa</a>"], "photo_reference": "CmRaAAAAn22GLk_stlx5RNtFAM1rAplFgoIHpbIrnZFs1aY9Z6YITgauMSSb2ZkSyqpzlFU2AZVHZkKyjDkgT1ziKkH8VvHk9NdQ5XOv3V9MZWeonJvDHG306dKHIg2AO4O3GJh3EhDVjLm1KPHWDH2-L0t2dit4GhTJJbtNBeWj_7xJfmF65pV1k15lJQ", "width": 1080}], "place_id": "ChIJE-z088wBzoURBQC1jpv8UXc", "plus_code": {"compound_code": "8VF4+7C Mexico City", "global_code": "76F28VF4+7C"}, "rating": 4.7, "reference": "ChIJE-z088wBzoURBQC1jpv8UXc", "types": ["museum", "art_gallery", "tourist_attraction", "point_of_interest", "establishment"], "user_ratings_total": 5165}, {"business_status": "OPERATIONAL", "formatted_address": "El Santuario, Iztapalapa, 09820 Mexico City", "geometry": {"location": {"lat": 19.3546431, "lng": -99.0915069}, "viewport": {"northeast": {"lat": 19.35612832989273, "lng": -99.09010102010728}, "southwest": {"lat": 19.35342867010728, "lng": -99.09280067989273}}}, "icon": "https://maps.gstatic.com/mapfiles/place_api/icons/v1/png_71/museum-71.png", "name": "Basamento construcciones antig\u00fcas", "opening_hours": {"open_now": true}, "photos": [{"height": 3456, "html_attributions": ["<a href=\"https://maps.google.com/maps/contrib/106666472507068300921\">Xiuh Mitl</a>"], "photo_reference": "CmRaAAAA69pjtZnqca8WTWF954CoKl2XlHxAoxdyvuzkLTPGw9D6pvsqJuaXGNZ68Wj_dQ3lQBwCr9xZuF5fcwcdk21YHUchIco3pE19AxGa3B4cvF_dKGL7QmpfW_WnpZc6tndoEhC74zX6lioSIAKPINNepsnvGhQDf6IGh7nzShmmvtAF3bjaWY6olg", "width": 4608}], "place_id": "ChIJQeH4auX90YUR1kUdXj4wYFc", "plus_code": {"compound_code": "9W35+V9 Mexico City", "global_code": "76F29W35+V9"}, "rating": 4.5, "reference": "ChIJQeH4auX90YUR1kUdXj4wYFc", "types": ["museum", "point_of_interest", "establishment"], "user_ratings_total": 4}, {"business_status": "OPERATIONAL", "formatted_address": "Aldama, San Pablo, Iztapalapa, 09000 Ciudad de M\u00e9xico, CDMX", "geometry": {"location": {"lat": 19.3593989, "lng": -99.0922859}, "viewport": {"northeast": {"lat": 19.36074792989272, "lng": -99.09067172010728}, "southwest": {"lat": 19.35804827010728, "lng": -99.09337137989272}}}, "icon": "https://maps.gstatic.com/mapfiles/place_api/icons/v1/png_71/museum-71.png", "name": "Archivo Hist\u00f3rico de Iztapalapa", "opening_hours": {"open_now": false}, "photos": [{"height": 3264, "html_attributions": ["<a href=\"https://maps.google.com/maps/contrib/104982787509878722662\">RAY DE LEON</a>"], "photo_reference": "CmRaAAAAfj39Srm_HSt2mVmkIhRiPzShsePPuAmjmYCiskHfqH4-J3f2EFBdFHKDBOzleKhlIGv2N0tVdUCovTS6eBFh58ZW9HqLhnH1EJjR6j9XPmBy958vsQF9XO2171ZBhyZJEhBja-8q6b2kYNScf0esgE-jGhQMgM-jMU8dx1TjXgkSoNsF_XXNcw", "width": 2448}], "place_id": "ChIJy_X78ub90YURQkThwrNFuBA", "plus_code": {"compound_code": "9W55+Q3 Mexico City", "global_code": "76F29W55+Q3"}, "rating": 4, "reference": "ChIJy_X78ub90YURQkThwrNFuBA", "types": ["museum", "point_of_interest", "establishment"], "user_ratings_total": 31}, {"business_status": "CLOSED_TEMPORARILY", "formatted_address": "20 de Agosto s/n, San Diego Churubusco, Coyoac\u00e1n, 04120 Ciudad de M\u00e9xico, CDMX", "geometry": {"location": {"lat": 19.3550024, "lng": -99.14879499999999}, "viewport": {"northeast": {"lat": 19.35628362989272, "lng": -99.14778272010729}, "southwest": {"lat": 19.35358397010728, "lng": -99.15048237989272}}}, "icon": "https://maps.gstatic.com/mapfiles/place_api/icons/v1/png_71/museum-71.png", "name": "National Museum of Interventions", "permanently_closed": true, "photos": [{"height": 3792, "html_attributions": ["<a href=\"https://maps.google.com/maps/contrib/102704828972671985097\">Santiago</a>"], "photo_reference": "CmRaAAAAdBiJDKqzYKaQ48pgLBh2YLB38Rcqo7rx3qo9FheGKPpvDgMaikZEkyIG3gQ4KQnXDZ09r399lj1xINlkPXjhVDuQxee7AUli9yH1rDTkN7p7PTjIOCg4X8_lnQ-zxKo8EhC4kXmKKVMLNPONa5tdfM9AGhSL8uwV43ckaptAhTfdE8CNfNWvZg", "width": 5056}], "place_id": "ChIJMUgTY8z_0YURQVR0mAgAZYo", "plus_code": {"compound_code": "9V42+2F Mexico City", "global_code": "76F29V42+2F"}, "rating": 4.6, "reference": "ChIJMUgTY8z_0YURQVR0mAgAZYo", "types": ["tourist_attraction", "museum", "point_of_interest", "establishment"], "user_ratings_total": 7531}, {"business_status": "OPERATIONAL", "formatted_address": "Parque Nacional Cerro de la Estrella, Iztapalapa, Mexico City, CDMX", "geometry": {"location": {"lat": 19.3477365, "lng": -99.0886656}, "viewport": {"northeast": {"lat": 19.34908632989272, "lng": -99.08731577010728}, "southwest": {"lat": 19.34638667010728, "lng": -99.09001542989273}}}, "icon": "https://maps.gstatic.com/mapfiles/place_api/icons/v1/png_71/museum-71.png", "name": "Cueva \"Humeda\" O Cueva Del \"Oso\"", "photos": [{"height": 3096, "html_attributions": ["<a href=\"https://maps.google.com/maps/contrib/104186637011015875100\">shached miranda avila</a>"], "photo_reference": "CmRaAAAAF4j7_4f3JNNBFnts6EOV6IzDjxvnzPu1KVy3dK7GezIJPJ4OpW6I2fQoxtLKJ-cvfnG8FPtNtBGCzODA9dTp3aOyhFgxQJlUeyldvqXew9Fyt41jz-VyTccLnq0FlvFmEhAkGcjfTyR8ZESx8_2_MmMKGhRs13cGVOXDz1-9eIPxI5nRmLt1aw", "width": 4128}], "place_id": "ChIJ7ThsvOn90YURyU17qzhxLec", "plus_code": {"compound_code": "8WX6+3G Mexico City", "global_code": "76F28WX6+3G"}, "rating": 0, "reference": "ChIJ7ThsvOn90YURyU17qzhxLec", "types": ["museum", "point_of_interest", "establishment"], "user_ratings_total": 0}, {"business_status": "OPERATIONAL", "formatted_address": "Av. Arneses, Colorines &, Los Reyes Culhuacan, Iztapalapa, 09819 Ciudad de M\u00e9xico, CDMX", "geometry": {"location": {"lat": 19.3474973, "lng": -99.11165349999999}, "viewport": {"northeast": {"lat": 19.34883417989272, "lng": -99.11030602010727}, "southwest": {"lat": 19.34613452010728, "lng": -99.11300567989271}}}, "icon": "https://maps.gstatic.com/mapfiles/place_api/icons/v1/png_71/museum-71.png", "name": "Centro Integral Axayacatl", "place_id": "ChIJwxhYmtn_0YURGDDokBi7Hk8", "plus_code": {"compound_code": "8VWQ+X8 Mexico City", "global_code": "76F28VWQ+X8"}, "rating": 0, "reference": "ChIJwxhYmtn_0YURGDDokBi7Hk8", "types": ["museum", "point_of_interest", "establishment"], "user_ratings_total": 0}, {"business_status": "OPERATIONAL", "formatted_address": "Camino Cerro de la Estrella 10, El Molino Iztapalapa, Iztapalapa, 09850 Ciudad de M\u00e9xico, CDMX", "geometry": {"location": {"lat": 19.3543257, "lng": -99.0903483}, "viewport": {"northeast": {"lat": 19.35570687989273, "lng": -99.08915722010728}, "southwest": {"lat": 19.35300722010728, "lng": -99.09185687989272}}}, "icon": "https://maps.gstatic.com/mapfiles/place_api/icons/v1/png_71/museum-71.png", "name": "Via Crucis, Iztapalapa", "photos": [{"height": 2268, "html_attributions": ["<a href=\"https://maps.google.com/maps/contrib/107961510344578599921\">A Google User</a>"], "photo_reference": "CmRaAAAAFzNYN42WYPo4InckBwLIfyBhUvPs4Rv4qbQNYWx8Iv5xkuseaGPPoSZIjVS8KI1ry1K_JenOpYfthnJ9lHa7yl-jDmfYpsFUG9X4xezcBu1YcEPtsQh689437z81z1rkEhAb1JmRJVN-ojwLp03fRzBxGhTuKHxd228HgbCJxwnpdFpxzu2KaQ", "width": 4032}], "place_id": "ChIJP5pxX-X90YURduCoFgav5zY", "plus_code": {"compound_code": "9W35+PV Mexico City", "global_code": "76F29W35+PV"}, "rating": 3.9, "reference": "ChIJP5pxX-X90YURduCoFgav5zY", "types": ["museum", "point_of_interest", "establishment"], "user_ratings_total": 11}, {"business_status": "OPERATIONAL", "formatted_address": "Calle Cosechas 39BIS, San Antonio Culhuacan, Iztapalapa, 09800 Ciudad de M\u00e9xico, CDMX", "geometry": {"location": {"lat": 19.3415953, "lng": -99.1135815}, "viewport": {"northeast": {"lat": 19.34294932989272, "lng": -99.11222382010727}, "southwest": {"lat": 19.34024967010728, "lng": -99.11492347989272}}}, "icon": "https://maps.gstatic.com/mapfiles/place_api/icons/v1/png_71/museum-71.png", "name": "Capilla de la Virgen de Guadalupe", "opening_hours": {"open_now": true}, "photos": [{"height": 1152, "html_attributions": ["<a href=\"https://maps.google.com/maps/contrib/102779229933386128809\">Melismas, x VvjvvcuAguilar Resendiz</a>"], "photo_reference": "CmRZAAAADLWRKu9LDjGUVFKACHup3Vjhx3z3QF_G3lY_MMdBlIULUqSqE8dEprnMqsEMldB8XAJwYQHY669uj9UCLKfU3Q27FXG4s8roAlekOAMjUoX5GmnNacYvyxdtACSYx4G4EhB5Np3w9cPgkA003ONLGjhBGhSuuMdUJ2hhCpkyfrYQf4bWfu3zqA", "width": 2048}], "place_id": "ChIJh7KCQB3-0YURzaKJMZ5uIO4", "plus_code": {"compound_code": "8VRP+JH Mexico City", "global_code": "76F28VRP+JH"}, "rating": 4.5, "reference": "ChIJh7KCQB3-0YURzaKJMZ5uIO4", "types": ["museum", "point_of_interest", "establishment"], "user_ratings_total": 18}, {"business_status": "OPERATIONAL", "formatted_address": "09800, Saturno 13, El Mirador, Iztapalapa, Ciudad de M\u00e9xico, CDMX", "geometry": {"location": {"lat": 19.3376595, "lng": -99.1022527}, "viewport": {"northeast": {"lat": 19.33900537989272, "lng": -99.10089427010728}, "southwest": {"lat": 19.33630572010728, "lng": -99.10359392989272}}}, "icon": "https://maps.gstatic.com/mapfiles/place_api/icons/v1/png_71/museum-71.png", "name": "Saturno Y Luna", "place_id": "ChIJC45Kdv8BzoUR7EywsXMenhE", "plus_code": {"compound_code": "8VQX+33 Mexico City", "global_code": "76F28VQX+33"}, "rating": 3.8, "reference": "ChIJC45Kdv8BzoUR7EywsXMenhE", "types": ["museum", "point_of_interest", "establishment"], "user_ratings_total": 14}, {"business_status": "OPERATIONAL", "formatted_address": "Londres 247, Del Carmen, Coyoac\u00e1n, 04100 Ciudad de M\u00e9xico, CDMX", "geometry": {"location": {"lat": 19.3551806, "lng": -99.1624636}, "viewport": {"northeast": {"lat": 19.35641137989272, "lng": -99.16101322010728}, "southwest": {"lat": 19.35371172010728, "lng": -99.16371287989273}}}, "icon": "https://maps.gstatic.com/mapfiles/place_api/icons/v1/png_71/museum-71.png", "name": "Frida Kahlo Museum", "opening_hours": {"open_now": false}, "photos": [{"height": 3456, "html_attributions": ["<a href=\"https://maps.google.com/maps/contrib/109578780413799450572\">Marco Correa</a>"], "photo_reference": "CmRaAAAA786pEDKu5cnCU0Ag2j53cZUjc2MBu4svL4NWxWckOQsOhI1mTyhNz36Mf0DPTy82x5UXAZzs3Wr_Ph65eSGSa5LmBX_osQXE7SlTD_rUrsNfybWKSZ94KX1RcZsgoPMXEhDQ4qRKnxCemB6z9TDX8_poGhRJSDkPOZzgEOa-zYpTZPfz9EGYBw", "width": 4608}], "place_id": "ChIJOz-6AMT_0YURofTM9_ekAWI", "plus_code": {"compound_code": "9R4Q+32 Mexico City", "global_code": "76F29R4Q+32"}, "rating": 4.5, "reference": "ChIJOz-6AMT_0YURofTM9_ekAWI", "types": ["museum", "tourist_attraction", "point_of_interest", "establishment"], "user_ratings_total": 26890}, {"business_status": "OPERATIONAL", "formatted_address": "Calz. de Tlalpan 1836, Country Club Churubusco, Coyoac\u00e1n, 04220 Ciudad de M\u00e9xico, CDMX", "geometry": {"location": {"lat": 19.3511143, "lng": -99.14508819999999}, "viewport": {"northeast": {"lat": 19.35248487989272, "lng": -99.14389707010727}, "southwest": {"lat": 19.34978522010728, "lng": -99.1465967298927}}}, "icon": "https://maps.gstatic.com/mapfiles/place_api/icons/v1/png_71/museum-71.png", "name": "MUEFA, Museo del Ej\u00e9rcito y de la Fuerza A\u00e9rea", "opening_hours": {"open_now": false}, "photos": [{"height": 1836, "html_attributions": ["<a href=\"https://maps.google.com/maps/contrib/107228837531360243164\">Luis Medittello</a>"], "photo_reference": "CmRaAAAAYFWitAwO2sGec62iSX1K84gkxXpjwC95932Aoy6rMRkI1N7lG77cKzjTPcen6r2p1eUdDpnehLOYrM84_SnHpg_u-JGQ0H6gn6XCxuTW4yO6UZB_eQtW4q_TqRGTOw1XEhBL9Zh_6_a7oE-ScDLq_dMqGhTssRTRqMVPMJhxruTkVMhVw8m4IA", "width": 3264}], "place_id": "ChIJZTMErjL-0YURBU8Dj-O1oYY", "plus_code": {"compound_code": "9V23+CX Mexico City", "global_code": "76F29V23+CX"}, "rating": 4.5, "reference": "ChIJZTMErjL-0YURBU8Dj-O1oYY", "types": ["museum", "tourist_attraction", "point_of_interest", "establishment"], "user_ratings_total": 655}, {"business_status": "OPERATIONAL", "formatted_address": "Acceso al Paradero, Los \u00c1ngeles, Iztapalapa, 09830 Ciudad de M\u00e9xico, CDMX", "geometry": {"location": {"lat": 19.3461745, "lng": -99.0661185}, "viewport": {"northeast": {"lat": 19.34752032989272, "lng": -99.06475542010728}, "southwest": {"lat": 19.34482067010728, "lng": -99.06745507989272}}}, "icon": "https://maps.gstatic.com/mapfiles/place_api/icons/v1/png_71/museum-71.png", "name": "Museo Interactivo Infantil", "photos": [{"height": 3840, "html_attributions": ["<a href=\"https://maps.google.com/maps/contrib/117344647162288322416\">Miguel \u00c1ngel Durazno Romero</a>"], "photo_reference": "CmRaAAAABR2FaQubxlJVaXhg-A6Ac6BRKGPdlYJeN4b990nVFvajIRMK5KX6Gyx3e1VRKJZqNU5IH4YViZAuN1Q_rcy8F92pzUUo3JRsVAA_Br1hZGMYYZunFjjrBjPtKt4aT4VYEhCii8HTma3fu7VgKQDZe3vzGhRRyDuvv3YNHkFmr6HQeKgq7h59Eg", "width": 2160}], "place_id": "ChIJJyFpsUT90YURDA2u3YRehR8", "plus_code": {"compound_code": "8WWM+FH Mexico City", "global_code": "76F28WWM+FH"}, "rating": 4.5, "reference": "ChIJJyFpsUT90YURDA2u3YRehR8", "types": ["museum", "point_of_interest", "establishment"], "user_ratings_total": 8}, {"business_status": "OPERATIONAL", "formatted_address": "Eje 7 Sur, Municipio Libre, San Andr\u00e9s Tetepilco, 09440 Ciudad de M\u00e9xico", "geometry": {"location": {"lat": 19.3668144, "lng": -99.1334007}, "viewport": {"northeast": {"lat": 19.36807827989272, "lng": -99.13206272010727}, "southwest": {"lat": 19.36537862010728, "lng": -99.13476237989272}}}, "icon": "https://maps.gstatic.com/mapfiles/place_api/icons/v1/png_71/museum-71.png", "name": "Museo del Sistema de Transportes El\u00e9ctricos", "opening_hours": {"open_now": false}, "photos": [{"height": 2988, "html_attributions": ["<a href=\"https://maps.google.com/maps/contrib/111190448409523042622\">Francisco Xavier Lavin Soto</a>"], "photo_reference": "CmRaAAAAcLQEnpsR09Yj1nnmdIAtQH8p1MWjXzXDHAycew5sZqbi2WJfrV0QCPPC3b-if_tfVQgcsd4wEgUKldtkp0DH1mxzGhgSVo5bR1Q4w85EiMOCDczfM5N_f-O802yxsHGlEhBfPCEQLX99xt_XWCZyR5JuGhSScU_JfAysBHd66fQhp24QWEGKsA", "width": 5312}], "place_id": "ChIJcyHgF0b-0YURNvIjEXzHFHQ", "plus_code": {"compound_code": "9V88+PJ Mexico City", "global_code": "76F29V88+PJ"}, "rating": 4.4, "reference": "ChIJcyHgF0b-0YURNvIjEXzHFHQ", "types": ["museum", "tourist_attraction", "point_of_interest", "establishment"], "user_ratings_total": 277}, {"business_status": "OPERATIONAL", "formatted_address": "Av. R\u00edo Churubusco 410, Del Carmen, Coyoac\u00e1n, 04100 Ciudad de M\u00e9xico, CDMX", "geometry": {"location": {"lat": 19.3576107, "lng": -99.15932459999999}, "viewport": {"northeast": {"lat": 19.35907987989272, "lng": -99.15814297010728}, "southwest": {"lat": 19.35638022010728, "lng": -99.16084262989273}}}, "icon": "https://maps.gstatic.com/mapfiles/place_api/icons/v1/png_71/museum-71.png", "name": "Museo Casa de Le\u00f3n Trotsky", "opening_hours": {"open_now": false}, "photos": [{"height": 3024, "html_attributions": ["<a href=\"https://maps.google.com/maps/contrib/111047461072158788623\">Misael Moreno</a>"], "photo_reference": "CmRaAAAA-Ic9NwUGZEVwSJmRKQLtDLk-rSH1Ht3bcie-mupxlutknJv2ZcLIF_8FirUFA60I1ffS2Qu-1nnne723UU6cu6my1p9mVpr2pM_6hQ6kWI0XTHule0kTw7w-1bCVThfoEhC0B228pCKke7mBsrcRhl9tGhTKFsHQrcwNMtnVVD1g2y7d-uL7oQ", "width": 3024}], "place_id": "ChIJGejuV8b_0YUR8n8674zMxRA", "plus_code": {"compound_code": "9R5R+27 Mexico City", "global_code": "76F29R5R+27"}, "rating": 4.5, "reference": "ChIJGejuV8b_0YUR8n8674zMxRA", "types": ["museum", "tourist_attraction", "point_of_interest", "establishment"], "user_ratings_total": 4769}, {"business_status": "OPERATIONAL", "formatted_address": "Xotepingo, Coyoac\u00e1n, 04610 Mexico City", "geometry": {"location": {"lat": 19.3242108, "lng": -99.13869079999999}, "viewport": {"northeast": {"lat": 19.32550892989272, "lng": -99.13741012010728}, "southwest": {"lat": 19.32280927010727, "lng": -99.14010977989273}}}, "icon": "https://maps.gstatic.com/mapfiles/place_api/icons/v1/png_71/museum-71.png", "name": "PUNTA MUSEO", "place_id": "ChIJoQp4D5QBzoUR63p0aIWyEXY", "plus_code": {"compound_code": "8VF6+MG Mexico City", "global_code": "76F28VF6+MG"}, "rating": 3, "reference": "ChIJoQp4D5QBzoUR63p0aIWyEXY", "types": ["museum", "point_of_interest", "establishment"], "user_ratings_total": 1}]