[{"business_status": "OPERATIONAL", "geometry": {"location": {"lat": 19.3542046, "lng": -99.10456219999999}, "viewport": {"northeast": {"lat": 19.3556094302915, "lng": -99.10320301970849}, "southwest": {"lat": 19.35291146970849, "lng": -99.1059009802915}}}, "icon": "https://maps.gstatic.com/mapfiles/place_api/icons/v1/png_71/pharmacy-71.png", "name": "Ideal S.A. de C.V.", "place_id": "ChIJ9xC98Qj-0YURopYjyKeyIUs", "plus_code": {"compound_code": "9V3W+M5 Mexico City, CDMX, Mexico", "global_code": "76F29V3W+M5"}, "reference": "ChIJ9xC98Qj-0YURopYjyKeyIUs", "scope": "GOOGLE", "types": ["pharmacy", "health", "point_of_interest", "store", "establishment"], "vicinity": "Pastores 39, Santa Isabel Industrial, Ciudad de M\u00e9xico"}, {"business_status": "OPERATIONAL", "geometry": {"location": {"lat": 19.3490297, "lng": -99.1008615}, "viewport": {"northeast": {"lat": 19.3503651302915, "lng": -99.09947971970848}, "southwest": {"lat": 19.34766716970849, "lng": -99.1021776802915}}}, "icon": "https://maps.gstatic.com/mapfiles/place_api/icons/v1/png_71/pharmacy-71.png", "name": "FARMACIA IDEAL", "opening_hours": {"open_now": true}, "place_id": "ChIJmU-Yhf390YURihTPPW2M5kk", "plus_code": {"compound_code": "8VXX+JM Mexico City, CDMX, Mexico", "global_code": "76F28VXX+JM"}, "reference": "ChIJmU-Yhf390YURihTPPW2M5kk", "scope": "GOOGLE", "types": ["pharmacy", "health", "point_of_interest", "store", "establishment"], "vicinity": "Mz 32 Lt 2, Netzahualpilli, Estrella del Sur, Ciudad de M\u00e9xico"}, {"business_status": "OPERATIONAL", "geometry": {"location": {"lat": 19.347457, "lng": -99.10335900000001}, "viewport": {"northeast": {"lat": 19.3488138302915, "lng": -99.1020424697085}, "southwest": {"lat": 19.34611586970849, "lng": -99.1047404302915}}}, "icon": "https://maps.gstatic.com/mapfiles/place_api/icons/v1/png_71/pharmacy-71.png", "name": "Farmcia el Angel", "opening_hours": {"open_now": true}, "place_id": "ChIJ6RHSOgf-0YURdPeB80-rlyE", "plus_code": {"compound_code": "8VWW+XM Mexico City, CDMX, Mexico", "global_code": "76F28VWW+XM"}, "rating": 5, "reference": "ChIJ6RHSOgf-0YURdPeB80-rlyE", "scope": "GOOGLE", "types": ["pharmacy", "health", "point_of_interest", "store", "establishment"], "user_ratings_total": 1, "vicinity": "Axayacatl MZ 21 Lt 3, Los Reyes Culhuacan, Iztapalapa"}, {"business_status": "OPERATIONAL", "geometry": {"location": {"lat": 19.3521674, "lng": -99.10274319999999}, "viewport": {"northeast": {"lat": 19.3535485802915, "lng": -99.10149936970849}, "southwest": {"lat": 19.3508506197085, "lng": -99.10419733029151}}}, "icon": "https://maps.gstatic.com/mapfiles/place_api/icons/v1/png_71/pharmacy-71.png", "name": "Laboratorios Novag", "place_id": "ChIJt6kf3gf-0YURaOD8Ta5mLNg", "plus_code": {"compound_code": "9V2W+VW Mexico City, CDMX, Mexico", "global_code": "76F29V2W+VW"}, "reference": "ChIJt6kf3gf-0YURaOD8Ta5mLNg", "scope": "GOOGLE", "types": ["pharmacy", "health", "point_of_interest", "store", "establishment"], "vicinity": "cam, Camino Antiguo a Culhuacan 120, Estrella del Sur, Ciudad de M\u00e9xico"}]