[{"business_status": "OPERATIONAL", "formatted_address": "T.Fausto Vega 502 Local C, Escuadr\u00f3n 201, 09060 Iztapalapa, CDMX", "geometry": {"location": {"lat": 19.3632193, "lng": -99.11241729999999}, "viewport": {"northeast": {"lat": 19.36452827989272, "lng": -99.11107652010728}, "southwest": {"lat": 19.36182862010728, "lng": -99.11377617989272}}}, "icon": "https://maps.gstatic.com/mapfiles/place_api/icons/v1/png_71/generic_business-71.png", "name": "Fisioterapeuta Dr.Victor Gonzales D\u00edaz", "opening_hours": {"open_now": true}, "place_id": "ChIJLezVqRL-0YURtI6ZVOhPVPA", "plus_code": {"compound_code": "9V7Q+72 Mexico City", "global_code": "76F29V7Q+72"}, "rating": 5, "reference": "ChIJLezVqRL-0YURtI6ZVOhPVPA", "types": ["physiotherapist", "health", "point_of_interest", "establishment"], "user_ratings_total": 1}, {"business_status": "OPERATIONAL", "formatted_address": "Av. Adolfo L\u00f3pez Mateos numero 134, Metropolitana primera secci\u00f3n, 57730 Nezahualc\u00f3yotl, M\u00e9x.", "geometry": {"location": {"lat": 19.3964402, "lng": -99.0311208}, "viewport": {"northeast": {"lat": 19.39779282989272, "lng": -99.02974637010728}, "southwest": {"lat": 19.39509317010728, "lng": -99.03244602989272}}}, "icon": "https://maps.gstatic.com/mapfiles/place_api/icons/v1/png_71/generic_business-71.png", "name": "Fisioterapia MPFisio", "photos": [{"height": 503, "html_attributions": ["<a href=\"https://maps.google.com/maps/contrib/112903964394428100221\">A Google User</a>"], "photo_reference": "CmRaAAAAO3EgITcsKMAOVvyDf6XM_TcKmN56yHGxbJWVLRUN4utbg4JH8FfYHtjAFA6nsnSRPtpibwIhivUqHsTLltFUZvem3id8kvPzTAwCyiA0-CYRy-D5ZF2zQCAu1Ne48IMTEhA0cwPWaPSiYFxZzXuiwVO9GhQoaN3jcTY8xB2ozw_UheZXvb2PHw", "width": 897}], "place_id": "ChIJ6dUZNR_90YUR8e8BvfsVe68", "plus_code": {"compound_code": "9XW9+HH Ciudad Nezahualc\u00f3yotl, State of Mexico", "global_code": "76F29XW9+HH"}, "rating": 4.8, "reference": "ChIJ6dUZNR_90YUR8e8BvfsVe68", "types": ["physiotherapist", "health", "point_of_interest", "establishment"], "user_ratings_total": 41}, {"business_status": "OPERATIONAL", "formatted_address": "rea 25, Manzana lt9, Sideral, Iztapalapa, 09320 Ciudad de M\u00e9xico, CDMX", "geometry": {"location": {"lat": 19.3735469, "lng": -99.0664783}, "viewport": {"northeast": {"lat": 19.37497977989272, "lng": -99.06509177010729}, "southwest": {"lat": 19.37228012010728, "lng": -99.06779142989272}}}, "icon": "https://maps.gstatic.com/mapfiles/place_api/icons/v1/png_71/generic_business-71.png", "name": "Fisiopuntura CDMX", "opening_hours": {"open_now": false}, "photos": [{"height": 339, "html_attributions": ["<a href=\"https://maps.google.com/maps/contrib/111198268834736348864\">A Google User</a>"], "photo_reference": "CmRaAAAAtAa12tkxTnq9eq5hYlAWxf8RggxL3ZNzdma3Ns_3cy9hj8RyMGuvYczzn7WeqXe28WfHNk3NUzdASLE6iZHMYFavsk8K-GJ6Xod9HfIguOhIZrnGoRc84Gz5riV3CkuwEhBdq4PTT1KT-LU-mGkGUPH_GhTHA6Pdlc9TUzwplfHW2qhiuOmCjQ", "width": 498}], "place_id": "ChIJdQWznYX90YURo64MyLQS8Ao", "plus_code": {"compound_code": "9WFM+CC Mexico City", "global_code": "76F29WFM+CC"}, "rating": 5, "reference": "ChIJdQWznYX90YURo64MyLQS8Ao", "types": ["physiotherapist", "health", "point_of_interest", "establishment"], "user_ratings_total": 1}, {"business_status": "OPERATIONAL", "formatted_address": "Laboristas 52 consultorio 4 primer piso San Andr\u00e9s de tetepilco CP 09440, 09440 CDMX", "geometry": {"location": {"lat": 19.3760681, "lng": -99.13166509999999}, "viewport": {"northeast": {"lat": 19.37741937989272, "lng": -99.13032082010729}, "southwest": {"lat": 19.37471972010728, "lng": -99.13302047989272}}}, "icon": "https://maps.gstatic.com/mapfiles/place_api/icons/v1/png_71/generic_business-71.png", "name": "FISYAG FISIOTERAPIA Y REHABILITACI\u00d3N", "opening_hours": {"open_now": false}, "photos": [{"height": 3024, "html_attributions": ["<a href=\"https://maps.google.com/maps/contrib/117844374357986556212\">A Google User</a>"], "photo_reference": "CmRaAAAApeVeYkImYmKnQILAXs3nPaUPluLxLZS0gGy0FD4TFsYMDkaJg5s5A71lt9CICQWUjR9Q0BgKcuXOhOevGR3tej1rYNRpWf3JM05bZfIi5svwJ0WvqyYq3KPWkddBbDgiEhDjWOJg_0xVg8lHMjHjsalCGhT3ZAn3V1ldHbnFXlGEirT8ArSH5A", "width": 4032}], "place_id": "ChIJu_LdHzf_0YUR0SnAYcX_zwY", "plus_code": {"compound_code": "9VG9+C8 Mexico City", "global_code": "76F29VG9+C8"}, "rating": 5, "reference": "ChIJu_LdHzf_0YUR0SnAYcX_zwY", "types": ["physiotherapist", "health", "point_of_interest", "establishment"], "user_ratings_total": 6}, {"business_status": "OPERATIONAL", "formatted_address": "Cedro #24, El Manto, Iztapalapa, 09830 Ciudad de M\u00e9xico, CDMX", "geometry": {"location": {"lat": 19.3511372, "lng": -99.0831221}, "viewport": {"northeast": {"lat": 19.35248702989272, "lng": -99.0817722701073}, "southwest": {"lat": 19.34978737010728, "lng": -99.08447192989273}}}, "icon": "https://maps.gstatic.com/mapfiles/place_api/icons/v1/png_71/generic_business-71.png", "name": "Consultorio Reyes Fisioterapia y Rehabilitaci\u00f3n", "opening_hours": {"open_now": false}, "photos": [{"height": 1080, "html_attributions": ["<a href=\"https://maps.google.com/maps/contrib/111355861126134565198\">A Google User</a>"], "photo_reference": "CmRaAAAAu8Rd_Utf_PLuBGLCXsxM9itxFFDuPj9lOSvDy8hWFyAmSVewTMa-P_bdTUhhqrvpH3nfJK5tKRhL5tGAijvExXzXN2FmT5DpiVban4Vsb8hxaVwxpcJJiJwshhh4SL_aEhCH1GUSSy2BgyjcU6fvT5ZZGhTpVVKwpCQFtc9qJg1hfp92Br0uGw", "width": 1080}], "place_id": "ChIJPYMM5lf90YURAY07yqpUHSE", "plus_code": {"compound_code": "9W28+FQ Mexico City", "global_code": "76F29W28+FQ"}, "rating": 0, "reference": "ChIJPYMM5lf90YURAY07yqpUHSE", "types": ["physiotherapist", "health", "point_of_interest", "establishment"], "user_ratings_total": 0}, {"business_status": "OPERATIONAL", "formatted_address": "Paseo de Las Galias 32, Lomas Estrella 2da Secc, Iztapalapa, 09890 Ciudad de M\u00e9xico, CDMX", "geometry": {"location": {"lat": 19.3212858, "lng": -99.0969276}, "viewport": {"northeast": {"lat": 19.32264622989272, "lng": -99.09564227010728}, "southwest": {"lat": 19.31994657010728, "lng": -99.09834192989273}}}, "icon": "https://maps.gstatic.com/mapfiles/place_api/icons/v1/png_71/generic_business-71.png", "name": "HomeOstasis Fisioterapia", "opening_hours": {"open_now": false}, "photos": [{"height": 3216, "html_attributions": ["<a href=\"https://maps.google.com/maps/contrib/105786819366097682730\">Axel Hernandez</a>"], "photo_reference": "CmRaAAAAS8LkOD84jtpant4EUEVEiGxxocW_Xbm815TkLg5DpvIfY3goK0qHE-HQrIZ_rsUREejl5q2nMTv0bqUL3PLNdQrmMGdsQMTShLhGMo8wBrAXjcIYh4BPL-0eD5JwshiHEhAMbb9lv9S00TJSzAaiXibrGhR9pKbs4YabSB3kKHXRTawiys2xvQ", "width": 4288}], "place_id": "ChIJidWLqcMDzoURNuR9Jjb431M", "plus_code": {"compound_code": "8WC3+G6 Mexico City", "global_code": "76F28WC3+G6"}, "rating": 5, "reference": "ChIJidWLqcMDzoURNuR9Jjb431M", "types": ["physiotherapist", "health", "point_of_interest", "establishment"], "user_ratings_total": 4}, {"business_status": "OPERATIONAL", "formatted_address": "Primer Callej\u00f3n de Gral. Anaya 17 col, Sta B\u00e1rbara, Iztapalapa, 09000 Ciudad de M\u00e9xico, CDMX", "geometry": {"location": {"lat": 19.3574175, "lng": -99.1022033}, "viewport": {"northeast": {"lat": 19.35869637989272, "lng": -99.10087252010729}, "southwest": {"lat": 19.35599672010727, "lng": -99.10357217989272}}}, "icon": "https://maps.gstatic.com/mapfiles/place_api/icons/v1/png_71/generic_business-71.png", "name": "Jazm\u00edn Clinc", "opening_hours": {"open_now": false}, "photos": [{"height": 2736, "html_attributions": ["<a href=\"https://maps.google.com/maps/contrib/110438979488070964211\">A Google User</a>"], "photo_reference": "CmRaAAAAwHBbEZYyhjm70HFJ4THP3FuasAv53IsleOYlngecg6_FuHpGmVRFBiLw2AGdstiUkuvkq-qGqrpOnOK6KOO2L7bLCK4WHugnlgaEW8wl5nlPIFxKLqWZnbzq0XwEwSAbEhBpHYivef431mv8YOcbVP5bGhQZaQNqmO1fhxo6PCYeQSkOD8BkTQ", "width": 3648}], "place_id": "ChIJWUjgeOL_0YURgmiC_RoClDc", "plus_code": {"compound_code": "9V4X+X4 Mexico City", "global_code": "76F29V4X+X4"}, "rating": 5, "reference": "ChIJWUjgeOL_0YURgmiC_RoClDc", "types": ["physiotherapist", "health", "point_of_interest", "establishment"], "user_ratings_total": 2}, {"business_status": "OPERATIONAL", "formatted_address": "Av Pac\u00edfico 482, Cd Jard\u00edn, Coyoac\u00e1n, 04370 Ciudad de M\u00e9xico, CDMX", "geometry": {"location": {"lat": 19.3345249, "lng": -99.1469994}, "viewport": {"northeast": {"lat": 19.33584947989272, "lng": -99.14567877010728}, "southwest": {"lat": 19.33314982010728, "lng": -99.14837842989273}}}, "icon": "https://maps.gstatic.com/mapfiles/place_api/icons/v1/png_71/generic_business-71.png", "name": "FISIOTERAPEUTA", "opening_hours": {"open_now": false}, "place_id": "ChIJEbUXFisAzoURJ3j2_CQjk08", "plus_code": {"compound_code": "8VM3+R6 Mexico City", "global_code": "76F28VM3+R6"}, "rating": 4, "reference": "ChIJEbUXFisAzoURJ3j2_CQjk08", "types": ["physiotherapist", "health", "point_of_interest", "establishment"], "user_ratings_total": 1}, {"business_status": "OPERATIONAL", "formatted_address": "Av. Erasmo Castellanos Quinto 209, Educaci\u00f3n, Coyoac\u00e1n, 04400 Ciudad de M\u00e9xico, CDMX", "geometry": {"location": {"lat": 19.3333825, "lng": -99.1341461}, "viewport": {"northeast": {"lat": 19.33483167989272, "lng": -99.13277952010726}, "southwest": {"lat": 19.33213202010728, "lng": -99.13547917989271}}}, "icon": "https://maps.gstatic.com/mapfiles/place_api/icons/v1/png_71/generic_business-71.png", "name": "Lesiones Deportivas Fisoterapeuta\"Arqueios\" Coyoacan, Ciudad de M\u00e8xico", "opening_hours": {"open_now": false}, "photos": [{"height": 360, "html_attributions": ["<a href=\"https://maps.google.com/maps/contrib/111122145414547859882\">A Google User</a>"], "photo_reference": "CmRaAAAAkuYvY3gYzN4ok8sVyCXaDBE_Ioxcb1i0FwajCrrcRSw9bio-4cEofZhGq_AvcmtaFYVxdYyKQQe6gUWbkBgW-XwE_8sudEH1EVaOPIqKk3MKaE6JCR6QcaTWfXiEhwH8EhAMR8jC-SdPZG0C93okks15GhSVmFycKm8XSAE-63EGEGh1tZv8kA", "width": 480}], "place_id": "ChIJuVo9bNABzoUR6yl86GWJyxI", "plus_code": {"compound_code": "8VM8+98 Mexico City", "global_code": "76F28VM8+98"}, "rating": 0, "reference": "ChIJuVo9bNABzoUR6yl86GWJyxI", "types": ["physiotherapist", "health", "point_of_interest", "establishment"], "user_ratings_total": 0}, {"business_status": "OPERATIONAL", "formatted_address": "Porto Alegre 305, San Andr\u00e9s Tetepilco, Iztapalapa, 09440 Ciudad de M\u00e9xico, CDMX", "geometry": {"location": {"lat": 19.374255, "lng": -99.12751879999999}, "viewport": {"northeast": {"lat": 19.37560482989272, "lng": -99.12616897010727}, "southwest": {"lat": 19.37290517010728, "lng": -99.12886862989272}}}, "icon": "https://maps.gstatic.com/mapfiles/place_api/icons/v1/png_71/generic_business-71.png", "name": "Cl\u00ednica de Fisioterapia y Rehabilitaci\u00f3n", "opening_hours": {"open_now": false}, "photos": [{"height": 4032, "html_attributions": ["<a href=\"https://maps.google.com/maps/contrib/103465749229116650709\">Mam Km</a>"], "photo_reference": "CmRaAAAA_PTdOKmkm-v-189qopGkbqjacgMdn17xGJw10FDJuYAIEw5P-rkwjqhCb_l1YPnwkSKKHaJf9e1yKSBdoyCFeDykWTHH-C2VoSHDO7Q89sFxDF2CrVT9ZwVUL0L63rCBEhAL_Eu5uAm0fdz3weMmhUeTGhQPox65i9haQBnf-tX6Fh2PkCBa8g", "width": 3024}], "place_id": "ChIJKyKF-dv_0YURSdyCNuXp1l8", "plus_code": {"compound_code": "9VFC+PX San Andr\u00e9s Tetepilco, Mexico City", "global_code": "76F29VFC+PX"}, "rating": 0, "reference": "ChIJKyKF-dv_0YURSdyCNuXp1l8", "types": ["physiotherapist", "health", "point_of_interest", "establishment"], "user_ratings_total": 0}, {"business_status": "OPERATIONAL", "formatted_address": "Manuel Gamio 650, Sinatel, Iztapalapa, 09470 Ciudad de M\u00e9xico, CDMX", "geometry": {"location": {"lat": 19.3609288, "lng": -99.13057060000001}, "viewport": {"northeast": {"lat": 19.36224662989272, "lng": -99.12922487010728}, "southwest": {"lat": 19.35954697010727, "lng": -99.13192452989271}}}, "icon": "https://maps.gstatic.com/mapfiles/place_api/icons/v1/png_71/generic_business-71.png", "name": "Enrique Muro terapia f\u00edsica y quiropr\u00e1ctica", "opening_hours": {"open_now": false}, "photos": [{"height": 410, "html_attributions": ["<a href=\"https://maps.google.com/maps/contrib/111409721963989131078\">A Google User</a>"], "photo_reference": "CmRaAAAA4AfFHOTXT3SaZSXpRZd08ej_MCr_4SzySAXkgdmkZtkgyVt31u7tdPsNBLKjRJm0D3pTLZOLyak6DjeKL9yMWIRD_JVqpgwIDMPOJiZfyAwqbZpIkJR8V1R_pds9kj8rEhD2WdiBhBWFf-8EcMmImycPGhQJvI8J7wSwleti5wbYzDHEV30nTA", "width": 709}], "place_id": "ChIJcxIT7sX_0YURKcfTP1jeXGs", "plus_code": {"compound_code": "9V69+9Q Mexico City", "global_code": "76F29V69+9Q"}, "rating": 0, "reference": "ChIJcxIT7sX_0YURKcfTP1jeXGs", "types": ["physiotherapist", "health", "point_of_interest", "establishment"], "user_ratings_total": 0}, {"business_status": "OPERATIONAL", "formatted_address": "Avenida Santa Ana 222, Ex-Ejido de San Francisco Culhuacan, Coyoac\u00e1n, 04420 Ciudad de M\u00e9xico, CDMX", "geometry": {"location": {"lat": 19.3298095, "lng": -99.12821410000001}, "viewport": {"northeast": {"lat": 19.33110452989272, "lng": -99.12686652010728}, "southwest": {"lat": 19.32840487010728, "lng": -99.12956617989272}}}, "icon": "https://maps.gstatic.com/mapfiles/place_api/icons/v1/png_71/generic_business-71.png", "name": "Lic. Maria Violeta Lara Nochebuena, Fisioterapeuta", "photos": [{"height": 530, "html_attributions": ["<a href=\"https://maps.google.com/maps/contrib/115176946914201306723\">A Google User</a>"], "photo_reference": "CmRaAAAAg7ssBYOFOvWCMV09xGDN0Kg_Ki80nVBfkhEjUkN7BWfstVIfcBHM1MFJBW2mK3ZgCekyT8TOlDG2Z78Y58_YkUa_d0M_pUdBzoimwgiiHrrNz-IU8HJjluzl0CkJ2NUaEhDgGAqy91uJB-pqBjBOzdFJGhTTk0MYVsfM4KMUy50ZmSPvo6ohbA", "width": 353}], "place_id": "ChIJi_fPCAIBzoURYoJQ-ODHUso", "plus_code": {"compound_code": "8VHC+WP Mexico City", "global_code": "76F28VHC+WP"}, "rating": 0, "reference": "ChIJi_fPCAIBzoURYoJQ-ODHUso", "types": ["physiotherapist", "health", "point_of_interest", "establishment"], "user_ratings_total": 0}, {"business_status": "OPERATIONAL", "formatted_address": "Reto\u00f1o 818, El Reto\u00f1o, Iztapalapa, 09440 Ciudad de M\u00e9xico, CDMX", "geometry": {"location": {"lat": 19.3724554, "lng": -99.12467}, "viewport": {"northeast": {"lat": 19.37380522989272, "lng": -99.12332017010728}, "southwest": {"lat": 19.37110557010728, "lng": -99.12601982989271}}}, "icon": "https://maps.gstatic.com/mapfiles/place_api/icons/v1/png_71/generic_business-71.png", "name": "Fisiovida", "place_id": "ChIJq6l2uOT_0YURuGznoRJyaf4", "plus_code": {"compound_code": "9VCG+X4 Mexico City", "global_code": "76F29VCG+X4"}, "rating": 0, "reference": "ChIJq6l2uOT_0YURuGznoRJyaf4", "types": ["physiotherapist", "health", "point_of_interest", "establishment"], "user_ratings_total": 0}, {"business_status": "OPERATIONAL", "formatted_address": "Calle C Manzana VI 11, Educaci\u00f3n, Coyoac\u00e1n, 04400 Ciudad de M\u00e9xico, CDMX", "geometry": {"location": {"lat": 19.3368434, "lng": -99.1309699}, "viewport": {"northeast": {"lat": 19.33819112989272, "lng": -99.12960987010727}, "southwest": {"lat": 19.33549147010728, "lng": -99.13230952989271}}}, "icon": "https://maps.gstatic.com/mapfiles/place_api/icons/v1/png_71/generic_business-71.png", "name": "Fisioterapia Oriental Yorokobi", "opening_hours": {"open_now": true}, "photos": [{"height": 4160, "html_attributions": ["<a href=\"https://maps.google.com/maps/contrib/111839386166160245033\">Xico Dasilva</a>"], "photo_reference": "CmRaAAAA7ndqhiocbbt0pbv_Nz5UY_PPHc3ehKuCYn9Jop4NylwH_qwH_XgbMkHyOkvPxUUdhAUmvR1PCOfmpbBdONtX7TYr8Qp4iMBLYL6nedHwnv0M_ddOlm_nhR7k-TLbg7dQEhCqh1qMCXjKCv_bdldf2fUMGhS4BfUqeSvEJnULk1fz5wg38o8A2Q", "width": 3120}], "place_id": "ChIJGVLpGp0BzoUR8jJFpaRPM0g", "plus_code": {"compound_code": "8VP9+PJ Mexico City", "global_code": "76F28VP9+PJ"}, "rating": 4.8, "reference": "ChIJGVLpGp0BzoUR8jJFpaRPM0g", "types": ["physiotherapist", "health", "point_of_interest", "establishment"], "user_ratings_total": 16}, {"business_status": "OPERATIONAL", "formatted_address": "Seris 65, Culhuacan CTM V, Coyoac\u00e1n, 04480 Ciudad de M\u00e9xico, CDMX", "geometry": {"location": {"lat": 19.3321557, "lng": -99.1184447}, "viewport": {"northeast": {"lat": 19.33351287989272, "lng": -99.11717547010727}, "southwest": {"lat": 19.33081322010728, "lng": -99.11987512989272}}}, "icon": "https://maps.gstatic.com/mapfiles/place_api/icons/v1/png_71/generic_business-71.png", "name": "Juan Carlos Reyna: Fisioterapia", "opening_hours": {"open_now": false}, "photos": [{"height": 809, "html_attributions": ["<a href=\"https://maps.google.com/maps/contrib/107248497802705300864\">A Google User</a>"], "photo_reference": "CmRaAAAAfh_Zob5KfManpklJodaITbUcAfrfjJmHG-ixLE4OrAM2z6CXUeaxtFqYbVhWfXIuD0MqilZPKPEAYcXUim-wbdUkurOx8jqMXzMOZNNbxSMAAWumEJ_XqfNBg38eWy9kEhCkAQuySrX_GNJ1PpjxNTOBGhQLnjrPv2WG4_8Ow-l0LK3fHctEPg", "width": 1440}], "place_id": "ChIJK5qXZw0BzoURUWMUlktYdBk", "plus_code": {"compound_code": "8VJJ+VJ Mexico City", "global_code": "76F28VJJ+VJ"}, "rating": 5, "reference": "ChIJK5qXZw0BzoURUWMUlktYdBk", "types": ["physiotherapist", "health", "point_of_interest", "establishment"], "user_ratings_total": 3}, {"business_status": "OPERATIONAL", "formatted_address": "Av. Carlota Armero 1000, Coapa, Culhuacan CTM IX A, Coyoac\u00e1n, 04480 Ciudad de M\u00e9xico, CDMX", "geometry": {"location": {"lat": 19.3249088, "lng": -99.1137216}, "viewport": {"northeast": {"lat": 19.32626287989272, "lng": -99.11242807010727}, "southwest": {"lat": 19.32356322010728, "lng": -99.11512772989272}}}, "icon": "https://maps.gstatic.com/mapfiles/place_api/icons/v1/png_71/generic_business-71.png", "name": "Centro Quirofisico Raul Rodriguez", "photos": [{"height": 3024, "html_attributions": ["<a href=\"https://maps.google.com/maps/contrib/101143488973439626626\">paola galicia</a>"], "photo_reference": "CmRaAAAA-KQkNh3qdiwmvpscHtCbzypxr_VR-z3hQ4RZDW215iq5GlqKuuPEYdl5v7_hjWdb4N6167hfMOD0B8geweRQCLWZK0jcxwLFy-gzMISxUxQEFHGLNj5h6VfsI0-xQe1iEhAr2jOIaVINn3xiajBRkhahGhSfprrQdau5iBYBSZaR5U2PT-EViA", "width": 4032}], "place_id": "ChIJNWEhNu4BzoUROmvWG868g6w", "plus_code": {"compound_code": "8VFP+XG Mexico City", "global_code": "76F28VFP+XG"}, "rating": 4.5, "reference": "ChIJNWEhNu4BzoUROmvWG868g6w", "types": ["physiotherapist", "health", "point_of_interest", "establishment"], "user_ratings_total": 34}, {"business_status": "OPERATIONAL", "formatted_address": "Tte. Javier Mart\u00ednez Valle no. 607, Escuadr\u00f3n 201, Iztapalapa, 09060 Ciudad de M\u00e9xico, CDMX", "geometry": {"location": {"lat": 19.3652812, "lng": -99.1103522}, "viewport": {"northeast": {"lat": 19.36663102989272, "lng": -99.10900237010728}, "southwest": {"lat": 19.36393137010728, "lng": -99.11170202989271}}}, "icon": "https://maps.gstatic.com/mapfiles/place_api/icons/v1/png_71/generic_business-71.png", "name": "Sala de terapia Maya", "place_id": "ChIJc7wzmzr_0YURz-hZ9AS2mI4", "plus_code": {"compound_code": "9V8Q+4V Mexico City", "global_code": "76F29V8Q+4V"}, "rating": 0, "reference": "ChIJc7wzmzr_0YURz-hZ9AS2mI4", "types": ["physiotherapist", "health", "point_of_interest", "establishment"], "user_ratings_total": 0}, {"business_status": "OPERATIONAL", "formatted_address": "Calz. Ignacio Zaragoza 91, Jard\u00edn Balbuena, Venustiano Carranza, 15900 Ciudad de M\u00e9xico, CDMX", "geometry": {"location": {"lat": 19.4261387, "lng": -99.1094567}, "viewport": {"northeast": {"lat": 19.42756132989272, "lng": -99.10806372010727}, "southwest": {"lat": 19.42486167010728, "lng": -99.11076337989272}}}, "icon": "https://maps.gstatic.com/mapfiles/place_api/icons/v1/png_71/generic_business-71.png", "name": "Fisioterapeuta luis camacho", "opening_hours": {"open_now": false}, "place_id": "ChIJe8mK-67-0YUR1XRb1Jsak10", "plus_code": {"compound_code": "CVGR+F6 Mexico City", "global_code": "76F2CVGR+F6"}, "rating": 4, "reference": "ChIJe8mK-67-0YUR1XRb1Jsak10", "types": ["physiotherapist", "health", "point_of_interest", "establishment"], "user_ratings_total": 1}, {"business_status": "OPERATIONAL", "formatted_address": "Prolongaci\u00f3n Divisi\u00f3n Del Norte 4418, Prados Coapa Tercera Secci\u00f3n, 14357 Tlalpan, CDMX", "geometry": {"location": {"lat": 19.2943131, "lng": -99.1314589}, "viewport": {"northeast": {"lat": 19.29567592989272, "lng": -99.13018507010727}, "southwest": {"lat": 19.29297627010727, "lng": -99.13288472989272}}}, "icon": "https://maps.gstatic.com/mapfiles/place_api/icons/v1/png_71/generic_business-71.png", "name": "Fisio Smart CDMX", "opening_hours": {"open_now": false}, "photos": [{"height": 4160, "html_attributions": ["<a href=\"https://maps.google.com/maps/contrib/113455568976176652809\">A Google User</a>"], "photo_reference": "CmRaAAAAMIMB4_BsAGemKV0wjqdNl1dVoCpAsmu5DT7YtB_r-iMztb8WbqGwq8UQUSIbpw4BoTZEHMrGhSq116n1v32A5kBxunnRJXrosYzEvuHNh9jLQhY7faj1ZIIp4X0jqRf9EhDLbXrVNST0S_ZePbhnd5vnGhQk5Nc7bTeEYMlR87BGCFHph3whBw", "width": 3120}], "place_id": "ChIJtTR02v8BzoURGPZb3ezIWdU", "plus_code": {"compound_code": "7VV9+PC Mexico City", "global_code": "76F27VV9+PC"}, "rating": 5, "reference": "ChIJtTR02v8BzoURGPZb3ezIWdU", "types": ["physiotherapist", "health", "point_of_interest", "establishment"], "user_ratings_total": 3}, {"business_status": "OPERATIONAL", "formatted_address": "Playa Pichilingue 120 Col, Reforma Iztaccihuatl Sur, Iztacalco, 08840 Ciudad de M\u00e9xico, CDMX", "geometry": {"location": {"lat": 19.3788233, "lng": -99.1336171}, "viewport": {"northeast": {"lat": 19.38017567989272, "lng": -99.13236327010728}, "southwest": {"lat": 19.37747602010728, "lng": -99.13506292989273}}}, "icon": "https://maps.gstatic.com/mapfiles/place_api/icons/v1/png_71/generic_business-71.png", "name": "Masajes y Rehabilitacion fisica", "place_id": "ChIJnXPyOZn_0YURC-3Z2q3pzWo", "plus_code": {"compound_code": "9VH8+GH Mexico City", "global_code": "76F29VH8+GH"}, "rating": 0, "reference": "ChIJnXPyOZn_0YURC-3Z2q3pzWo", "types": ["physiotherapist", "health", "point_of_interest", "establishment"], "user_ratings_total": 0}]