[{"business_status": "OPERATIONAL", "geometry": {"location": {"lat": 19.3500539, "lng": -99.10019989999999}, "viewport": {"northeast": {"lat": 19.3514107302915, "lng": -99.09887161970849}, "southwest": {"lat": 19.3487127697085, "lng": -99.10156958029151}}}, "icon": "https://maps.gstatic.com/mapfiles/place_api/icons/v1/png_71/restaurant-71.png", "name": "La Cueva del Drag\u00f3n", "opening_hours": {"open_now": true}, "photos": [{"height": 3120, "html_attributions": ["<a href=\"https://maps.google.com/maps/contrib/102702635225723993642\">Imaginando y creando oleusnoc</a>"], "photo_reference": "CmRaAAAA6Oj-mXV40fPZgLokbpZbj-tRRKTbJRo_nPYWvcugI152Wi5qprQw-ECZeVKtJz2s9ynmRWNE5vd1mUujRNnOOzg_JJX9p_ISEWTHfLOarzE5gwyf528ZEKvFi5N4TQz3EhDitszPwjOkbPbsV9KQHHFfGhTOhMDXlNaPDoxlwf8IWw5v2ED5mA", "width": 4160}], "place_id": "ChIJzTaTc_390YURuFZFmG5stuE", "plus_code": {"compound_code": "9V2X+2W Mexico City, CDMX, Mexico", "global_code": "76F29V2X+2W"}, "rating": 4.2, "reference": "ChIJzTaTc_390YURuFZFmG5stuE", "scope": "GOOGLE", "types": ["restaurant", "food", "point_of_interest", "establishment"], "user_ratings_total": 13, "vicinity": "09820, Netzahualpilli 55, Estrella del Sur, Ciudad de M\u00e9xico"}, {"business_status": "OPERATIONAL", "geometry": {"location": {"lat": 19.3537406, "lng": -99.1009655}, "viewport": {"northeast": {"lat": 19.3547425802915, "lng": -99.0990524697085}, "southwest": {"lat": 19.3520446197085, "lng": -99.1017504302915}}}, "icon": "https://maps.gstatic.com/mapfiles/place_api/icons/v1/png_71/restaurant-71.png", "name": "TACOS DE GUISADO EL G\u00dcERO", "opening_hours": {"open_now": false}, "place_id": "ChIJ_36NVLL90YURMISMIC_8BBI", "plus_code": {"compound_code": "9V3X+FJ Mexico City, CDMX, Mexico", "global_code": "76F29V3X+FJ"}, "reference": "ChIJ_36NVLL90YURMISMIC_8BBI", "scope": "GOOGLE", "types": ["restaurant", "food", "point_of_interest", "establishment"], "vicinity": "Cerrada Pastores 15, Ampliaci\u00f3n Ricardo Flores Mag\u00f3n, Ciudad de M\u00e9xico"}, {"business_status": "OPERATIONAL", "geometry": {"location": {"lat": 19.35438659999999, "lng": -99.1016188}, "viewport": {"northeast": {"lat": 19.3557997302915, "lng": -99.10031451970849}, "southwest": {"lat": 19.3531017697085, "lng": -99.1030124802915}}}, "icon": "https://maps.gstatic.com/mapfiles/place_api/icons/v1/png_71/restaurant-71.png", "name": "La Curva", "place_id": "ChIJA2OZHeT_0YUR3JaZ3GxetVo", "plus_code": {"compound_code": "9V3X+Q9 Mexico City, CDMX, Mexico", "global_code": "76F29V3X+Q9"}, "reference": "ChIJA2OZHeT_0YUR3JaZ3GxetVo", "scope": "GOOGLE", "types": ["restaurant", "food", "point_of_interest", "establishment"], "vicinity": "Antiguo Camino a Los Reyes 20, Ampliaci\u00f3n Ricardo Flores Mag\u00f3n, Ciudad de M\u00e9xico"}, {"business_status": "OPERATIONAL", "geometry": {"location": {"lat": 19.3472265, "lng": -99.1044534}, "viewport": {"northeast": {"lat": 19.3485874802915, "lng": -99.10310106970849}, "southwest": {"lat": 19.3458895197085, "lng": -99.1057990302915}}}, "icon": "https://maps.gstatic.com/mapfiles/place_api/icons/v1/png_71/restaurant-71.png", "name": "Tacos El Oso", "opening_hours": {"open_now": false}, "photos": [{"height": 1920, "html_attributions": ["<a href=\"https://maps.google.com/maps/contrib/102575537529615599289\">JUAN MORALES</a>"], "photo_reference": "CmRaAAAAD2dDpJMxkb9AItFSArkg8gXRnMuelagLV-c4cwiBqEuCKKU6ToZOeIEvmoHuvsmzU5_xWJGmHeKfgmYjweXN-2Wv_0SCSs2Em5jd7VfzX9EcqLoSwxb7nFbQP7ggu7R5EhDZxxQxCayDJznfJu5SXi_AGhQzCo3owAc1ipFeog7W9sf4ZVPCcg", "width": 1080}], "place_id": "ChIJQ8EPXBH_0YURpD3hWwSp1V8", "plus_code": {"compound_code": "8VWW+V6 Mexico City, CDMX, Mexico", "global_code": "76F28VWW+V6"}, "rating": 5, "reference": "ChIJQ8EPXBH_0YURpD3hWwSp1V8", "scope": "GOOGLE", "types": ["restaurant", "food", "point_of_interest", "establishment"], "user_ratings_total": 3, "vicinity": "Acamapichtli MZ13 LT6, Zona Urbana Ejidal los Reyes Culhuacan, Ciudad de M\u00e9xico"}, {"business_status": "OPERATIONAL", "geometry": {"location": {"lat": 19.3472139, "lng": -99.103571}, "viewport": {"northeast": {"lat": 19.3485542302915, "lng": -99.10218581970848}, "southwest": {"lat": 19.3458562697085, "lng": -99.1048837802915}}}, "icon": "https://maps.gstatic.com/mapfiles/place_api/icons/v1/png_71/restaurant-71.png", "name": "LOREN'Z Caf\u00e9", "photos": [{"height": 3024, "html_attributions": ["<a href=\"https://maps.google.com/maps/contrib/116079494240566316361\">Angel Monta\u00f1o Garcia</a>"], "photo_reference": "CmRaAAAAAOCGz0ZSCl3FukjGUmYwn9CnchP-iZVq0kFqEWM9Y-Jh2NGfMxPS2K0p-E9ijTlsiFlzY4Rm6nBChteOzYsO81hIbXmYR7vyd72ZDT5jowoWGA6RmPKONOOOm2yAMyXEEhANKK5Ft20qv05uz89o_2k4GhTf3vmEcyqXlHHdUC2_wYA1jsU8WA", "width": 4032}], "place_id": "ChIJEXiExob_0YUR56dc1p6-RGo", "plus_code": {"compound_code": "8VWW+VH Mexico City, CDMX, Mexico", "global_code": "76F28VWW+VH"}, "rating": 4.1, "reference": "ChIJEXiExob_0YUR56dc1p6-RGo", "scope": "GOOGLE", "types": ["restaurant", "food", "point_of_interest", "establishment"], "user_ratings_total": 10, "vicinity": "Axayacatl MZ13 LT16, Zona Urbana Ejidal los Reyes Culhuacan, Ciudad de M\u00e9xico"}, {"business_status": "OPERATIONAL", "geometry": {"location": {"lat": 19.3503801, "lng": -99.1081736}, "viewport": {"northeast": {"lat": 19.3517308802915, "lng": -99.1068514197085}, "southwest": {"lat": 19.3490329197085, "lng": -99.10954938029151}}}, "icon": "https://maps.gstatic.com/mapfiles/place_api/icons/v1/png_71/restaurant-71.png", "name": "Pancita tia rosa", "opening_hours": {"open_now": false}, "place_id": "ChIJc48GNqj_0YURvEjU_rOgQws", "plus_code": {"compound_code": "9V2R+5P Mexico City, CDMX, Mexico", "global_code": "76F29V2R+5P"}, "reference": "ChIJc48GNqj_0YURvEjU_rOgQws", "scope": "GOOGLE", "types": ["restaurant", "food", "point_of_interest", "establishment"], "vicinity": "Sur 127 171, Los Cipreses, Ciudad de M\u00e9xico"}, {"business_status": "OPERATIONAL", "geometry": {"location": {"lat": 19.35342319999999, "lng": -99.1001837}, "viewport": {"northeast": {"lat": 19.3547239302915, "lng": -99.0989171697085}, "southwest": {"lat": 19.35202596970849, "lng": -99.1016151302915}}}, "icon": "https://maps.gstatic.com/mapfiles/place_api/icons/v1/png_71/restaurant-71.png", "name": "LA CASA DEL SABOR", "photos": [{"height": 1280, "html_attributions": ["<a href=\"https://maps.google.com/maps/contrib/104316526696685911878\">LA CASA DEL SABOR</a>"], "photo_reference": "CmRaAAAA7ISgPjCFfjgkYztayJfYbi_qGvqgQ3gjPVMEZpRoU3uuHvwh_X7YfrmyDwQyIemNTUEQzJl3m2NHqX-zUwrJny-19f1HAQj0FkwWxc6tadmEu3qnfiStkz61y879v1dvEhCvyubtR8kXvzLM5S7IBBGcGhTd4Hv7oOq3bIv6tT8XaBwU2IT-lA", "width": 960}], "place_id": "ChIJXYEWZoX90YURf8kcxxZwZo4", "plus_code": {"compound_code": "9V3X+9W Mexico City, CDMX, Mexico", "global_code": "76F29V3X+9W"}, "reference": "ChIJXYEWZoX90YURf8kcxxZwZo4", "scope": "GOOGLE", "types": ["restaurant", "food", "point_of_interest", "establishment"], "vicinity": "Privada Ermita Iztapalapa 36, Ciudad de M\u00e9xico"}, {"business_status": "OPERATIONAL", "geometry": {"location": {"lat": 19.3512563, "lng": -99.1084419}, "viewport": {"northeast": {"lat": 19.3525616302915, "lng": -99.10709566970849}, "southwest": {"lat": 19.3498636697085, "lng": -99.1097936302915}}}, "icon": "https://maps.gstatic.com/mapfiles/place_api/icons/v1/png_71/restaurant-71.png", "name": "De La Abuela", "place_id": "ChIJy3NVkgX-0YUR2FJah6kSruQ", "plus_code": {"compound_code": "9V2R+GJ Mexico City, CDMX, Mexico", "global_code": "76F29V2R+GJ"}, "reference": "ChIJy3NVkgX-0YUR2FJah6kSruQ", "scope": "GOOGLE", "types": ["restaurant", "food", "point_of_interest", "establishment"], "vicinity": "Granjeros 342, Los Cipreses, Ciudad de M\u00e9xico"}, {"business_status": "OPERATIONAL", "geometry": {"location": {"lat": 19.3512584, "lng": -99.10847129999999}, "viewport": {"northeast": {"lat": 19.3525634802915, "lng": -99.1071250697085}, "southwest": {"lat": 19.3498655197085, "lng": -99.10982303029151}}}, "icon": "https://maps.gstatic.com/mapfiles/place_api/icons/v1/png_71/restaurant-71.png", "name": "Comedor Las Delicias", "opening_hours": {"open_now": false}, "photos": [{"height": 3264, "html_attributions": ["<a href=\"https://maps.google.com/maps/contrib/100544233399434488171\">almita fuhsl</a>"], "photo_reference": "CmRaAAAA9kkP-7hKmLYYsCLXfbWjKoVX_oWmXTCYOQj86nxnEDoTcbrwOeUX2gDWnpTrsMO0z1jG6UdzfuzXXSumXLSAawG4_7qvYXNCO9zOsxm6JDbod3sHPRfp_mGagBbmm6ROEhBk5BGGx0ViS0KrVLt2m3KAGhQanCgU60k1PKORECKUInCtaCRAnA", "width": 1836}], "place_id": "ChIJ2_du3SP_0YURy37TH54eB1c", "plus_code": {"compound_code": "9V2R+GJ Minerva, Mexico City, CDMX, Mexico", "global_code": "76F29V2R+GJ"}, "rating": 3.9, "reference": "ChIJ2_du3SP_0YURy37TH54eB1c", "scope": "GOOGLE", "types": ["restaurant", "hardware_store", "food", "point_of_interest", "store", "establishment"], "user_ratings_total": 125, "vicinity": "Sur 125-A, Granjeros Esq, Minerva"}, {"business_status": "OPERATIONAL", "geometry": {"location": {"lat": 19.355111, "lng": -99.10225539999999}, "viewport": {"northeast": {"lat": 19.3565314802915, "lng": -99.10086581970849}, "southwest": {"lat": 19.3538335197085, "lng": -99.1035637802915}}}, "icon": "https://maps.gstatic.com/mapfiles/place_api/icons/v1/png_71/restaurant-71.png", "name": "Burger King", "opening_hours": {"open_now": true}, "photos": [{"height": 3024, "html_attributions": ["<a href=\"https://maps.google.com/maps/contrib/103159504945801014480\">Josu\u00e9 Rodr\u00edguez</a>"], "photo_reference": "CmRaAAAAnREyTdUiOThZsp_tfzg-uH_ZOFtstyP-tQ_dVq3HR5co_JpvUQ7ZWy-uOtFaI7U6pj4uaJoUjLbxLDPp6xTz0QirMkARebgM4ESvLBXG9JgTDj3fRzK-Baui_oAVCGCqEhBDGb1ISxzybeCKk5t5mZZsGhSFeBhBHoP8YrXu2xRh4AwhDKrDLQ", "width": 4032}], "place_id": "ChIJs50AMwj-0YURPBgBVo_dKHE", "plus_code": {"compound_code": "9V4X+23 Mexico City, CDMX, Mexico", "global_code": "76F29V4X+23"}, "price_level": 2, "rating": 4, "reference": "ChIJs50AMwj-0YURPBgBVo_dKHE", "scope": "GOOGLE", "types": ["restaurant", "food", "point_of_interest", "establishment"], "user_ratings_total": 1054, "vicinity": "Ermita Iztapalapa 941, Isabel Industrial, Ciudad de M\u00e9xico"}, {"business_status": "OPERATIONAL", "geometry": {"location": {"lat": 19.3477901, "lng": -99.10414519999999}, "viewport": {"northeast": {"lat": 19.3491390802915, "lng": -99.10279621970848}, "southwest": {"lat": 19.3464411197085, "lng": -99.1054941802915}}}, "icon": "https://maps.gstatic.com/mapfiles/place_api/icons/v1/png_71/restaurant-71.png", "name": "Antojitos La Fortaleza", "opening_hours": {"open_now": true}, "photos": [{"height": 2970, "html_attributions": ["<a href=\"https://maps.google.com/maps/contrib/116079494240566316361\">Angel Monta\u00f1o Garcia</a>"], "photo_reference": "CmRaAAAAE9mTei-W1oCdGhwW3jDN9HN8NPQxzvtitLK3MkClIjBfk7Lbo52gAbSl8DS9TEGQR9u0Lq2uWCvqsFgUPjYXZpSbTiH1RZ8SDjakQp6Se9JGi31gAQA6YDMPjbIYFhTHEhB2Q3EA5ZbS_d1lw0plrfKnGhTYjkT9Zp3fwwlKJXZ5Y8qf4KVZDA", "width": 3024}], "place_id": "ChIJLwyTyGf_0YURV8hDIPa8-qI", "plus_code": {"compound_code": "8VXW+48 Mexico City, CDMX, Mexico", "global_code": "76F28VXW+48"}, "rating": 4, "reference": "ChIJLwyTyGf_0YURV8hDIPa8-qI", "scope": "GOOGLE", "types": ["restaurant", "food", "point_of_interest", "establishment"], "user_ratings_total": 1, "vicinity": "Cacama MZ13 LT7, Estrella del Sur, Ciudad de M\u00e9xico"}, {"business_status": "OPERATIONAL", "geometry": {"location": {"lat": 19.3473669, "lng": -99.102116}, "viewport": {"northeast": {"lat": 19.34866928029151, "lng": -99.1007772697085}, "southwest": {"lat": 19.3459713197085, "lng": -99.10347523029152}}}, "icon": "https://maps.gstatic.com/mapfiles/place_api/icons/v1/png_71/restaurant-71.png", "name": "Carnitas Roberts", "opening_hours": {"open_now": true}, "photos": [{"height": 3024, "html_attributions": ["<a href=\"https://maps.google.com/maps/contrib/100359027378073678570\">Carnitas Roberts</a>"], "photo_reference": "CmRaAAAA_Q6AEmNXVapfVODyIqCMnRtsHOi83wKm3Rzmr9Jz5jWByZtVapXzeuYny7I4j6eh5ok6WJP0r4MGEHauO_xe4Cdf2E9hpDxHfz2eytUG8HIph3RHQEcQ4E6Iv4PaVz0kEhBoIChnETtlmF35vPsbZonhGhQcPQH7LtMxIEI0qMJAGNdhLOwSXw", "width": 4032}], "place_id": "ChIJ8WYfJhz_0YUR4J0nrgdSsjc", "plus_code": {"compound_code": "8VWX+W5 Mexico City, CDMX, Mexico", "global_code": "76F28VWX+W5"}, "rating": 3, "reference": "ChIJ8WYfJhz_0YUR4J0nrgdSsjc", "scope": "GOOGLE", "types": ["restaurant", "food", "point_of_interest", "establishment"], "user_ratings_total": 2, "vicinity": "Calle cacama, Puentetitla Esquina, Ciudad de M\u00e9xico"}, {"business_status": "OPERATIONAL", "geometry": {"location": {"lat": 19.3532258, "lng": -99.1000784}, "viewport": {"northeast": {"lat": 19.3545229802915, "lng": -99.09862501970849}, "southwest": {"lat": 19.3518250197085, "lng": -99.10132298029151}}}, "icon": "https://maps.gstatic.com/mapfiles/place_api/icons/v1/png_71/restaurant-71.png", "name": "Alitas y costillas el recarbon", "opening_hours": {"open_now": true}, "place_id": "ChIJy5U8Fzv90YURC-dlwBDW6bg", "plus_code": {"compound_code": "9V3X+7X Mexico City, CDMX, Mexico", "global_code": "76F29V3X+7X"}, "reference": "ChIJy5U8Fzv90YURC-dlwBDW6bg", "scope": "GOOGLE", "types": ["restaurant", "food", "point_of_interest", "establishment"], "vicinity": "Pastores 1, Ampliaci\u00f3n Ricardo Flores Mag\u00f3n, Ciudad de M\u00e9xico"}]