[{"business_status": "OPERATIONAL", "geometry": {"location": {"lat": 19.3513972, "lng": -99.1006989}, "viewport": {"northeast": {"lat": 19.3527289302915, "lng": -99.09935826970849}, "southwest": {"lat": 19.3500309697085, "lng": -99.10205623029151}}}, "icon": "https://maps.gstatic.com/mapfiles/place_api/icons/v1/png_71/school-71.png", "name": "Jard\u00edn de Ni\u00f1os Cuauhtlahuac", "opening_hours": {"open_now": false}, "place_id": "ChIJmyfQ8Af-0YURCLblxHMmsOE", "plus_code": {"compound_code": "9V2X+HP Mexico City, CDMX, Mexico", "global_code": "76F29V2X+HP"}, "rating": 4.7, "reference": "ChIJmyfQ8Af-0YURCLblxHMmsOE", "scope": "GOOGLE", "types": ["school", "point_of_interest", "establishment"], "user_ratings_total": 3, "vicinity": "Entre Ermita y Puentitla, Arroyo Tlaloc, Estrella del Sur, Ciudad de M\u00e9xico"}, {"business_status": "OPERATIONAL", "geometry": {"location": {"lat": 19.3492726, "lng": -99.10065069999999}, "viewport": {"northeast": {"lat": 19.3506157302915, "lng": -99.09928761970848}, "southwest": {"lat": 19.3479177697085, "lng": -99.1019855802915}}}, "icon": "https://maps.gstatic.com/mapfiles/place_api/icons/v1/png_71/school-71.png", "name": "BrainstormCursos", "opening_hours": {"open_now": false}, "photos": [{"height": 1200, "html_attributions": ["<a href=\"https://maps.google.com/maps/contrib/104851614749320132888\">Michel HG</a>"], "photo_reference": "CmRaAAAA9SHaZXIKNqCwfCN8x6loaQd74bGVzsq8KbcyZtVlPV6lk9291-jUlQ0eaR0gwEdjRPSQ82zftW28TwT0o7OhT-5QXlrvzEbCgG9UHaBaLYcXMMu6vHfJzk4Awx8il1yWEhDNIvndtELxrcrCaBXBP7HQGhQXERKVjqNPD4O6OlrPpeAZDCSDqg", "width": 1600}], "place_id": "ChIJF-2snP390YURxUYxz_-JXzA", "plus_code": {"compound_code": "8VXX+PP Mexico City, CDMX, Mexico", "global_code": "76F28VXX+PP"}, "rating": 5, "reference": "ChIJF-2snP390YURxUYxz_-JXzA", "scope": "GOOGLE", "types": ["school", "point_of_interest", "establishment"], "user_ratings_total": 1, "vicinity": "Netzahualpilli 71-75, Estrella del Sur, Ciudad de M\u00e9xico"}, {"business_status": "OPERATIONAL", "geometry": {"location": {"lat": 19.3519089, "lng": -99.1029488}, "viewport": {"northeast": {"lat": 19.3532749802915, "lng": -99.10165441970848}, "southwest": {"lat": 19.3505770197085, "lng": -99.10435238029149}}}, "icon": "https://maps.gstatic.com/mapfiles/place_api/icons/v1/png_71/school-71.png", "name": "Mathmagic Sorprendizaje Sucursal Iztapalapa", "photos": [{"height": 960, "html_attributions": ["<a href=\"https://maps.google.com/maps/contrib/117554985196459625259\">David Navarro</a>"], "photo_reference": "CmRaAAAASmLBbOJxMAWmZgi1cLkPLXrgAv0YADAVwMbP_TfowGIvILo0MFI8YWVl2lEYLUgM2IseciX86_Lg2Q4_JAhvzEwCGwKFPwqCigUxQdk6kLwRdMLDyvfpAYzVlTScydkJEhAGifMHaLencZ0YDYXDsv7OGhRI7_PRmmTl9hIuG59fIcysyybxvw", "width": 1594}], "place_id": "ChIJkx4z9Yv_0YUR8g7BxRmsPbE", "plus_code": {"compound_code": "9V2W+QR Mexico City, CDMX, Mexico", "global_code": "76F29V2W+QR"}, "reference": "ChIJkx4z9Yv_0YUR8g7BxRmsPbE", "scope": "GOOGLE", "types": ["school", "point_of_interest", "establishment"], "vicinity": ""}, {"business_status": "OPERATIONAL", "geometry": {"location": {"lat": 19.3506297, "lng": -99.1006694}, "viewport": {"northeast": {"lat": 19.3519688302915, "lng": -99.09928601970849}, "southwest": {"lat": 19.3492708697085, "lng": -99.10198398029151}}}, "icon": "https://maps.gstatic.com/mapfiles/place_api/icons/v1/png_71/school-71.png", "name": "Instituto D-Qualita", "opening_hours": {"open_now": false}, "place_id": "ChIJkQP1Zf390YURnKOHgcao15g", "plus_code": {"compound_code": "9V2X+7P Mexico City, CDMX, Mexico", "global_code": "76F29V2X+7P"}, "reference": "ChIJkQP1Zf390YURnKOHgcao15g", "scope": "GOOGLE", "types": ["school", "point_of_interest", "establishment"], "vicinity": "Puentetitla 127, Estrella del Sur, Ciudad de M\u00e9xico"}, {"business_status": "OPERATIONAL", "geometry": {"location": {"lat": 19.3498329, "lng": -99.10041199999999}, "viewport": {"northeast": {"lat": 19.3511807302915, "lng": -99.09905971970849}, "southwest": {"lat": 19.3484827697085, "lng": -99.10175768029151}}}, "icon": "https://maps.gstatic.com/mapfiles/place_api/icons/v1/png_71/school-71.png", "name": "ESTANCIA INFANTIL KIM", "opening_hours": {"open_now": false}, "place_id": "ChIJb33zdv390YUR2iSn4jsEQFE", "plus_code": {"compound_code": "8VXX+WR Mexico City, CDMX, Mexico", "global_code": "76F28VXX+WR"}, "rating": 1, "reference": "ChIJb33zdv390YUR2iSn4jsEQFE", "scope": "GOOGLE", "types": ["school", "point_of_interest", "establishment"], "user_ratings_total": 2, "vicinity": "Entre Calle Tonatiuh y Calle Ixmiquilpan, Netzahualpilli 68, Estrella del Sur, Ciudad de M\u00e9xico"}, {"business_status": "OPERATIONAL", "geometry": {"location": {"lat": 19.3545739, "lng": -99.1060885}, "viewport": {"northeast": {"lat": 19.3559148302915, "lng": -99.1046860197085}, "southwest": {"lat": 19.3532168697085, "lng": -99.1073839802915}}}, "icon": "https://maps.gstatic.com/mapfiles/place_api/icons/v1/png_71/school-71.png", "name": "Colegio Anglohispano Pedag\u00f3gico", "place_id": "ChIJpasZ2wj-0YURmz32WS2OhD8", "plus_code": {"compound_code": "9V3V+RH Mexico City, CDMX, Mexico", "global_code": "76F29V3V+RH"}, "reference": "ChIJpasZ2wj-0YURmz32WS2OhD8", "scope": "GOOGLE", "types": ["school", "point_of_interest", "establishment"], "vicinity": "Avenida Tlahuac 43, Ciudad de M\u00e9xico"}]