[{"business_status": "OPERATIONAL", "geometry": {"location": {"lat": 19.3547668, "lng": -99.1039752}, "viewport": {"northeast": {"lat": 19.3566721302915, "lng": -99.1025714197085}, "southwest": {"lat": 19.3539741697085, "lng": -99.1052693802915}}}, "icon": "https://maps.gstatic.com/mapfiles/place_api/icons/v1/png_71/shopping-71.png", "name": "Bodega Aurrera Iztapalapa", "opening_hours": {"open_now": true}, "photos": [{"height": 3120, "html_attributions": ["<a href=\"https://maps.google.com/maps/contrib/117238907925946526386\">maria teresa Fr</a>"], "photo_reference": "CmRaAAAA6EsH1AsY5JpCBbqeysB0Q8AmBCOxkXNhSAQ-7XViZnahoVgfJpfp-BDkwMS9A4LXItZrVEQFsb6GSw42fLhH8SRknneTGMusbHmAlcJXXn-bB1QmpyZqlWili1G20pb7EhC_Ut1Wt6RYpHdBK1qwIz5RGhSGIa6KfgotYoPx-3I9MxcwKftK4g", "width": 4160}], "place_id": "ChIJt68eYuL90YUROsRUgLNb0oo", "plus_code": {"compound_code": "9V3W+WC Mexico City, CDMX, Mexico", "global_code": "76F29V3W+WC"}, "rating": 3.9, "reference": "ChIJt68eYuL90YUROsRUgLNb0oo", "scope": "GOOGLE", "types": ["supermarket", "atm", "grocery_or_supermarket", "finance", "food", "point_of_interest", "store", "establishment"], "user_ratings_total": 5855, "vicinity": "Iztapalapa Av, Ermita Iztapalapa 875, Santa Isabel Industrial, Ciudad de M\u00e9xico"}, {"business_status": "OPERATIONAL", "geometry": {"location": {"lat": 19.3533801, "lng": -99.1059007}, "viewport": {"northeast": {"lat": 19.3547785802915, "lng": -99.1045419197085}, "southwest": {"lat": 19.3520806197085, "lng": -99.1072398802915}}}, "icon": "https://maps.gstatic.com/mapfiles/place_api/icons/v1/png_71/shopping-71.png", "name": "Andrea", "opening_hours": {"open_now": true}, "photos": [{"height": 500, "html_attributions": ["<a href=\"https://maps.google.com/maps/contrib/114237831697576875409\">Andrea</a>"], "photo_reference": "CmRaAAAAZY4QWGCevEdc1Mif2H6kV6xn3472TPTiDyR0j1dDAk3-6BFgNtvJS1XUy-qyNv8hFTJo5ef9lx08IWBOHVLzVfstKrv0DvLtGzeJpJRTfCBg93u9PelDmEvj7-6xf3W7EhCJ9T0Ic8H3geq6mpPboG2hGhStlGJ3K90r6h_oqc1dSbPQGu1zAg", "width": 750}], "place_id": "ChIJOcCPuAj-0YURKDW7sOdxOS8", "plus_code": {"compound_code": "9V3V+9J Santa Isabel Industrial, Mexico City, CDMX, Mexico", "global_code": "76F29V3V+9J"}, "rating": 3.8, "reference": "ChIJOcCPuAj-0YURKDW7sOdxOS8", "scope": "GOOGLE", "types": ["shoe_store", "point_of_interest", "store", "establishment"], "user_ratings_total": 1578, "vicinity": "Avenida Tlahuac Ext. 74 entre calle ganaderos y, Pastores, Santa Isabel Industrial"}, {"business_status": "OPERATIONAL", "geometry": {"location": {"lat": 19.3519703, "lng": -99.1045695}, "viewport": {"northeast": {"lat": 19.3532815302915, "lng": -99.1031500197085}, "southwest": {"lat": 19.3505835697085, "lng": -99.1058479802915}}}, "icon": "https://maps.gstatic.com/mapfiles/place_api/icons/v1/png_71/shopping-71.png", "name": "Compa\u00f1ia Industrial Ceima Rattan Sa De Cv", "place_id": "ChIJs3OvLgb-0YURmKpcZdW4pgg", "plus_code": {"compound_code": "9V2W+Q5 Mexico City, CDMX, Mexico", "global_code": "76F29V2W+Q5"}, "rating": 4, "reference": "ChIJs3OvLgb-0YURmKpcZdW4pgg", "scope": "GOOGLE", "types": ["furniture_store", "home_goods_store", "point_of_interest", "store", "establishment"], "user_ratings_total": 4, "vicinity": "Arroz 115, Santa Isabel Industrial, Ciudad de M\u00e9xico"}, {"business_status": "OPERATIONAL", "geometry": {"location": {"lat": 19.3510119, "lng": -99.1055302}, "viewport": {"northeast": {"lat": 19.3523193802915, "lng": -99.1041924197085}, "southwest": {"lat": 19.3496214197085, "lng": -99.1068903802915}}}, "icon": "https://maps.gstatic.com/mapfiles/place_api/icons/v1/png_71/shopping-71.png", "name": "Empacadora Obertal", "opening_hours": {"open_now": false}, "photos": [{"height": 1530, "html_attributions": ["<a href=\"https://maps.google.com/maps/contrib/113670074102771267785\">Empacadora Obertal</a>"], "photo_reference": "CmRaAAAAAfFXR0_r-Vg8YsHDuq4LRUCMWVsTjIxmdSE7roXa5q5QKqzaQWfKLmIwI3E7KdDmWGK2eP2gJWcDSPbQ3vT-rbl3q1jTipG-tkHQbis25-O4MA5Ez7ZQnEKnMRfXHlhvEhB-afjRlvWP4MWKJ2Al3bdmGhSaYRPT61NzdojfTd1R7Egny5AzOA", "width": 2048}], "place_id": "ChIJT5Z7sHz_0YUR45eSPaaiYgU", "plus_code": {"compound_code": "9V2V+CQ Mexico City, CDMX, Mexico", "global_code": "76F29V2V+CQ"}, "rating": 4.1, "reference": "ChIJT5Z7sHz_0YUR45eSPaaiYgU", "scope": "GOOGLE", "types": ["grocery_or_supermarket", "food", "point_of_interest", "store", "establishment"], "user_ratings_total": 58, "vicinity": "Vaqueros 24, Santa Isabel Industrial, Ciudad de M\u00e9xico"}, {"business_status": "OPERATIONAL", "geometry": {"location": {"lat": 19.350681, "lng": -99.1027572}, "viewport": {"northeast": {"lat": 19.3521301802915, "lng": -99.10174296970848}, "southwest": {"lat": 19.3494322197085, "lng": -99.1044409302915}}}, "icon": "https://maps.gstatic.com/mapfiles/place_api/icons/v1/png_71/shopping-71.png", "name": "Comercializadora y Ferreter\u00eda Shuma", "opening_hours": {"open_now": false}, "place_id": "ChIJm6riqgf-0YURy9Atzw-Uovs", "plus_code": {"compound_code": "9V2W+7V Mexico City, CDMX, Mexico", "global_code": "76F29V2W+7V"}, "rating": 3.9, "reference": "ChIJm6riqgf-0YURy9Atzw-Uovs", "scope": "GOOGLE", "types": ["home_goods_store", "point_of_interest", "store", "establishment"], "user_ratings_total": 17, "vicinity": "Camino Antiguo a Culhuacan 160, Estrella del Sur, Ciudad de M\u00e9xico"}, {"business_status": "OPERATIONAL", "geometry": {"location": {"lat": 19.3522084, "lng": -99.10515319999999}, "viewport": {"northeast": {"lat": 19.3535971802915, "lng": -99.10379706970849}, "southwest": {"lat": 19.3508992197085, "lng": -99.1064950302915}}}, "icon": "https://maps.gstatic.com/mapfiles/place_api/icons/v1/png_71/shopping-71.png", "name": "EV Marchas Alternadores y M\u00e1s", "place_id": "ChIJHTUhHgb-0YURQQJct4p77dQ", "plus_code": {"compound_code": "9V2V+VW Mexico City, CDMX, Mexico", "global_code": "76F29V2V+VW"}, "rating": 4.5, "reference": "ChIJHTUhHgb-0YURQQJct4p77dQ", "scope": "GOOGLE", "types": ["car_repair", "point_of_interest", "store", "establishment"], "user_ratings_total": 2, "vicinity": "Campesinos 393, Santa Isabel Industrial, Ciudad de M\u00e9xico"}, {"business_status": "OPERATIONAL", "geometry": {"location": {"lat": 19.3511082, "lng": -99.1034524}, "viewport": {"northeast": {"lat": 19.3524433302915, "lng": -99.1020570697085}, "southwest": {"lat": 19.3497453697085, "lng": -99.1047550302915}}}, "icon": "https://maps.gstatic.com/mapfiles/place_api/icons/v1/png_71/shopping-71.png", "name": "F & F Wood Specialists, S.A. De C.V.", "opening_hours": {"open_now": false}, "photos": [{"height": 1200, "html_attributions": ["<a href=\"https://maps.google.com/maps/contrib/109604562740581178486\">F &amp; F Especialistas En Madera, S.A. De C.V.</a>"], "photo_reference": "CmRaAAAAwYrQ1XYr55gAkCIK9H8hYRVTHCl4aRtmYl-QLyXJ5EYF8tVuXjGLbFVVMlrnz65kibkF6rke3w8XxV5YSfAdVL_dlMWUc7cgeTB4VCsazbAl_Ep6rN1HrynHkY697ec6EhB6uNmQXJ_nxop9R-UDAqokGhQyLzxv0XJIpf1MdoFQIqaAubqRgw", "width": 803}], "place_id": "ChIJP4f6Zgb-0YURyx_eCHHEcR0", "plus_code": {"compound_code": "9V2W+CJ Mexico City, CDMX, Mexico", "global_code": "76F29V2W+CJ"}, "rating": 3.9, "reference": "ChIJP4f6Zgb-0YURyx_eCHHEcR0", "scope": "GOOGLE", "types": ["furniture_store", "home_goods_store", "point_of_interest", "store", "establishment"], "user_ratings_total": 65, "vicinity": "Camino Antiguo a Culhuacan 141 - 1, Santa Isabel Industrial, Ciudad de M\u00e9xico"}, {"business_status": "OPERATIONAL", "geometry": {"location": {"lat": 19.3486727, "lng": -99.1043706}, "viewport": {"northeast": {"lat": 19.3500092302915, "lng": -99.1029926197085}, "southwest": {"lat": 19.3473112697085, "lng": -99.10569058029151}}}, "icon": "https://maps.gstatic.com/mapfiles/place_api/icons/v1/png_71/shopping-71.png", "name": "Iluminaci\u00f3n y Suministros El\u00e9ctricos", "place_id": "ChIJFZQ14wb-0YURKpWrdUH6i2I", "plus_code": {"compound_code": "8VXW+F7 Mexico City, CDMX, Mexico", "global_code": "76F28VXW+F7"}, "rating": 5, "reference": "ChIJFZQ14wb-0YURKpWrdUH6i2I", "scope": "GOOGLE", "types": ["home_goods_store", "point_of_interest", "store", "establishment"], "user_ratings_total": 1, "vicinity": "Antiguo Camino a Culhuac\u00e1n 239, Santa Isabel Industrial, Ciudad de M\u00e9xico"}, {"business_status": "OPERATIONAL", "geometry": {"location": {"lat": 19.35083329999999, "lng": -99.1027778}, "viewport": {"northeast": {"lat": 19.3522727302915, "lng": -99.10173091970849}, "southwest": {"lat": 19.34957476970849, "lng": -99.10442888029151}}}, "icon": "https://maps.gstatic.com/mapfiles/place_api/icons/v1/png_71/shopping-71.png", "name": "Muebles Monaco", "opening_hours": {"open_now": false}, "photos": [{"height": 2560, "html_attributions": ["<a href=\"https://maps.google.com/maps/contrib/101403928826192279758\">Miguel Angel Cruz Ortiz</a>"], "photo_reference": "CmRaAAAANrYl4aIcONMf5sqI0YOvUzhx14fY1f-ffubhekYQcqNdQKGb6yhoL6B57ol3-y_WASkrGJqxyk3_8zBtGPT4stt5fSwxP4NKdMfJlr5zLmW6-EwnyPr8TS4bFDnXcj9IEhDdueYq6sJ2hUCx5tJrv25IGhRu0zbovIRT3TD40uqvWLLL8stNpQ", "width": 1536}], "place_id": "ChIJC_gFqwf-0YUR_iZ6kU8u4qc", "plus_code": {"compound_code": "9V2W+8V Mexico City, CDMX, Mexico", "global_code": "76F29V2W+8V"}, "rating": 4.1, "reference": "ChIJC_gFqwf-0YUR_iZ6kU8u4qc", "scope": "GOOGLE", "types": ["furniture_store", "home_goods_store", "point_of_interest", "store", "establishment"], "user_ratings_total": 78, "vicinity": "Camino Antiguo a Culhuacan 146, Estrella del Sur, Ciudad de M\u00e9xico"}, {"business_status": "OPERATIONAL", "geometry": {"location": {"lat": 19.3536644, "lng": -99.1032997}, "viewport": {"northeast": {"lat": 19.35503318029151, "lng": -99.10199206970849}, "southwest": {"lat": 19.3523352197085, "lng": -99.10469003029151}}}, "icon": "https://maps.gstatic.com/mapfiles/place_api/icons/v1/png_71/shopping-71.png", "name": "Industrias Llordec", "place_id": "ChIJsR-GaAj-0YURbX5bIHn-rHs", "plus_code": {"compound_code": "9V3W+FM Mexico City, CDMX, Mexico", "global_code": "76F29V3W+FM"}, "reference": "ChIJsR-GaAj-0YURbX5bIHn-rHs", "scope": "GOOGLE", "types": ["furniture_store", "home_goods_store", "point_of_interest", "store", "establishment"], "vicinity": "Arroz 56, Ciudad de M\u00e9xico"}, {"business_status": "OPERATIONAL", "geometry": {"location": {"lat": 19.3512289, "lng": -99.1066669}, "viewport": {"northeast": {"lat": 19.3525714802915, "lng": -99.1052769197085}, "southwest": {"lat": 19.3498735197085, "lng": -99.10797488029151}}}, "icon": "https://maps.gstatic.com/mapfiles/place_api/icons/v1/png_71/shopping-71.png", "name": "Aguiplast, S.A. de C.V.", "opening_hours": {"open_now": false}, "photos": [{"height": 3726, "html_attributions": ["<a href=\"https://maps.google.com/maps/contrib/114636192902742909158\">Aguiplast, S.A. de C.V.</a>"], "photo_reference": "CmRaAAAAvyBYY0tDCBlokfDWoF14wPYevSMxXJUaGlHxAZUVEYZYmfSpBEKBqqn6bvn9FRUTrf1gBBzJv2mc9c3y92RuKkzMYwCnfRxgWmjSvrHXv3ZFx4w38SxZo2RzF57yqkIrEhD9i9ZoO9fKkJZmUppOU0OJGhR8YsAOxsj4WMJLG3zEe3Za8xdzJA", "width": 2568}], "place_id": "ChIJ1ftk2wj-0YURCKSCNZY9LUA", "plus_code": {"compound_code": "9V2V+F8 Mexico City, CDMX, Mexico", "global_code": "76F29V2V+F8"}, "rating": 4.5, "reference": "ChIJ1ftk2wj-0YURCKSCNZY9LUA", "scope": "GOOGLE", "types": ["furniture_store", "home_goods_store", "point_of_interest", "store", "establishment"], "user_ratings_total": 29, "vicinity": "Avenida Tlahuac 145, Minerva, Ciudad de M\u00e9xico"}, {"business_status": "OPERATIONAL", "geometry": {"location": {"lat": 19.3506891, "lng": -99.10357800000001}, "viewport": {"northeast": {"lat": 19.35207813029151, "lng": -99.10256431970849}, "southwest": {"lat": 19.3493801697085, "lng": -99.10526228029151}}}, "icon": "https://maps.gstatic.com/mapfiles/place_api/icons/v1/png_71/generic_business-71.png", "name": "OCTANORM", "opening_hours": {"open_now": false}, "photos": [{"height": 2448, "html_attributions": ["<a href=\"https://maps.google.com/maps/contrib/111019827410767212128\">Viridiana Antele</a>"], "photo_reference": "CmRaAAAAwjsU3-yLqYM6ck__STOz_hE30grs3t4Qg-xtsQ_I8UAAXOMooIKpvCjotZwG8zDQMMdwC9-gCJ7rrC4hKfr_JLeUCVX_5tXrwP5SWQyf7DzITvNlcRgbu6usWsgwhaOgEhC1TE-dR_xu22cyQIpIksP_GhSu-rZnfoVJQmmr9zawnDmHUHjp2w", "width": 3264}], "place_id": "ChIJ6dKKrQv90YURmTA-2B0IJqA", "plus_code": {"compound_code": "9V2W+7H Mexico City, CDMX, Mexico", "global_code": "76F29V2W+7H"}, "rating": 4.6, "reference": "ChIJ6dKKrQv90YURmTA-2B0IJqA", "scope": "GOOGLE", "types": ["general_contractor", "point_of_interest", "store", "establishment"], "user_ratings_total": 39, "vicinity": "Vaqueros 74-A, Santa Isabel Industrial, Ciudad de M\u00e9xico"}, {"business_status": "OPERATIONAL", "geometry": {"location": {"lat": 19.3527792, "lng": -99.1038337}, "viewport": {"northeast": {"lat": 19.3541443802915, "lng": -99.10251766970848}, "southwest": {"lat": 19.3514464197085, "lng": -99.1052156302915}}}, "icon": "https://maps.gstatic.com/mapfiles/place_api/icons/v1/png_71/shopping-71.png", "name": "Janel Planta Arroz.", "photos": [{"height": 3136, "html_attributions": ["<a href=\"https://maps.google.com/maps/contrib/105362987384898225424\">RAUL TORRES CARRANZA</a>"], "photo_reference": "CmRaAAAA2EgIUJonYd6bOs8P7UCgpytZK5e5RXOhPBvEb6EsG9Ath4LdK0n-0BwTP98ZACHbyXrhNNiU2AjxPBYt5GCtX6m9hiHMG-tvH1YZOjtgsZqfEyRpaAv-vAVrt_YMTvqwEhApqx0fDrDG8HU-yTsTX0R3GhSqcRAOvNj_OfGFW8-9piSVc3Ut7Q", "width": 4224}], "place_id": "ChIJpUsifAj-0YURYohGUT7gKWo", "plus_code": {"compound_code": "9V3W+4F Mexico City, CDMX, Mexico", "global_code": "76F29V3W+4F"}, "rating": 3.7, "reference": "ChIJpUsifAj-0YURYohGUT7gKWo", "scope": "GOOGLE", "types": ["home_goods_store", "point_of_interest", "store", "establishment"], "user_ratings_total": 14, "vicinity": "Arroz 90, Santa Isabel Industrial, Ciudad de M\u00e9xico"}, {"business_status": "OPERATIONAL", "geometry": {"location": {"lat": 19.3498861, "lng": -99.1052825}, "viewport": {"northeast": {"lat": 19.3513502302915, "lng": -99.1040247697085}, "southwest": {"lat": 19.3486522697085, "lng": -99.10672273029151}}}, "icon": "https://maps.gstatic.com/mapfiles/place_api/icons/v1/png_71/restaurant-71.png", "name": "Mac'Ma Galletas", "opening_hours": {"open_now": false}, "photos": [{"height": 3024, "html_attributions": ["<a href=\"https://maps.google.com/maps/contrib/108089678610584515357\">Palm D</a>"], "photo_reference": "CmRaAAAApLI6c3CGFtx_lia_k0DolXbysm7sMbXzHdycjD-KpKHEtYY3wE7FYBx-7m58h_f2kydxZtiJGKLY_DFk-XuHMsRD3bLIsnYHVBIyK7ZSgaegohFsqfYVOo9l8MB8H4KSEhDv2whhHnbJxMLcqhiPh-ugGhQvk3EXE4sL5X8VKq5vieQj4ohieQ", "width": 4032}], "place_id": "ChIJI4ErZwb-0YURcBnIEUUjzd0", "plus_code": {"compound_code": "8VXV+XV Mexico City, CDMX, Mexico", "global_code": "76F28VXV+XV"}, "rating": 4.3, "reference": "ChIJI4ErZwb-0YURcBnIEUUjzd0", "scope": "GOOGLE", "types": ["bakery", "food", "point_of_interest", "store", "establishment"], "user_ratings_total": 526, "vicinity": "Arroz 180, Santa Isabel Industrial, Ciudad de M\u00e9xico"}, {"business_status": "OPERATIONAL", "geometry": {"location": {"lat": 19.3542046, "lng": -99.10456219999999}, "viewport": {"northeast": {"lat": 19.3556094302915, "lng": -99.10320301970849}, "southwest": {"lat": 19.35291146970849, "lng": -99.1059009802915}}}, "icon": "https://maps.gstatic.com/mapfiles/place_api/icons/v1/png_71/pharmacy-71.png", "name": "Ideal S.A. de C.V.", "place_id": "ChIJ9xC98Qj-0YURopYjyKeyIUs", "plus_code": {"compound_code": "9V3W+M5 Mexico City, CDMX, Mexico", "global_code": "76F29V3W+M5"}, "reference": "ChIJ9xC98Qj-0YURopYjyKeyIUs", "scope": "GOOGLE", "types": ["pharmacy", "health", "point_of_interest", "store", "establishment"], "vicinity": "Pastores 39, Santa Isabel Industrial, Ciudad de M\u00e9xico"}, {"business_status": "OPERATIONAL", "geometry": {"location": {"lat": 19.3536963, "lng": -99.1022789}, "viewport": {"northeast": {"lat": 19.3550643302915, "lng": -99.10098781970848}, "southwest": {"lat": 19.35236636970849, "lng": -99.1036857802915}}}, "icon": "https://maps.gstatic.com/mapfiles/place_api/icons/v1/png_71/shopping-71.png", "name": "Violeta Marisol Santander Maya", "place_id": "ChIJr32XFgj-0YUR17W4xfS5JYk", "plus_code": {"compound_code": "9V3X+F3 Mexico City, CDMX, Mexico", "global_code": "76F29V3X+F3"}, "reference": "ChIJr32XFgj-0YUR17W4xfS5JYk", "scope": "GOOGLE", "types": ["point_of_interest", "store", "establishment"], "vicinity": "Camino Antiguo a Culhuacan 61, Iztapalapa, Ciudad de M\u00e9xico"}, {"business_status": "OPERATIONAL", "geometry": {"location": {"lat": 19.3525875, "lng": -99.10649269999999}, "viewport": {"northeast": {"lat": 19.3539240802915, "lng": -99.10506891970849}, "southwest": {"lat": 19.3512261197085, "lng": -99.10776688029149}}}, "icon": "https://maps.gstatic.com/mapfiles/place_api/icons/v1/png_71/shopping-71.png", "name": "Bubble gummers", "opening_hours": {"open_now": true}, "photos": [{"height": 1836, "html_attributions": ["<a href=\"https://maps.google.com/maps/contrib/106633887143148898446\">Martin Alvarez</a>"], "photo_reference": "CmRaAAAAk9AwUM0wAT5vVuJd2kuu3nM5TcRRdjQh1LX3IqTlH1CIEh-u9xma4wItlqvjAqp1CgaU-xvaw3pyfnj6249hOfkxqzmkn8mwmW4RHu0XU3dpCXJFn2agkAZEtrbQcaWWEhCEpEyOpDO-PySqj_zQBf5xGhShuJMnM5iWyRlNYfYvg2kL8vs6MA", "width": 3264}], "place_id": "ChIJJae1Agb-0YUR-9J8iBsHGfI", "plus_code": {"compound_code": "9V3V+2C Mexico City, CDMX, Mexico", "global_code": "76F29V3V+2C"}, "rating": 4, "reference": "ChIJJae1Agb-0YUR-9J8iBsHGfI", "scope": "GOOGLE", "types": ["shoe_store", "point_of_interest", "store", "establishment"], "user_ratings_total": 624, "vicinity": "Avenida Tlahuac 105, Santa Isabel Industrial, Ciudad de M\u00e9xico"}, {"business_status": "OPERATIONAL", "geometry": {"location": {"lat": 19.353314, "lng": -99.105993}, "viewport": {"northeast": {"lat": 19.3546652302915, "lng": -99.1046868697085}, "southwest": {"lat": 19.3519672697085, "lng": -99.10738483029151}}}, "icon": "https://maps.gstatic.com/mapfiles/place_api/icons/v1/png_71/shopping-71.png", "name": "Principado S.A. de C.V \"Todo en un solo lugar\"", "opening_hours": {"open_now": false}, "photos": [{"height": 3024, "html_attributions": ["<a href=\"https://maps.google.com/maps/contrib/102625598414450948910\">Alejandro Torre</a>"], "photo_reference": "CmRaAAAAOlu6jxpLqblEEfHb59eDmZZ8H2BC2BcV0nWYtlQPhlYA4fUyEN7vTUh96OuPuNN78GHXV0uyvTzhD1TAMTWE2p9ax22_mY1EqCZBe6NDtPoBinLv-i6dGriE8U7XvxyNEhDmHHLAMBSFiCGFueSF4C5VGhQvyTOzDWaiY40s7WVV5ZrM88H9bA", "width": 4032}], "place_id": "ChIJc83W3gj-0YURB0CDt1Hathk", "plus_code": {"compound_code": "9V3V+8J Mexico City, CDMX, Mexico", "global_code": "76F29V3V+8J"}, "rating": 4.3, "reference": "ChIJc83W3gj-0YURB0CDt1Hathk", "scope": "GOOGLE", "types": ["storage", "food", "point_of_interest", "store", "establishment"], "user_ratings_total": 82, "vicinity": "Avenida Tlahuac 84a, Santa Isabel Industrial, Ciudad de M\u00e9xico"}, {"business_status": "OPERATIONAL", "geometry": {"location": {"lat": 19.35393999999999, "lng": -99.103011}, "viewport": {"northeast": {"lat": 19.3553301802915, "lng": -99.1016467697085}, "southwest": {"lat": 19.3526322197085, "lng": -99.1043447302915}}}, "icon": "https://maps.gstatic.com/mapfiles/place_api/icons/v1/png_71/shopping-71.png", "name": "QUELTRO S.A. DE C.V.", "opening_hours": {"open_now": false}, "photos": [{"height": 2254, "html_attributions": ["<a href=\"https://maps.google.com/maps/contrib/109771367623912697193\">Daniel Cruz Bautista</a>"], "photo_reference": "CmRaAAAAQ1469_oUsJSkvPlUtXX6Ytlw6jkGZ8DpnN90KWtkh9qr6LmltJJQJOr-k4oV9Rdfw28uT6TUvIrHpU7jUNkRL3KbKBjMtSlSz1oZ_fcXb3vEvn5bjeu5hO6ANivgzsM9EhCH3RKhpM0ZBDWsWrYGCIOnGhSAZuIJd1QxlZ5zN7LsC4ydFkt6MQ", "width": 3005}], "place_id": "ChIJDTrHXgj-0YUR5ERQij1TEIg", "plus_code": {"compound_code": "9V3W+HQ Mexico City, CDMX, Mexico", "global_code": "76F29V3W+HQ"}, "rating": 4.4, "reference": "ChIJDTrHXgj-0YUR5ERQij1TEIg", "scope": "GOOGLE", "types": ["point_of_interest", "store", "establishment"], "user_ratings_total": 21, "vicinity": "Pastores 73, Santa Isabel Industrial, Ciudad de M\u00e9xico"}, {"business_status": "OPERATIONAL", "geometry": {"location": {"lat": 19.354402, "lng": -99.104564}, "viewport": {"northeast": {"lat": 19.3557111302915, "lng": -99.10322231970851}, "southwest": {"lat": 19.3530131697085, "lng": -99.10592028029151}}}, "icon": "https://maps.gstatic.com/mapfiles/place_api/icons/v1/png_71/shopping-71.png", "name": "Mega Tableros Sa De Cv", "opening_hours": {"open_now": false}, "photos": [{"height": 640, "html_attributions": ["<a href=\"https://maps.google.com/maps/contrib/108178603444964757753\">Mega Tableros Sa De Cv</a>"], "photo_reference": "CmRaAAAAia0U20jdicTScZJPVIHBp19dxQEtwmsEjH9c3RgqhahJ4NbQIOFDfEuu1hSBg40HkJNFlg8v96PqDaXWAlLOv7nvQEIWVluLAWEfQNNbGwUTKmmeCgxyzFDCMAE2zUaKEhDG-4fVSXzMBctsnBoPLOqEGhRkAS7iZS6TZBod5I4A4EaPHcfcJg", "width": 480}], "place_id": "ChIJwXwyvQD_0YURFPcAF1zHHqI", "plus_code": {"compound_code": "9V3W+Q5 Mexico City, CDMX, Mexico", "global_code": "76F29V3W+Q5"}, "rating": 4.5, "reference": "ChIJwXwyvQD_0YURFPcAF1zHHqI", "scope": "GOOGLE", "types": ["home_goods_store", "general_contractor", "point_of_interest", "store", "establishment"], "user_ratings_total": 10, "vicinity": "Pastores 40, Santa Isabel Industrial, Ciudad de M\u00e9xico"}]