[{"business_status": "OPERATIONAL", "geometry": {"location": {"lat": 19.3508154, "lng": -99.10056569999999}, "viewport": {"northeast": {"lat": 19.3521604302915, "lng": -99.09920561970848}, "southwest": {"lat": 19.3494624697085, "lng": -99.1019035802915}}}, "icon": "https://maps.gstatic.com/mapfiles/place_api/icons/v1/png_71/shopping-71.png", "name": "ABARROTES VINOS Y LICORES EL TREBOL", "opening_hours": {"open_now": true}, "place_id": "ChIJYxvqaP390YUR2dUhbYi0oTY", "plus_code": {"compound_code": "9V2X+8Q Mexico City, CDMX, Mexico", "global_code": "76F29V2X+8Q"}, "rating": 5, "reference": "ChIJYxvqaP390YUR2dUhbYi0oTY", "scope": "GOOGLE", "types": ["convenience_store", "liquor_store", "food", "point_of_interest", "store", "establishment"], "user_ratings_total": 3, "vicinity": "Por Arroyo Tlaloc, Puentetitla 117, Estrella del Sur, Ciudad de M\u00e9xico"}, {"business_status": "OPERATIONAL", "geometry": {"location": {"lat": 19.349299, "lng": -99.10110460000001}, "viewport": {"northeast": {"lat": 19.3506735802915, "lng": -99.0997446197085}, "southwest": {"lat": 19.3479756197085, "lng": -99.10244258029151}}}, "icon": "https://maps.gstatic.com/mapfiles/place_api/icons/v1/png_71/pharmacy-71.png", "name": "FARMACIA", "opening_hours": {"open_now": true}, "place_id": "ChIJi9VkqOIBzoURHZTSO03l2M4", "plus_code": {"compound_code": "8VXX+PH Mexico City, CDMX, Mexico", "global_code": "76F28VXX+PH"}, "reference": "ChIJi9VkqOIBzoURHZTSO03l2M4", "scope": "GOOGLE", "types": ["pharmacy", "health", "point_of_interest", "store", "establishment"], "vicinity": "Esquina Puente Titla, Tonatiuh, Estrella del Sur, Ciudad de M\u00e9xico"}, {"business_status": "OPERATIONAL", "geometry": {"location": {"lat": 19.3490297, "lng": -99.1008615}, "viewport": {"northeast": {"lat": 19.3503651302915, "lng": -99.09947971970848}, "southwest": {"lat": 19.34766716970849, "lng": -99.1021776802915}}}, "icon": "https://maps.gstatic.com/mapfiles/place_api/icons/v1/png_71/pharmacy-71.png", "name": "FARMACIA IDEAL", "opening_hours": {"open_now": true}, "place_id": "ChIJmU-Yhf390YURihTPPW2M5kk", "plus_code": {"compound_code": "8VXX+JM Mexico City, CDMX, Mexico", "global_code": "76F28VXX+JM"}, "reference": "ChIJmU-Yhf390YURihTPPW2M5kk", "scope": "GOOGLE", "types": ["pharmacy", "health", "point_of_interest", "store", "establishment"], "vicinity": "Mz 32 Lt 2, Netzahualpilli, Estrella del Sur, Ciudad de M\u00e9xico"}, {"business_status": "OPERATIONAL", "geometry": {"location": {"lat": 19.3488736, "lng": -99.1070932}, "viewport": {"northeast": {"lat": 19.3502137802915, "lng": -99.1057017197085}, "southwest": {"lat": 19.34751581970849, "lng": -99.10839968029151}}}, "icon": "https://maps.gstatic.com/mapfiles/place_api/icons/v1/png_71/shopping-71.png", "name": "Smart Glass", "opening_hours": {"open_now": false}, "photos": [{"height": 4160, "html_attributions": ["<a href=\"https://maps.google.com/maps/contrib/109624314618707754034\">Mario Galvan</a>"], "photo_reference": "CmRaAAAAVCkw4VJN3xtv5CfwX6m1YeUWstUxZiywCbhGdelQmwQ12KwAkeCH04UoDCxkscX2SJ34ysKGvvL-B-i8cmnKFPV5R4jn_mqfn2Qbaa4UpMFez3tL5n1GieSLf8ESZA5_EhDR2Inxe-fbdMtjMwldbPn0GhRm3c0qduTH7MNBIeSnCBVLO7k9pA", "width": 3120}], "place_id": "ChIJvQtwKQT-0YURCs3OM0DjW8Y", "plus_code": {"compound_code": "8VXV+G5 Mexico City, CDMX, Mexico", "global_code": "76F28VXV+G5"}, "rating": 3.6, "reference": "ChIJvQtwKQT-0YURCs3OM0DjW8Y", "scope": "GOOGLE", "types": ["point_of_interest", "store", "establishment"], "user_ratings_total": 35, "vicinity": "Avenida Tlahuac 205, Minerva, Ciudad de M\u00e9xico"}, {"business_status": "OPERATIONAL", "geometry": {"location": {"lat": 19.347457, "lng": -99.10335900000001}, "viewport": {"northeast": {"lat": 19.3488138302915, "lng": -99.1020424697085}, "southwest": {"lat": 19.34611586970849, "lng": -99.1047404302915}}}, "icon": "https://maps.gstatic.com/mapfiles/place_api/icons/v1/png_71/pharmacy-71.png", "name": "Farmcia el Angel", "opening_hours": {"open_now": true}, "place_id": "ChIJ6RHSOgf-0YURdPeB80-rlyE", "plus_code": {"compound_code": "8VWW+XM Mexico City, CDMX, Mexico", "global_code": "76F28VWW+XM"}, "rating": 5, "reference": "ChIJ6RHSOgf-0YURdPeB80-rlyE", "scope": "GOOGLE", "types": ["pharmacy", "health", "point_of_interest", "store", "establishment"], "user_ratings_total": 1, "vicinity": "Axayacatl MZ 21 Lt 3, Los Reyes Culhuacan, Iztapalapa"}, {"business_status": "OPERATIONAL", "geometry": {"location": {"lat": 19.3548708, "lng": -99.10502319999999}, "viewport": {"northeast": {"lat": 19.3559885802915, "lng": -99.1037165197085}, "southwest": {"lat": 19.3532906197085, "lng": -99.1064144802915}}}, "icon": "https://maps.gstatic.com/mapfiles/place_api/icons/v1/png_71/generic_business-71.png", "name": "Industias Caisa S.A. de C.V.", "opening_hours": {"open_now": false}, "photos": [{"height": 2736, "html_attributions": ["<a href=\"https://maps.google.com/maps/contrib/106858961397974164888\">Industrial Caisa S. A. de C. V.</a>"], "photo_reference": "CmRaAAAAFOkV2TL_A_pM81qLhqldAurf32Qdr0zvwUIbYo-AxowNFDPmC80LUNaunvYkn63Gt4vN0Tr3s_OksrGOSCau_hgEQj6PkrA4GxxKcM5oYOW4jXjdrir2dV9sQAH09XkYEhDQQbqJLxitv2-bdTKvyhpWGhTFMFESoGt6gNwhi1mQlX8_ynRWBw", "width": 2736}], "place_id": "ChIJN_e_Kgn-0YUREuGvKSn1CMo", "plus_code": {"compound_code": "9V3V+WX Mexico City, CDMX, Mexico", "global_code": "76F29V3V+WX"}, "rating": 5, "reference": "ChIJN_e_Kgn-0YUREuGvKSn1CMo", "scope": "GOOGLE", "types": ["furniture_store", "home_goods_store", "point_of_interest", "store", "establishment"], "user_ratings_total": 2, "vicinity": "Pastores #16 Col, Santa Isabel Industrial, Ciudad de M\u00e9xico"}, {"business_status": "OPERATIONAL", "geometry": {"location": {"lat": 19.3482267, "lng": -99.10128379999999}, "viewport": {"northeast": {"lat": 19.3495632802915, "lng": -99.09986926970849}, "southwest": {"lat": 19.3468653197085, "lng": -99.1025672302915}}}, "icon": "https://maps.gstatic.com/mapfiles/place_api/icons/v1/png_71/shopping-71.png", "name": "Tienda La Jarocha", "opening_hours": {"open_now": true}, "place_id": "ChIJg5Tbiv390YURN3kBnqV2kj8", "plus_code": {"compound_code": "8VXX+7F Mexico City, CDMX, Mexico", "global_code": "76F28VXX+7F"}, "reference": "ChIJg5Tbiv390YURN3kBnqV2kj8", "scope": "GOOGLE", "types": ["convenience_store", "food", "point_of_interest", "store", "establishment"], "vicinity": "Netzahualpilli 105, Estrella del Sur, Ciudad de M\u00e9xico"}, {"business_status": "OPERATIONAL", "geometry": {"location": {"lat": 19.354771, "lng": -99.10565600000001}, "viewport": {"northeast": {"lat": 19.3561326302915, "lng": -99.10438256970849}, "southwest": {"lat": 19.3534346697085, "lng": -99.1070805302915}}}, "icon": "https://maps.gstatic.com/mapfiles/place_api/icons/v1/png_71/shopping-71.png", "name": "Comercial Industrial y Automotriz", "place_id": "ChIJbRTO3gj-0YURmII2jPobjQM", "plus_code": {"compound_code": "9V3V+WP Mexico City, CDMX, Mexico", "global_code": "76F29V3V+WP"}, "reference": "ChIJbRTO3gj-0YURmII2jPobjQM", "scope": "GOOGLE", "types": ["car_repair", "point_of_interest", "store", "establishment"], "vicinity": "Avenida Tlahuac 149, Ciudad de M\u00e9xico"}, {"business_status": "OPERATIONAL", "geometry": {"location": {"lat": 19.3549426, "lng": -99.1056053}, "viewport": {"northeast": {"lat": 19.3563057302915, "lng": -99.10434076970849}, "southwest": {"lat": 19.35360776970849, "lng": -99.10703873029149}}}, "icon": "https://maps.gstatic.com/mapfiles/place_api/icons/v1/png_71/shopping-71.png", "name": "Aditivo Tlahuac", "opening_hours": {"open_now": true}, "photos": [{"height": 4160, "html_attributions": ["<a href=\"https://maps.google.com/maps/contrib/101929251624451429289\">Aditivo Tlahuac</a>"], "photo_reference": "CmRaAAAASysQ6g_W-mB1VGQVtijgCXIY96cK5-ClL85DU4sVM1iynO7_ald6JWsb7AyvFDFb0Ge_wRyt6GM8reVzwfIgYCJO-hEZWkxz7RvsxoEnP2DZsFKss53853iNfmGu2bheEhBEwnQRcyn_Mtck_7hhIhPpGhSQpuRbPROKMmcUQtynWz77xXsKYQ", "width": 3120}], "place_id": "ChIJW3dNLBj_0YURp7kPBDEonzQ", "plus_code": {"compound_code": "9V3V+XQ Mexico City, CDMX, Mexico", "global_code": "76F29V3V+XQ"}, "rating": 4.1, "reference": "ChIJW3dNLBj_0YURp7kPBDEonzQ", "scope": "GOOGLE", "types": ["clothing_store", "point_of_interest", "store", "establishment"], "user_ratings_total": 81, "vicinity": "Avenida Tlahuac 46, Santa Isabel Industrial, Ciudad de M\u00e9xico"}, {"business_status": "OPERATIONAL", "geometry": {"location": {"lat": 19.3549514, "lng": -99.10563619999999}, "viewport": {"northeast": {"lat": 19.3563118802915, "lng": -99.1043559197085}, "southwest": {"lat": 19.35361391970849, "lng": -99.1070538802915}}}, "icon": "https://maps.gstatic.com/mapfiles/place_api/icons/v1/png_71/shopping-71.png", "name": "Vianney Iztapalapa", "opening_hours": {"open_now": true}, "photos": [{"height": 3072, "html_attributions": ["<a href=\"https://maps.google.com/maps/contrib/103303984605932301423\">Emmanuel Ch\u00e1vez Mayoral</a>"], "photo_reference": "CmRaAAAAbBg3MpXLYf1KwnvPKTJNxf3rMDP5bfDz2peD-KayRZT0-XezACt37H0ue-9qc6z4usxa2QEmRnk8CbWsWD7FMYo4J_iiqb0s8udCf0Byk7iKxQCPrBSeNblsWXuYDm-nEhBitvBO2oU1LyNf60cORetyGhQXbcTN1FKPfzKrlO5-LqWDKVTBHQ", "width": 4096}], "place_id": "ChIJNwal2Aj-0YUR-PswkAjqeUQ", "plus_code": {"compound_code": "9V3V+XP Mexico City, CDMX, Mexico", "global_code": "76F29V3V+XP"}, "rating": 4, "reference": "ChIJNwal2Aj-0YUR-PswkAjqeUQ", "scope": "GOOGLE", "types": ["home_goods_store", "point_of_interest", "store", "establishment"], "user_ratings_total": 162, "vicinity": "Avenida Tlahuac 46, Santa Isabel Industrial, Ciudad de M\u00e9xico"}, {"business_status": "OPERATIONAL", "geometry": {"location": {"lat": 19.348683, "lng": -99.1043959}, "viewport": {"northeast": {"lat": 19.3500138302915, "lng": -99.1030047197085}, "southwest": {"lat": 19.3473158697085, "lng": -99.10570268029151}}}, "icon": "https://maps.gstatic.com/mapfiles/place_api/icons/v1/png_71/shopping-71.png", "name": "Industria Nacional De Alumbrado Y Herrajes, S.A. De C.V.", "opening_hours": {"open_now": false}, "photos": [{"height": 2592, "html_attributions": ["<a href=\"https://maps.google.com/maps/contrib/103765783671581432688\">Sixto V L\u00f3pez</a>"], "photo_reference": "CmRaAAAA5TdBe0mBGaVuNGppyE-zoduZBYmOlL-F67s5pZEhmg3ucnxIsDp_PvXq0M5w41g3-tuZip6cJ70vQNRRmaMmM6wpLv1MvFooeyuTJaNzN_Xvn0rvt4kHBI2DGtsK60TaEhBm395LJyyrNadq4jHb9i_lGhQ5AWdjgAESIkXwLbmBfsJjA0qVNg", "width": 4608}], "place_id": "ChIJFZQ14wb-0YURnMMilgKv76M", "plus_code": {"compound_code": "8VXW+F6 Mexico City, CDMX, Mexico", "global_code": "76F28VXW+F6"}, "rating": 3.6, "reference": "ChIJFZQ14wb-0YURnMMilgKv76M", "scope": "GOOGLE", "types": ["home_goods_store", "point_of_interest", "store", "establishment"], "user_ratings_total": 12, "vicinity": "Camino Antiguo a Culhuacan 239, Santa Isabel Industrial, Ciudad de M\u00e9xico"}, {"business_status": "OPERATIONAL", "geometry": {"location": {"lat": 19.3479178, "lng": -99.1012719}, "viewport": {"northeast": {"lat": 19.3492624802915, "lng": -99.09989896970849}, "southwest": {"lat": 19.3465645197085, "lng": -99.1025969302915}}}, "icon": "https://maps.gstatic.com/mapfiles/place_api/icons/v1/png_71/shopping-71.png", "name": "Distribuidora Citlahtl", "opening_hours": {"open_now": false}, "photos": [{"height": 2773, "html_attributions": ["<a href=\"https://maps.google.com/maps/contrib/113187150176333431015\">Distribuidora Citlahtl</a>"], "photo_reference": "CmRaAAAAo3A5RXKzV19d67I-NAK5aJtak0mlZrwetSflCHIfNgP111snxte77h9JpzbQH1K83clwjW8BOa2mrJYWJE_nV4K2-5H_WVWOYQ6A35dlrgkTQ3aeBbl6sMdpIpyy5-7yEhDFg2Lwvg6mn55um_XJ8YzYGhSIF1gSU1kP6pnPGZmo-oO9VHkQPw", "width": 4930}], "place_id": "ChIJ8ZHW9f390YURZlWAeq4mEQs", "plus_code": {"compound_code": "8VXX+5F Mexico City, CDMX, Mexico", "global_code": "76F28VXX+5F"}, "rating": 4.5, "reference": "ChIJ8ZHW9f390YURZlWAeq4mEQs", "scope": "GOOGLE", "types": ["food", "point_of_interest", "store", "establishment"], "user_ratings_total": 56, "vicinity": "Netzahualpilli 110, Estrella del Sur, Ciudad de M\u00e9xico"}, {"business_status": "OPERATIONAL", "geometry": {"location": {"lat": 19.3550601, "lng": -99.1056828}, "viewport": {"northeast": {"lat": 19.3564151302915, "lng": -99.1043700197085}, "southwest": {"lat": 19.3537171697085, "lng": -99.1070679802915}}}, "icon": "https://maps.gstatic.com/mapfiles/place_api/icons/v1/png_71/shopping-71.png", "name": "Ilusi\u00f3n", "opening_hours": {"open_now": true}, "photos": [{"height": 304, "html_attributions": ["<a href=\"https://maps.google.com/maps/contrib/101040081098098770660\">Ilusi\u00f3n\u00ae Iztapalapa</a>"], "photo_reference": "CmRaAAAABUHl1HWKRfLU1_9OfnP_tiei6UF6IeiF24pi6G8jBcN4QcRF3-lv9KXbfXHDeRRv15iuNbi2oK5Cc8ca8h3wy_7JtG7wXjEH9auLHi0pLLUlq5SmoFRI84e0RIPlm_b2EhDILHdV_VFmWXGbd_tpOPjBGhQjsf8UKa18J72sCBaBl0vX1K1WxQ", "width": 253}], "place_id": "ChIJHfQoJwn-0YURUVjpoBHQpOw", "plus_code": {"compound_code": "9V4V+2P Santa Isabel Industrial, Mexico City, CDMX, Mexico", "global_code": "76F29V4V+2P"}, "rating": 3, "reference": "ChIJHfQoJwn-0YURUVjpoBHQpOw", "scope": "GOOGLE", "types": ["clothing_store", "point_of_interest", "store", "establishment"], "user_ratings_total": 154, "vicinity": "Av. Tl\u00e1huac No.46 B-2 Col, Santa Isabel Industrial, Iztapalapa"}, {"business_status": "OPERATIONAL", "geometry": {"location": {"lat": 19.3551211, "lng": -99.10554189999999}, "viewport": {"northeast": {"lat": 19.3564866302915, "lng": -99.10429186970849}, "southwest": {"lat": 19.3537886697085, "lng": -99.10698983029151}}}, "icon": "https://maps.gstatic.com/mapfiles/place_api/icons/v1/png_71/shopping-71.png", "name": "Elefantito Hogar Tlahuac", "opening_hours": {"open_now": false}, "place_id": "ChIJJa8C3wj-0YURVs88toJRjs0", "plus_code": {"compound_code": "9V4V+2Q Mexico City, CDMX, Mexico", "global_code": "76F29V4V+2Q"}, "rating": 3.8, "reference": "ChIJJa8C3wj-0YURVs88toJRjs0", "scope": "GOOGLE", "types": ["home_goods_store", "point_of_interest", "store", "establishment"], "user_ratings_total": 8, "vicinity": "Av Tlahuac, Entre Calle Pastores y Eje 8 Sur (Calz. Ermita Iztapalapa) 20, Santa Isabel Industrial, Ciudad de M\u00e9xico"}, {"business_status": "OPERATIONAL", "geometry": {"location": {"lat": 19.3525875, "lng": -99.10649269999999}, "viewport": {"northeast": {"lat": 19.3539240802915, "lng": -99.10506891970849}, "southwest": {"lat": 19.3512261197085, "lng": -99.10776688029149}}}, "icon": "https://maps.gstatic.com/mapfiles/place_api/icons/v1/png_71/shopping-71.png", "name": "Calzado Sandak", "opening_hours": {"open_now": true}, "photos": [{"height": 3024, "html_attributions": ["<a href=\"https://maps.google.com/maps/contrib/115816156602687880207\">victor moreno</a>"], "photo_reference": "CmRaAAAAQARl9IbUyOSN3Cul1mM0BToNi9FKXe1GJHzbSlri9r7wyFNyBc06beLZ-iwIqV-FY4nTpur_oyWMcbaJsyDCh6Zl9H8Ed_fK3sriaEVTAZAgdTOrmAIdMr15RzmOxekFEhBE-ZiW9cPZAs9IWo1VHGERGhQv5QnccO-vHL_5XOyhrtWKvC3B0g", "width": 4032}], "place_id": "ChIJVfrpaHT-0YURtSYdO_JnmbY", "plus_code": {"compound_code": "9V3V+2C Mexico City, CDMX, Mexico", "global_code": "76F29V3V+2C"}, "rating": 4.2, "reference": "ChIJVfrpaHT-0YURtSYdO_JnmbY", "scope": "GOOGLE", "types": ["shoe_store", "point_of_interest", "store", "establishment"], "user_ratings_total": 141, "vicinity": "Avenida Tlahuac 105, Santa Isabel Industrial, Ciudad de M\u00e9xico"}, {"business_status": "OPERATIONAL", "geometry": {"location": {"lat": 19.3488079, "lng": -99.10614819999999}, "viewport": {"northeast": {"lat": 19.35017678029151, "lng": -99.1048411697085}, "southwest": {"lat": 19.3474788197085, "lng": -99.1075391302915}}}, "icon": "https://maps.gstatic.com/mapfiles/place_api/icons/v1/png_71/shopping-71.png", "name": "Consorcio Papelero", "place_id": "ChIJyWK0ZBD-0YURyV9qvWFr0tI", "plus_code": {"compound_code": "8VXV+GG Mexico City, CDMX, Mexico", "global_code": "76F28VXV+GG"}, "rating": 4.2, "reference": "ChIJyWK0ZBD-0YURyV9qvWFr0tI", "scope": "GOOGLE", "types": ["point_of_interest", "store", "establishment"], "user_ratings_total": 13, "vicinity": "Arroz 226A, Santa Isabel Industrial, Ciudad de M\u00e9xico"}, {"business_status": "OPERATIONAL", "geometry": {"location": {"lat": 19.3515605, "lng": -99.10470989999999}, "viewport": {"northeast": {"lat": 19.3528928802915, "lng": -99.10332941970849}, "southwest": {"lat": 19.3501949197085, "lng": -99.10602738029151}}}, "icon": "https://maps.gstatic.com/mapfiles/place_api/icons/v1/png_71/shopping-71.png", "name": "Aacabado Editorial Incorporado", "place_id": "ChIJd1u9hQb-0YUReZTgfhTyNm4", "plus_code": {"compound_code": "9V2W+J4 Mexico City, CDMX, Mexico", "global_code": "76F29V2W+J4"}, "reference": "ChIJd1u9hQb-0YUReZTgfhTyNm4", "scope": "GOOGLE", "types": ["book_store", "point_of_interest", "store", "establishment"], "vicinity": "Arroz 226, Santa Isabel Industrial, Ciudad de M\u00e9xico"}, {"business_status": "OPERATIONAL", "geometry": {"location": {"lat": 19.3521373, "lng": -99.10466249999999}, "viewport": {"northeast": {"lat": 19.3535219802915, "lng": -99.1033065197085}, "southwest": {"lat": 19.3508240197085, "lng": -99.10600448029152}}}, "icon": "https://maps.gstatic.com/mapfiles/place_api/icons/v1/png_71/shopping-71.png", "name": "Resistencias Electricas", "place_id": "ChIJUcYzJgb-0YURAVIAdQ00EnI", "plus_code": {"compound_code": "9V2W+V4 Mexico City, CDMX, Mexico", "global_code": "76F29V2W+V4"}, "reference": "ChIJUcYzJgb-0YURAVIAdQ00EnI", "scope": "GOOGLE", "types": ["point_of_interest", "store", "establishment"], "vicinity": "Campesinos 407, Santa Isabel Industrial, Ciudad de M\u00e9xico"}, {"business_status": "OPERATIONAL", "geometry": {"location": {"lat": 19.3504763, "lng": -99.10268950000001}, "viewport": {"northeast": {"lat": 19.3518801802915, "lng": -99.1013188197085}, "southwest": {"lat": 19.3491822197085, "lng": -99.1040167802915}}}, "icon": "https://maps.gstatic.com/mapfiles/place_api/icons/v1/png_71/shopping-71.png", "name": "Ferrecapital", "place_id": "ChIJAQAwlgf-0YUR981u04nkul0", "reference": "ChIJAQAwlgf-0YUR981u04nkul0", "scope": "GOOGLE", "types": ["point_of_interest", "store", "establishment"], "vicinity": "Antiguo Camino Culhuacan # 160, Col, Santa Isabel Industrial"}, {"business_status": "OPERATIONAL", "geometry": {"location": {"lat": 19.3523351, "lng": -99.1049352}, "viewport": {"northeast": {"lat": 19.3536418302915, "lng": -99.10356526970848}, "southwest": {"lat": 19.3509438697085, "lng": -99.1062632302915}}}, "icon": "https://maps.gstatic.com/mapfiles/place_api/icons/v1/png_71/shopping-71.png", "name": "Distrbuidora y Comercializadora de Textiles", "place_id": "ChIJExpinQj-0YURfWkA6KK9r1M", "plus_code": {"compound_code": "9V2W+W2 Mexico City, CDMX, Mexico", "global_code": "76F29V2W+W2"}, "reference": "ChIJExpinQj-0YURfWkA6KK9r1M", "scope": "GOOGLE", "types": ["home_goods_store", "point_of_interest", "store", "establishment"], "vicinity": "Campesinos 406, Santa Isabel Industrial, Ciudad de M\u00e9xico"}]