[{"business_status": "OPERATIONAL", "formatted_address": "Av. Tlahuac 250, Santa Isabel Industrial, Iztapalapa, 09820 Ciudad de M\u00e9xico, CDMX", "geometry": {"location": {"lat": 19.347635, "lng": -99.10683309999999}, "viewport": {"northeast": {"lat": 19.34900617989272, "lng": -99.10560907010728}, "southwest": {"lat": 19.34630652010728, "lng": -99.10830872989271}}}, "icon": "https://maps.gstatic.com/mapfiles/place_api/icons/v1/png_71/shopping-71.png", "name": "Bodega Aurrera Express Santa Isabel", "opening_hours": {"open_now": true}, "photos": [{"height": 480, "html_attributions": ["<a href=\"https://maps.google.com/maps/contrib/107994284422582088412\">A Google User</a>"], "photo_reference": "CmRaAAAAXilTF2PVYIQsGmyX74qsiZugMdmODjgCxC2lfPPuIJ81lAicpdzj4Na_05gfJxrqJXIr9OWGPKzheVnbskiABN-0xmoMA9CIK1O9A__NVzmFMJ02UH2nbCDPwvMexBisEhBRIpV75dqPeC17h-1hF5PoGhSJKqQ8J3suSBrfpxOVsrQKFn6WjQ", "width": 640}], "place_id": "ChIJN5E7Rd__0YURZJ4c5n8c_-c", "plus_code": {"compound_code": "8VXV+37 Mexico City", "global_code": "76F28VXV+37"}, "rating": 3.8, "reference": "ChIJN5E7Rd__0YURZJ4c5n8c_-c", "types": ["supermarket", "grocery_or_supermarket", "food", "point_of_interest", "store", "establishment"], "user_ratings_total": 304}, {"business_status": "OPERATIONAL", "formatted_address": "09820, Pastores 58, Santa Isabel Industrial, Iztapalapa, Ciudad de M\u00e9xico, CDMX", "geometry": {"location": {"lat": 19.3543442, "lng": -99.1042449}, "viewport": {"northeast": {"lat": 19.35565702989272, "lng": -99.10290182010728}, "southwest": {"lat": 19.35295737010728, "lng": -99.10560147989271}}}, "icon": "https://maps.gstatic.com/mapfiles/place_api/icons/v1/png_71/shopping-71.png", "name": "ENTRADA AT&T y Personal Bodega Aurrera", "place_id": "ChIJa_189gj-0YURAE6nzcnsXxs", "plus_code": {"compound_code": "9V3W+P8 Mexico City", "global_code": "76F29V3W+P8"}, "rating": 3, "reference": "ChIJa_189gj-0YURAE6nzcnsXxs", "types": ["supermarket", "grocery_or_supermarket", "food", "point_of_interest", "store", "establishment"], "user_ratings_total": 1}, {"business_status": "OPERATIONAL", "formatted_address": "Sur 125 181, Los Cipreses, Iztapalapa, 09810 Ciudad de M\u00e9xico, CDMX", "geometry": {"location": {"lat": 19.3498468, "lng": -99.1088374}, "viewport": {"northeast": {"lat": 19.35120727989272, "lng": -99.10764822010728}, "southwest": {"lat": 19.34850762010728, "lng": -99.11034787989271}}}, "icon": "https://maps.gstatic.com/mapfiles/place_api/icons/v1/png_71/shopping-71.png", "name": "Mercado", "opening_hours": {"open_now": false}, "place_id": "ChIJ1z4g0Rz_0YURM1UH3qXNlt4", "plus_code": {"compound_code": "8VXR+WF Mexico City", "global_code": "76F28VXR+WF"}, "rating": 4, "reference": "ChIJ1z4g0Rz_0YURM1UH3qXNlt4", "types": ["supermarket", "grocery_or_supermarket", "food", "point_of_interest", "store", "establishment"], "user_ratings_total": 1}, {"business_status": "OPERATIONAL", "formatted_address": "Ermita Iztapalapa, Santa Isabel Industrial, Iztapalapa, 09820 Ciudad de M\u00e9xico, CDMX", "geometry": {"location": {"lat": 19.3550993, "lng": -99.1024628}, "viewport": {"northeast": {"lat": 19.35678392989272, "lng": -99.10109812010728}, "southwest": {"lat": 19.35408427010728, "lng": -99.10379777989273}}}, "icon": "https://maps.gstatic.com/mapfiles/place_api/icons/v1/png_71/shopping-71.png", "name": "Waldo's Atlalilco Iztapalapa (DF)", "opening_hours": {"open_now": true}, "photos": [{"height": 1836, "html_attributions": ["<a href=\"https://maps.google.com/maps/contrib/118332487253433885918\">Miguel Molina Anaya</a>"], "photo_reference": "CmRaAAAA0lgPVBCDs8rGJczylXhVLSSCBrxvjSMs9QZakBv0aUj5m5YyqQLzb7jQ_9q7jrPN4BC-EXehzDSWJ1f92OrXD9uCiOlkHKNBu_AU4Pe12c4FuQ62lEt2mT3P29swkyDeEhBiNK6pml-EdiU-FrR8OhOqGhS1WoUlM5g5JdW5NN47LsqE24_xmw", "width": 3264}], "place_id": "ChIJX47aMwj-0YURhzEpng38gAA", "plus_code": {"compound_code": "9V4X+22 Mexico City", "global_code": "76F29V4X+22"}, "rating": 4.1, "reference": "ChIJX47aMwj-0YURhzEpng38gAA", "types": ["supermarket", "grocery_or_supermarket", "food", "point_of_interest", "store", "establishment"], "user_ratings_total": 454}, {"business_status": "OPERATIONAL", "formatted_address": "Av. Tlahuac 328B, Zona Urbana Ejidal los Reyes Culhuacan, Iztapalapa, 09840 Ciudad de M\u00e9xico, CDMX", "geometry": {"location": {"lat": 19.3474759, "lng": -99.1070639}, "viewport": {"northeast": {"lat": 19.34882962989272, "lng": -99.10573827010727}, "southwest": {"lat": 19.34612997010728, "lng": -99.10843792989272}}}, "icon": "https://maps.gstatic.com/mapfiles/place_api/icons/v1/png_71/shopping-71.png", "name": "Bodega Aurrera express 1637 Sta. Isabel", "opening_hours": {"open_now": true}, "photos": [{"height": 4160, "html_attributions": ["<a href=\"https://maps.google.com/maps/contrib/116669673716403419586\">A Google User</a>"], "photo_reference": "CmRaAAAAz0hHT9SUBZTqxs3RUEov_xx6lQV-eoGMup_iABdv7apki-ioY3xsNf32Se2zcZPS5Sb50Lqa3z9Kws6VTcUFubyivjuWQmkLV_ycxXZXuNhvV4tnqA7X_E326WM7M4jPEhDDOM3mUpEBq0Ou3VRCcpOjGhTbPVOsm9VUu994YIf_OAzhnEua_A", "width": 3120}], "place_id": "ChIJJySHHgT-0YUR-yAZWjDrnT8", "plus_code": {"compound_code": "8VWV+X5 Mexico City", "global_code": "76F28VWV+X5"}, "rating": 3.8, "reference": "ChIJJySHHgT-0YUR-yAZWjDrnT8", "types": ["supermarket", "grocery_or_supermarket", "food", "point_of_interest", "store", "establishment"], "user_ratings_total": 130}, {"business_status": "OPERATIONAL", "formatted_address": "Esquina Pastores, Privada Ermita Iztapalapa, Amp Ricardo Flores Mag\u00f3n, Iztapalapa, 09828 Ciudad de M\u00e9xico, CDMX", "geometry": {"location": {"lat": 19.353166, "lng": -99.1004823}, "viewport": {"northeast": {"lat": 19.35450577989272, "lng": -99.09910092010729}, "southwest": {"lat": 19.35180612010727, "lng": -99.10180057989274}}}, "icon": "https://maps.gstatic.com/mapfiles/place_api/icons/v1/png_71/shopping-71.png", "name": "ABARROTES LA ESPERANZA", "opening_hours": {"open_now": true}, "photos": [{"height": 4032, "html_attributions": ["<a href=\"https://maps.google.com/maps/contrib/101250040653924857939\">A Google User</a>"], "photo_reference": "CmRaAAAAXuILkPcTJ8UGRHCo2FTwW88VnF9RJfw65wZwWdjtJRMvOCkTBj7DlYIOi7vSszp4GxUcu-PFJXlrrfCIty_iUlfFyOitH1Bwo_oNTihKNztAWWngP8jf3ga9L7CNvOSEEhCcJWFFEcSh3H_BJ97DggOBGhThni2fwH2jZDU7zHEZe3QViAZATw", "width": 2268}], "place_id": "ChIJ6bD8sOL90YURVEAq4702_9k", "plus_code": {"compound_code": "9V3X+7R Mexico City", "global_code": "76F29V3X+7R"}, "rating": 0, "reference": "ChIJ6bD8sOL90YURVEAq4702_9k", "types": ["supermarket", "convenience_store", "grocery_or_supermarket", "food", "point_of_interest", "store", "establishment"], "user_ratings_total": 0}, {"business_status": "OPERATIONAL", "formatted_address": "Zona Urbana Ejidal los Reyes Culhuacan, Iztapalapa, 09840 Mexico City", "geometry": {"location": {"lat": 19.3475337, "lng": -99.1060983}, "viewport": {"northeast": {"lat": 19.34887527989272, "lng": -99.10471417010729}, "southwest": {"lat": 19.34617562010728, "lng": -99.10741382989274}}}, "icon": "https://maps.gstatic.com/mapfiles/place_api/icons/v1/png_71/shopping-71.png", "name": "Super Tienda Tega", "opening_hours": {"open_now": true}, "place_id": "ChIJ5S-R_HL_0YURSF7NKlO1ZZU", "plus_code": {"compound_code": "8VXV+2H Mexico City", "global_code": "76F28VXV+2H"}, "rating": 3, "reference": "ChIJ5S-R_HL_0YURSF7NKlO1ZZU", "types": ["supermarket", "grocery_or_supermarket", "food", "point_of_interest", "store", "establishment"], "user_ratings_total": 2}, {"business_status": "OPERATIONAL", "formatted_address": "Iztapalapa Av, Ermita Iztapalapa 875, Santa Isabel Industrial, Iztapalapa, 09820 Ciudad de M\u00e9xico, CDMX", "geometry": {"location": {"lat": 19.3547668, "lng": -99.1039752}, "viewport": {"northeast": {"lat": 19.35667297989272, "lng": -99.10257057010728}, "southwest": {"lat": 19.35397332010728, "lng": -99.10527022989272}}}, "icon": "https://maps.gstatic.com/mapfiles/place_api/icons/v1/png_71/shopping-71.png", "name": "Bodega Aurrera Iztapalapa", "opening_hours": {"open_now": true}, "photos": [{"height": 1280, "html_attributions": ["<a href=\"https://maps.google.com/maps/contrib/117407012690995399430\">A Google User</a>"], "photo_reference": "CmRaAAAA1GkiJJU3iRhxNvJ4oYxsTx9IxGMI34ldo_OF86SYPqTKH47tTg2Onut9TMV72amlVyNQxwEUZ-PE2UJsyg5robRRvnF6oYlwBXJnPZPS8DTjvuSipJipJJhJbJQbEfnREhDWfOqMqLLc1B4Tnn_xeBa9GhSBgkOq62AzV-BeeRC9cct43tyeDg", "width": 720}], "place_id": "ChIJt68eYuL90YUROsRUgLNb0oo", "plus_code": {"compound_code": "9V3W+WC Mexico City", "global_code": "76F29V3W+WC"}, "rating": 3.9, "reference": "ChIJt68eYuL90YUROsRUgLNb0oo", "types": ["supermarket", "atm", "grocery_or_supermarket", "finance", "food", "point_of_interest", "store", "establishment"], "user_ratings_total": 5855}, {"business_status": "OPERATIONAL", "formatted_address": "Manzana 6 Lote 2, Ocelopan, Zona Urbana Ejidal los Reyes Culhuacan, Iztapalapa, 09840 Ciudad de M\u00e9xico", "geometry": {"location": {"lat": 19.3472999, "lng": -99.1061187}, "viewport": {"northeast": {"lat": 19.34865072989272, "lng": -99.10477272010728}, "southwest": {"lat": 19.34595107010728, "lng": -99.10747237989273}}}, "icon": "https://maps.gstatic.com/mapfiles/place_api/icons/v1/png_71/shopping-71.png", "name": "ABARROTES Y CREMERIA \"LUPITA\"", "opening_hours": {"open_now": true}, "photos": [{"height": 2289, "html_attributions": ["<a href=\"https://maps.google.com/maps/contrib/108146503325051756689\">A Google User</a>"], "photo_reference": "CmRaAAAAUDz3UA0e54Cam9EQvY6z9Oc2jHqowy4Hdw-4M5a_SmXsCypvyqoSQ4qjYhOIt6aYqYKpyL3CTgkCHRReByGoyf8pbiGAIK2XMXFiVykkgTmWzkic_eTa8BLT7LaIIt34EhALL20saUJIK-hTMbDn1OoZGhQnPqa-yGHwforn-2YWmGrdV0Li-A", "width": 2289}], "place_id": "ChIJu1Iguwb-0YURcgB5o66QCW4", "plus_code": {"compound_code": "8VWV+WH Mexico City", "global_code": "76F28VWV+WH"}, "rating": 5, "reference": "ChIJu1Iguwb-0YURcgB5o66QCW4", "types": ["supermarket", "grocery_or_supermarket", "food", "point_of_interest", "store", "establishment"], "user_ratings_total": 6}, {"business_status": "OPERATIONAL", "formatted_address": "Xochiquetzal 15 Ricardo Flores Magon Ampliacion RICARDO FLORES MAGON ESQUINA, Chimacoatl, 09828 Ciudad de M\u00e9xico", "geometry": {"location": {"lat": 19.350669, "lng": -99.0991431}, "viewport": {"northeast": {"lat": 19.35197952989272, "lng": -99.09784157010728}, "southwest": {"lat": 19.34927987010728, "lng": -99.10054122989273}}}, "icon": "https://maps.gstatic.com/mapfiles/place_api/icons/v1/png_71/shopping-71.png", "name": "Bodega Aurrera Express", "opening_hours": {"open_now": true}, "photos": [{"height": 4608, "html_attributions": ["<a href=\"https://maps.google.com/maps/contrib/101226785813533469313\">A Google User</a>"], "photo_reference": "CmRaAAAA54LNGIUTiGNYPySAUsX5al3tAY56Cm6klJZS2KxiIay6RbjU2zU4rcr8YkuSQYfb2r5clP40sHpLdcIQDqCtOiF9-_FUgcXYC55Hv4Bxz2sPu0_5pbHrAkVsrlIeq0xiEhAgKv0jowEOJTpJH1wl2CvoGhT9nLWUV34q79-fRtvWz_B2S0xF3A", "width": 3456}], "place_id": "ChIJgxz1Gv390YURUbMD_kqxUAk", "plus_code": {"compound_code": "9W22+78 Mexico City", "global_code": "76F29W22+78"}, "rating": 3.6, "reference": "ChIJgxz1Gv390YURUbMD_kqxUAk", "types": ["supermarket", "grocery_or_supermarket", "food", "point_of_interest", "store", "establishment"], "user_ratings_total": 445}, {"business_status": "OPERATIONAL", "formatted_address": "Esq sur 125, Iztapalapa, Granjeros, Los Cipreses, 09810 Ciudad de M\u00e9xico, CDMX", "geometry": {"location": {"lat": 19.3512722, "lng": -99.1089672}, "viewport": {"northeast": {"lat": 19.35258387989272, "lng": -99.10761872010728}, "southwest": {"lat": 19.34988422010728, "lng": -99.11031837989273}}}, "icon": "https://maps.gstatic.com/mapfiles/place_api/icons/v1/png_71/shopping-71.png", "name": "Abarrotes La Gaviota", "place_id": "ChIJ5d-cmgX-0YURpUiE_B36jfg", "plus_code": {"compound_code": "9V2R+GC Mexico City", "global_code": "76F29V2R+GC"}, "rating": 5, "reference": "ChIJ5d-cmgX-0YURpUiE_B36jfg", "types": ["supermarket", "grocery_or_supermarket", "food", "point_of_interest", "store", "establishment"], "user_ratings_total": 1}, {"business_status": "OPERATIONAL", "formatted_address": "Av. Arneses 190, Barrio de los Reyes, Iztapalapa, 09810 Ciudad de M\u00e9xico, CDMX", "geometry": {"location": {"lat": 19.3490813, "lng": -99.110879}, "viewport": {"northeast": {"lat": 19.35044637989272, "lng": -99.10960572010727}, "southwest": {"lat": 19.34774672010727, "lng": -99.11230537989272}}}, "icon": "https://maps.gstatic.com/mapfiles/place_api/icons/v1/png_71/shopping-71.png", "name": "Tiendas 3B ARNESES", "opening_hours": {"open_now": true}, "photos": [{"height": 720, "html_attributions": ["<a href=\"https://maps.google.com/maps/contrib/105538924390746398105\">karent sarmiento ydrugo</a>"], "photo_reference": "CmRaAAAALEj6-E59RvVlTnVKK5cYvIwUHz6M_-xCtKTzKv5Vt0f7sAdvfPeTU2ESSf8CX_iCjGQFk2TAibF73TJMgcTtmkMCIPrYoFxjHh6sO0bSrzeYazq6fTOs4M_R-57zvWKdEhDZNRdhp9J7A2oy0NATeVk0GhR_D2zoNZr55rbkcS7opPHekPXswg", "width": 1280}], "place_id": "ChIJ3afFHwX-0YURB1sk7ZqWUlE", "plus_code": {"compound_code": "8VXQ+JJ Mexico City", "global_code": "76F28VXQ+JJ"}, "rating": 4.4, "reference": "ChIJ3afFHwX-0YURB1sk7ZqWUlE", "types": ["supermarket", "grocery_or_supermarket", "food", "point_of_interest", "store", "establishment"], "user_ratings_total": 102}, {"business_status": "OPERATIONAL", "formatted_address": "Ermita Iztapalapa 204, Justo Sierra, Iztapalapa, 09000 Ciudad de M\u00e9xico, CDMX", "geometry": {"location": {"lat": 19.3556723, "lng": -99.0974178}, "viewport": {"northeast": {"lat": 19.35695632989272, "lng": -99.09602862010729}, "southwest": {"lat": 19.35425667010728, "lng": -99.09872827989273}}}, "icon": "https://maps.gstatic.com/mapfiles/place_api/icons/v1/png_71/shopping-71.png", "name": "Deshuesadero", "photos": [{"height": 4032, "html_attributions": ["<a href=\"https://maps.google.com/maps/contrib/118316780004108356537\">PABLO COLLOY VELAZQUEZ</a>"], "photo_reference": "CmRaAAAALYvnYryRSanijM_A1ZUd5oHQjipsmTfxjTlUnkOsr3pnID5V0Prqg0jjERi_1qGXu7zkMkXlzIM2bK99C0Z2yU4XfCQXOvl4H66k-oWlFKBLnw0b0uCr1Ke92BZhPbSjEhAmux457CxXCRt536Nrx7ZTGhRh-8ibmaUcvQaC08ADRja_vvHFEQ", "width": 3024}], "place_id": "ChIJe0GMCuP90YURONfHHYZLZ9Y", "plus_code": {"compound_code": "9W43+72 Mexico City", "global_code": "76F29W43+72"}, "rating": 3.1, "reference": "ChIJe0GMCuP90YURONfHHYZLZ9Y", "types": ["supermarket", "grocery_or_supermarket", "food", "point_of_interest", "store", "establishment"], "user_ratings_total": 37}, {"business_status": "OPERATIONAL", "formatted_address": "Av. Tlahuac 390, Culhuacan, Iztapalapa, 09800 Ciudad de M\u00e9xico, CDMX", "geometry": {"location": {"lat": 19.3432579, "lng": -99.106781}, "viewport": {"northeast": {"lat": 19.34448302989272, "lng": -99.10577097010727}, "southwest": {"lat": 19.34178337010728, "lng": -99.10847062989272}}}, "icon": "https://maps.gstatic.com/mapfiles/place_api/icons/v1/png_71/shopping-71.png", "name": "Soriana TLAHUAC MARKET", "opening_hours": {"open_now": true}, "photos": [{"height": 1920, "html_attributions": ["<a href=\"https://maps.google.com/maps/contrib/116552078290125405628\">Gabriel Vargas</a>"], "photo_reference": "CmRaAAAAUKOSaQ9gJuH9Ass4QSv6K58VVSGU3rPtDf_RAIPWI6COeewghUM8XSV7ga78Q_YNhCMCDRu5NC44fgh4cD71YSPba0VKGLIStFqZBBh4MEyvx39JwsUQqNZTc0F__xoEEhCsVFgmDWmNpApfHEmhulYmGhT6bR-_OxBcTQ6xITYjwYnZbvgYJQ", "width": 1080}], "place_id": "ChIJDb3zKwL-0YURo3z82upYsd0", "plus_code": {"compound_code": "8VVV+87 Mexico City", "global_code": "76F28VVV+87"}, "rating": 3.6, "reference": "ChIJDb3zKwL-0YURo3z82upYsd0", "types": ["supermarket", "atm", "grocery_or_supermarket", "finance", "food", "point_of_interest", "store", "establishment"], "user_ratings_total": 2283}, {"business_status": "OPERATIONAL", "formatted_address": "Gral. Anaya 144A, Sta B\u00e1rbara, Iztapalapa, 09000 Ciudad de M\u00e9xico, CDMX", "geometry": {"location": {"lat": 19.3584228, "lng": -99.1009844}, "viewport": {"northeast": {"lat": 19.35979022989272, "lng": -99.09967557010728}, "southwest": {"lat": 19.35709057010727, "lng": -99.10237522989273}}}, "icon": "https://maps.gstatic.com/mapfiles/place_api/icons/v1/png_71/shopping-71.png", "name": "\u1eccr\u1ecd Yor\u00f9b\u00e1", "opening_hours": {"open_now": true}, "photos": [{"height": 540, "html_attributions": ["<a href=\"https://maps.google.com/maps/contrib/107639552933129079188\">A Google User</a>"], "photo_reference": "CmRaAAAAbrf_-Cuu_Fh75CKx8PJQrTihfTlOf2HLohUEVdxYioFMJo6OwpL4W_2gQtgUkPdEZ8DU1_L3jw_wDmeIepC2StakETZGqbTB3EzlKhOh2yEihnmnbXcIjECEnAS8htgyEhDR5uyziDTjRgAb1jr7IuoSGhTuYmsD0MYAGc1h8pKTpmqvW6z_oA", "width": 960}], "place_id": "ChIJ0Z1V_-H90YURdqbYePw5Zp8", "plus_code": {"compound_code": "9V5X+9J Mexico City", "global_code": "76F29V5X+9J"}, "rating": 4.8, "reference": "ChIJ0Z1V_-H90YURdqbYePw5Zp8", "types": ["supermarket", "grocery_or_supermarket", "food", "point_of_interest", "store", "establishment"], "user_ratings_total": 67}, {"business_status": "OPERATIONAL", "formatted_address": "Av. A\u00f1o de Ju\u00e1rez 119, Granjas San Antonio, Iztapalapa, 09070 Ciudad de M\u00e9xico, CDMX", "geometry": {"location": {"lat": 19.360456, "lng": -99.10780469999999}, "viewport": {"northeast": {"lat": 19.36185402989272, "lng": -99.10664762010727}, "southwest": {"lat": 19.35915437010728, "lng": -99.10934727989272}}}, "icon": "https://maps.gstatic.com/mapfiles/place_api/icons/v1/png_71/shopping-71.png", "name": "Super Abasto FR", "opening_hours": {"open_now": false}, "photos": [{"height": 1032, "html_attributions": ["<a href=\"https://maps.google.com/maps/contrib/115331819477324488500\">A Google User</a>"], "photo_reference": "CmRaAAAA3sbUkINvJGzAs6pA1DvQkOO5H52wfJo83hiGCzoF365TwGY9r3nSrmi4QZqT46hNctOl2dYJmtnwoXhnWwCqAin2tryNR7qpDjqGXgPUrGb24Ro_x22MLMxrOTQExQE3EhB2HqAh7QgAbiQlqweUSzaDGhTwxV0lGBjAMY5ue3J6XAff5ap4qw", "width": 502}], "place_id": "ChIJz1EsWWT_0YURliAV3F7ak78", "plus_code": {"compound_code": "9V6R+5V Mexico City", "global_code": "76F29V6R+5V"}, "rating": 4.3, "reference": "ChIJz1EsWWT_0YURliAV3F7ak78", "types": ["supermarket", "grocery_or_supermarket", "food", "point_of_interest", "store", "establishment"], "user_ratings_total": 6}, {"business_status": "OPERATIONAL", "formatted_address": "5 de Mayo 150, San Lucas, Iztapalapa, 09000 Ciudad de M\u00e9xico, CDMX", "geometry": {"location": {"lat": 19.3619825, "lng": -99.0969195}, "viewport": {"northeast": {"lat": 19.36337902989272, "lng": -99.09555492010728}, "southwest": {"lat": 19.36067937010728, "lng": -99.09825457989272}}}, "icon": "https://maps.gstatic.com/mapfiles/place_api/icons/v1/png_71/shopping-71.png", "name": "Tiendas 3B", "opening_hours": {"open_now": true}, "photos": [{"height": 438, "html_attributions": ["<a href=\"https://maps.google.com/maps/contrib/102532993353166365995\">Tiendas 3B</a>"], "photo_reference": "CmRaAAAAgwG0wEmS7uAmqRjx8WVgjs-HSomx4V57-hX1nkugoJP_ps0D2cvRr6B6qTV1qzIlUZ5zRegPpRK5dpO_AuSPXqaaWCOAPPLy8JNyDOL4GHCdGWQG0vheV_KihJn2OoVWEhAMP455PPunwM03WxwOR_OuGhS8CqAXA3FkrnRoMlnMA96ZYASdEg", "width": 737}], "place_id": "ChIJO6Vy3OD90YUR9Gp9UIJ1sOY", "plus_code": {"compound_code": "9W63+Q6 Mexico City", "global_code": "76F29W63+Q6"}, "rating": 3.9, "reference": "ChIJO6Vy3OD90YUR9Gp9UIJ1sOY", "types": ["supermarket", "grocery_or_supermarket", "food", "point_of_interest", "store", "establishment"], "user_ratings_total": 265}, {"business_status": "OPERATIONAL", "formatted_address": "Atanasio G. Sarabia N1810 esq. Teniente Jose Esp, Escuadron 201, 09060 Iztapalapa, CDMX", "geometry": {"location": {"lat": 19.3608563, "lng": -99.11181309999999}, "viewport": {"northeast": {"lat": 19.36221437989272, "lng": -99.11049937010729}, "southwest": {"lat": 19.35951472010727, "lng": -99.11319902989273}}}, "icon": "https://maps.gstatic.com/mapfiles/place_api/icons/v1/png_71/shopping-71.png", "name": "Tiendas 3B", "opening_hours": {"open_now": true}, "photos": [{"height": 2976, "html_attributions": ["<a href=\"https://maps.google.com/maps/contrib/115253837295476584902\">Ricardo Sanchez Londo\u00f1o</a>"], "photo_reference": "CmRaAAAAFaCOzzPj7zVD0D_6jMHnwVtZtKtFJrRBalKLtSdI0i9K97nyO_XXnxEEDqn6gNTDAT89jCnGTPgbhYMowzUuU3BS0NuGEt9inq1sJmdvQcgZBUCr1tYZqqQPKCPoAjn4EhBAd_HOG14VC1ECUJuQoK4mGhRiynV9W3GN1maEXwUcWkO2j4EiEA", "width": 3968}], "place_id": "ChIJFbx0eA3-0YUR9bxP5nNeLeE", "plus_code": {"compound_code": "9V6Q+87 Mexico City", "global_code": "76F29V6Q+87"}, "rating": 3.9, "reference": "ChIJFbx0eA3-0YUR9bxP5nNeLeE", "types": ["supermarket", "grocery_or_supermarket", "food", "point_of_interest", "store", "establishment"], "user_ratings_total": 358}, {"business_status": "OPERATIONAL", "formatted_address": "5 de Mayo 42, San Lucas, Iztapalapa, 09000 Ciudad de M\u00e9xico, CDMX", "geometry": {"location": {"lat": 19.3613057, "lng": -99.0946721}, "viewport": {"northeast": {"lat": 19.36272102989272, "lng": -99.09329747010729}, "southwest": {"lat": 19.36002137010728, "lng": -99.09599712989272}}}, "icon": "https://maps.gstatic.com/mapfiles/place_api/icons/v1/png_71/shopping-71.png", "name": "Bodega Aurrera Express Barrio San Lucas", "opening_hours": {"open_now": true}, "photos": [{"height": 1920, "html_attributions": ["<a href=\"https://maps.google.com/maps/contrib/110182008669664544388\">Juan Sosa</a>"], "photo_reference": "CmRaAAAA8Ts5Cs2Dnqyy4x9Jlkm1cr9ZQUQmkPXm4Y4nmjcVViP4N5Mmx7gQc-S1dAieyYcjZtfykFgJAzGaOmu-Ar-Rylt3HFKi_ZEK7elgMOqKuLYFlZYvTQrgVDnuDzKi3FN0EhB7uI9fYl96uw2_t-PX4IZjGhQrAarn1MuI1Q6v3rRZPx0OTvuMjg", "width": 1080}], "place_id": "ChIJGf125mIDzoUR85wHp5sQgvQ", "plus_code": {"compound_code": "9W64+G4 Mexico City", "global_code": "76F29W64+G4"}, "rating": 4, "reference": "ChIJGf125mIDzoUR85wHp5sQgvQ", "types": ["supermarket", "grocery_or_supermarket", "food", "point_of_interest", "store", "establishment"], "user_ratings_total": 137}, {"business_status": "OPERATIONAL", "formatted_address": "09810, Cereales 19, Granjas Esmeralda, Iztapalapa, Ciudad de M\u00e9xico, CDMX", "geometry": {"location": {"lat": 19.3566123, "lng": -99.11337069999999}, "viewport": {"northeast": {"lat": 19.35795597989272, "lng": -99.11195152010727}, "southwest": {"lat": 19.35525632010728, "lng": -99.11465117989272}}}, "icon": "https://maps.gstatic.com/mapfiles/place_api/icons/v1/png_71/shopping-71.png", "name": "SIX Agencia Ermita", "opening_hours": {"open_now": true}, "photos": [{"height": 3264, "html_attributions": ["<a href=\"https://maps.google.com/maps/contrib/114337715018830534119\">Iv\u00e1n Mart\u00ednez</a>"], "photo_reference": "CmRaAAAABOU99HrAZ_ulPtyl34nBJh938_mgBvKgYdyh7xNs70oPMPWpVw2x0cb_rQzfjF9Q2FA1VB3gW-tSaaAXZFpkeQ9ebaFc0UTH2UZpzxqjknxWu6rvUf-fKCRKgNRDzyaNEhDDXOyV5T_2ipURDL5s4wBFGhThW4DJyrLks73LnyQiiBVAgjiKxw", "width": 2448}], "place_id": "ChIJFdTu6BH-0YURn0wm6iVZJeU", "plus_code": {"compound_code": "9V4P+JM Mexico City", "global_code": "76F29V4P+JM"}, "rating": 4.3, "reference": "ChIJFdTu6BH-0YURn0wm6iVZJeU", "types": ["supermarket", "grocery_or_supermarket", "food", "point_of_interest", "store", "establishment"], "user_ratings_total": 121}]