[{"business_status": "OPERATIONAL", "formatted_address": "Puentetitla No.42, Ricardo Flores Mag\u00f3n, Iztapalapa, 09820 Ciudad de M\u00e9xico, CDMX", "geometry": {"location": {"lat": 19.3538328, "lng": -99.0991332}, "viewport": {"northeast": {"lat": 19.35520037989272, "lng": -99.09783047010728}, "southwest": {"lat": 19.35250072010728, "lng": -99.10053012989272}}}, "icon": "https://maps.gstatic.com/mapfiles/place_api/icons/v1/png_71/generic_business-71.png", "name": "Turismo Breton", "place_id": "ChIJ7y7z3OL90YUR8CoXHb9kbTc", "plus_code": {"compound_code": "9W32+G8 Mexico City", "global_code": "76F29W32+G8"}, "rating": 0, "reference": "ChIJ7y7z3OL90YUR8CoXHb9kbTc", "types": ["travel_agency", "point_of_interest", "establishment"], "user_ratings_total": 0}, {"business_status": "OPERATIONAL", "formatted_address": "Ermita Iztapalapa 964, Sta B\u00e1rbara, Iztapalapa, 09060 Ciudad de M\u00e9xico, CDMX", "geometry": {"location": {"lat": 19.3562532, "lng": -99.1008234}, "viewport": {"northeast": {"lat": 19.35754737989273, "lng": -99.09946612010728}, "southwest": {"lat": 19.35484772010728, "lng": -99.10216577989273}}}, "icon": "https://maps.gstatic.com/mapfiles/place_api/icons/v1/png_71/generic_business-71.png", "name": "Servicios Tur\u00edsticos Cervantes", "opening_hours": {"open_now": false}, "photos": [{"height": 498, "html_attributions": ["<a href=\"https://maps.google.com/maps/contrib/101171798532783971959\">A Google User</a>"], "photo_reference": "CmRaAAAA-HliPv-w8U-2w2J8bZsTSCAsSlJAVJFZFWPY0xGw6JUCQTLDdqe8VSzlYTEygHf5m_nhSYPkJBmgqtrQMBZRksNN-4AFHkY4BX8ShnDld6EecO4PApBCuD1Dn0fdjXnFEhDFv5KbB7bNw5GAY5_L46k8GhTConsjOi71kQceh0crlgpue3UH_A", "width": 888}], "place_id": "ChIJra5obD_90YURR2onV-RpbSM", "plus_code": {"compound_code": "9V4X+GM Mexico City", "global_code": "76F29V4X+GM"}, "rating": 0, "reference": "ChIJra5obD_90YURR2onV-RpbSM", "types": ["travel_agency", "point_of_interest", "establishment"], "user_ratings_total": 0}, {"business_status": "OPERATIONAL", "formatted_address": "Ermita Iztapalapa 179, Ricardo Flores Mag\u00f3n, Iztapalapa, 09820 Ciudad de M\u00e9xico, CDMX", "geometry": {"location": {"lat": 19.3554661, "lng": -99.0965854}, "viewport": {"northeast": {"lat": 19.35689922989271, "lng": -99.09524687010727}, "southwest": {"lat": 19.35419957010727, "lng": -99.09794652989271}}}, "icon": "https://maps.gstatic.com/mapfiles/place_api/icons/v1/png_71/generic_business-71.png", "name": "Viajes Paraiso", "opening_hours": {"open_now": false}, "photos": [{"height": 3024, "html_attributions": ["<a href=\"https://maps.google.com/maps/contrib/112308515959831543725\">A Google User</a>"], "photo_reference": "CmRaAAAAZpS6LDNQn7kvCF3oQ6t0KvPK9Y3A8RkjDytWiKVSJXCH0W8LswWmliW-RvxeswVCx-IabZMXjFdywZk_FvL5Bgm8JYKiBWhUAtmdz_6H6hWNladTnjEnp44KuYdd5pmjEhCPHM8t5hhymt8-fQk5gP6vGhRRKWGO7zYa1-hMV1E5h0oBKVlFZw", "width": 4032}], "place_id": "ChIJSS_AfSr90YURtT8fauITxyo", "plus_code": {"compound_code": "9W43+59 Mexico City", "global_code": "76F29W43+59"}, "rating": 5, "reference": "ChIJSS_AfSr90YURtT8fauITxyo", "types": ["travel_agency", "point_of_interest", "establishment"], "user_ratings_total": 2}, {"business_status": "OPERATIONAL", "formatted_address": "Ermita Iztapalapa 1330, San Pablo, Iztapalapa, 09000 Ciudad de M\u00e9xico, CDMX", "geometry": {"location": {"lat": 19.3586108, "lng": -99.0893979}, "viewport": {"northeast": {"lat": 19.35991692989272, "lng": -99.08806057010729}, "southwest": {"lat": 19.35721727010728, "lng": -99.09076022989272}}}, "icon": "https://maps.gstatic.com/mapfiles/place_api/icons/v1/png_71/generic_business-71.png", "name": "Viajes Ermita", "opening_hours": {"open_now": true}, "photos": [{"height": 1463, "html_attributions": ["<a href=\"https://maps.google.com/maps/contrib/103797533680189224748\">Viajes ermita</a>"], "photo_reference": "CmRaAAAAO2D57HMglN8ODnbjPkOeczgAw_3aoZNOhRoflmuE6EpZeBQ0K-VAc6-RW0yTFVNHJ514xdynBYQnOGw1ca3HF6ZCsVCIwnxzU71iHad4VyRQTXRNzHnr8UzSf7nhGzx1EhAFP7ToPLPH74Lhzb36wT_MGhSWYB0H5vXXaLCjL5StyYI9ll8s2Q", "width": 2048}], "place_id": "ChIJ73u0Se_90YUR13bM0VJY1fI", "plus_code": {"compound_code": "9W56+C6 Mexico City", "global_code": "76F29W56+C6"}, "rating": 4.9, "reference": "ChIJ73u0Se_90YUR13bM0VJY1fI", "types": ["travel_agency", "point_of_interest", "establishment"], "user_ratings_total": 39}, {"business_status": "OPERATIONAL", "formatted_address": "Sta B\u00e1rbara, Iztapalapa, 09000 Mexico City", "geometry": {"location": {"lat": 19.3579188, "lng": -99.1020753}, "viewport": {"northeast": {"lat": 19.35926862989272, "lng": -99.10072547010729}, "southwest": {"lat": 19.35656897010728, "lng": -99.10342512989273}}}, "icon": "https://maps.gstatic.com/mapfiles/place_api/icons/v1/png_71/generic_business-71.png", "name": "Expedici\u00f3n Servicios Turisticos", "place_id": "ChIJ0fckbxn_0YURy5BQFD4-6p8", "plus_code": {"compound_code": "9V5X+55 Mexico City", "global_code": "76F29V5X+55"}, "rating": 0, "reference": "ChIJ0fckbxn_0YURy5BQFD4-6p8", "types": ["travel_agency", "point_of_interest", "establishment"], "user_ratings_total": 0}, {"business_status": "OPERATIONAL", "formatted_address": "09000, La Asunci\u00f3n, 09000 Ciudad de M\u00e9xico, CDMX", "geometry": {"location": {"lat": 19.3612858, "lng": -99.0937371}, "viewport": {"northeast": {"lat": 19.36258937989273, "lng": -99.09240217010728}, "southwest": {"lat": 19.35988972010728, "lng": -99.09510182989271}}}, "icon": "https://maps.gstatic.com/mapfiles/place_api/icons/v1/png_71/generic_business-71.png", "name": "DENYFF TOURS", "opening_hours": {"open_now": true}, "photos": [{"height": 720, "html_attributions": ["<a href=\"https://maps.google.com/maps/contrib/100094106119592465844\">A Google User</a>"], "photo_reference": "CmRaAAAA2GMBBZWEAm731RbwS3jT5oq_lJlc28y1zsh5UgqbJuFUYbtPElWjb5XEs9lhmMkWqip8KxxhKZeDeASRdR5VrJh6d_uB_P70exafCCxnZcoWzkt0uedSi2lOrZR8p798EhA21e2byyFS-_310fT0LlttGhQ-Vgo3wiQ2lFClLjYT-fjEB1pfDQ", "width": 1280}], "place_id": "ChIJz8BoknH90YURdEffkoTX3eI", "plus_code": {"compound_code": "9W64+GG Mexico City", "global_code": "76F29W64+GG"}, "rating": 0, "reference": "ChIJz8BoknH90YURdEffkoTX3eI", "types": ["travel_agency", "point_of_interest", "establishment"], "user_ratings_total": 0}, {"business_status": "OPERATIONAL", "formatted_address": "Av. Toltecas 119-A, Sta B\u00e1rbara, Iztapalapa, 09000 Ciudad de M\u00e9xico, CDMX", "geometry": {"location": {"lat": 19.3599463, "lng": -99.1041049}, "viewport": {"northeast": {"lat": 19.36131222989272, "lng": -99.10280157010727}, "southwest": {"lat": 19.35861257010728, "lng": -99.10550122989272}}}, "icon": "https://maps.gstatic.com/mapfiles/place_api/icons/v1/png_71/generic_business-71.png", "name": "EdKa Viajes y Eventos", "opening_hours": {"open_now": false}, "photos": [{"height": 674, "html_attributions": ["<a href=\"https://maps.google.com/maps/contrib/117548060684285232539\">A Google User</a>"], "photo_reference": "CmRaAAAAeUGK1iBrMDES2K-QdismBNyRoLjJCD9SubUkhg1COc1bacHVsSyZjAvqtPqLp48DFPqBZLrT3gF5a44Px6iTDUSsEWeQ_BhTppspNkHjy3S5Xv0vc1Rp-AyZ9IBm6mq7EhC7immHBJmdD_Ze43k49nxqGhSfXf04I5kgjSjNz4CYhcTIRhtlIA", "width": 1200}], "place_id": "ChIJzzcDzXr_0YURPH8GLyVs-uw", "plus_code": {"compound_code": "9V5W+X9 Mexico City", "global_code": "76F29V5W+X9"}, "rating": 0, "reference": "ChIJzzcDzXr_0YURPH8GLyVs-uw", "types": ["travel_agency", "point_of_interest", "establishment"], "user_ratings_total": 0}, {"business_status": "OPERATIONAL", "formatted_address": "Calle Cuauht\u00e9moc Mz 50, Los Reyes Culhuacan, Iztapalapa, 09849 Ciudad de M\u00e9xico, CDMX", "geometry": {"location": {"lat": 19.344623, "lng": -99.10061019999999}, "viewport": {"northeast": {"lat": 19.34599632989272, "lng": -99.09925402010728}, "southwest": {"lat": 19.34329667010728, "lng": -99.10195367989273}}}, "icon": "https://maps.gstatic.com/mapfiles/place_api/icons/v1/png_71/generic_business-71.png", "name": "Centro de Operaciones Camiorenta", "opening_hours": {"open_now": false}, "photos": [{"height": 1280, "html_attributions": ["<a href=\"https://maps.google.com/maps/contrib/114587475739299036290\">A Google User</a>"], "photo_reference": "CmRaAAAA0oTHlbV1X3kxY6kxLlgXnZut_Q7VqSAqi_HdOYHvjDYyi_SnNqvF6ZIkqYwbNRqzBq0xYrFyv1d1kU_lyWKqav9HGx6Elme2DexI_F0o4j71N00hyB4cFQoG99xHrJwPEhByYLOGSm9P7ZbhDX1pMLL5GhSuVbgSc9uQj2Tf0Q8lUfET5nABbA", "width": 982}], "place_id": "ChIJkwXWOv790YUR49lpd7VZ-vA", "plus_code": {"compound_code": "8VVX+RQ Mexico City", "global_code": "76F28VVX+RQ"}, "rating": 4.7, "reference": "ChIJkwXWOv790YUR49lpd7VZ-vA", "types": ["travel_agency", "point_of_interest", "establishment"], "user_ratings_total": 11}, {"business_status": "OPERATIONAL", "formatted_address": "Av. Paseo de los Jardines 17, Paseos de Taxque\u00f1a, Coyoac\u00e1n, 04250 Ciudad de M\u00e9xico, CDMX", "geometry": {"location": {"lat": 19.3503043, "lng": -99.1272096}, "viewport": {"northeast": {"lat": 19.35166117989272, "lng": -99.1257609701073}, "southwest": {"lat": 19.34896152010728, "lng": -99.12846062989273}}}, "icon": "https://maps.gstatic.com/mapfiles/place_api/icons/v1/png_71/generic_business-71.png", "name": "Pachbe. Agencia de viajes", "opening_hours": {"open_now": false}, "photos": [{"height": 1073, "html_attributions": ["<a href=\"https://maps.google.com/maps/contrib/101798499838573314373\">Pachbe. Agencia de viajes</a>"], "photo_reference": "CmRaAAAAgBNMK1GPXHJ3mOlFAbhgvim4s3l4--nolBNGYddBiiOf5HZzX7g8pvg2ZyMpxFXJOTiGlrDgE-7iY2177-RFUepGV9MviMMfxrhcy9dJbaHQYCPmsU4vspjuXnpn7UtSEhCMACkqtzCs1plt2YG3sJjWGhRD9F2uC_9ZXLOs392KgKbmJKZ8SQ", "width": 2930}], "place_id": "ChIJqco2ggwBzoURMeaW_1ySfXQ", "plus_code": {"compound_code": "9V2F+44 Mexico City", "global_code": "76F29V2F+44"}, "rating": 4.7, "reference": "ChIJqco2ggwBzoURMeaW_1ySfXQ", "types": ["travel_agency", "point_of_interest", "establishment"], "user_ratings_total": 18}, {"business_status": "OPERATIONAL", "formatted_address": "Rodolfo Usigli 1762, Escuadr\u00f3n 201, Iztapalapa, 09060 Ciudad de M\u00e9xico, CDMX", "geometry": {"location": {"lat": 19.3631961, "lng": -99.11214179999999}, "viewport": {"northeast": {"lat": 19.36449767989272, "lng": -99.11079732010727}, "southwest": {"lat": 19.36179802010728, "lng": -99.11349697989272}}}, "icon": "https://maps.gstatic.com/mapfiles/place_api/icons/v1/png_71/generic_business-71.png", "name": "Roal Travel Operadora Mayorista S.A de C.V", "opening_hours": {"open_now": false}, "photos": [{"height": 2322, "html_attributions": ["<a href=\"https://maps.google.com/maps/contrib/117387829697890633267\">A Google User</a>"], "photo_reference": "CmRaAAAAZRGXq9Jv3_P3hi6l41nkk5k8g1nHPKTPvfVq17Ri0kRUPUgJNx--YH6OIN_KEZxdtIdIU-vjdnfb4pYJGwoLR2ZZBUJOQLU2pIbzozULOFo2xW-DMc7bCvUEEizzhrGREhC9GCOKGPn4FnogBTgzSk6NGhTUyI1enk5EwU_0uUgdwSDHNyWh8w", "width": 4128}], "place_id": "ChIJwXW_Vw3-0YURM19uB9yKXlQ", "plus_code": {"compound_code": "9V7Q+74 Mexico City", "global_code": "76F29V7Q+74"}, "rating": 4.4, "reference": "ChIJwXW_Vw3-0YURM19uB9yKXlQ", "types": ["travel_agency", "point_of_interest", "establishment"], "user_ratings_total": 11}, {"business_status": "OPERATIONAL", "formatted_address": "Calle Toltecas No 115 Local 1 entre 5 de Mayo y, Cobos, Sta B\u00e1rbara, 09000 Ciudad de M\u00e9xico, CDMX", "geometry": {"location": {"lat": 19.3621622, "lng": -99.10331680000002}, "viewport": {"northeast": {"lat": 19.36351247989272, "lng": -99.10196842010728}, "southwest": {"lat": 19.36081282010728, "lng": -99.10466807989272}}}, "icon": "https://maps.gstatic.com/mapfiles/place_api/icons/v1/png_71/generic_business-71.png", "name": "EDKA Viajes y Eventos", "opening_hours": {"open_now": false}, "place_id": "ChIJy_8TzVL_0YURTuTwfhWBg7k", "plus_code": {"compound_code": "9V6W+VM Mexico City", "global_code": "76F29V6W+VM"}, "rating": 0, "reference": "ChIJy_8TzVL_0YURTuTwfhWBg7k", "types": ["travel_agency", "point_of_interest", "establishment"], "user_ratings_total": 0}, {"business_status": "OPERATIONAL", "formatted_address": "Retorno 509 # 4 - 102, Modelo, Iztapalapa, 09089 Ciudad de M\u00e9xico, CDMX", "geometry": {"location": {"lat": 19.3607601, "lng": -99.12251529999999}, "viewport": {"northeast": {"lat": 19.36214427989272, "lng": -99.12115977010728}, "southwest": {"lat": 19.35944462010728, "lng": -99.12385942989272}}}, "icon": "https://maps.gstatic.com/mapfiles/place_api/icons/v1/png_71/generic_business-71.png", "name": "MUNDO MARAVILLOSO - WONDERFUL WORLD", "opening_hours": {"open_now": false}, "photos": [{"height": 667, "html_attributions": ["<a href=\"https://maps.google.com/maps/contrib/115934878756402660513\">MUNDO MARAVILLOSO - WONDERFUL WORLD</a>"], "photo_reference": "CmRaAAAArE20FIAech9z9lbGBfIfl7WnO5tnVASdyxYYbrcu_B68NKAh6cVEyRQR9xEPsKDthpuR6z-QKlt8hAErNNYYkF06BAdh4-W5NVUbC3kUmf_Y9shgEjhP7MJ1t0W3lM8UEhCBTHjtD__Xsg1l4BErWg3nGhR2fd0Q32MSfnNHmIvXbrtPnC2V3Q", "width": 760}], "place_id": "ChIJfWEpcRX-0YURMnQCD-NOe18", "plus_code": {"compound_code": "9V6G+8X Mexico City", "global_code": "76F29V6G+8X"}, "rating": 4, "reference": "ChIJfWEpcRX-0YURMnQCD-NOe18", "types": ["travel_agency", "point_of_interest", "establishment"], "user_ratings_total": 21}, {"business_status": "OPERATIONAL", "formatted_address": "Tercer Cerrada De Agustin De Iturbide 15, Culhuacan, Iztapalapa, 09800 Ciudad de M\u00e9xico, CDMX", "geometry": {"location": {"lat": 19.3383639, "lng": -99.10589630000001}, "viewport": {"northeast": {"lat": 19.33972467989273, "lng": -99.10456947010728}, "southwest": {"lat": 19.33702502010728, "lng": -99.10726912989271}}}, "icon": "https://maps.gstatic.com/mapfiles/place_api/icons/v1/png_71/generic_business-71.png", "name": "Trans-Tur-Vela", "place_id": "ChIJ36keZf4BzoURzzbsmbT9fAs", "rating": 0, "reference": "ChIJ36keZf4BzoURzzbsmbT9fAs", "types": ["travel_agency", "point_of_interest", "establishment"], "user_ratings_total": 0}, {"business_status": "OPERATIONAL", "formatted_address": "Avenida Santa Ana, San Francisco Culhuacan, Culhuacan CTM V, Coyoac\u00e1n, 04480 Ciudad de M\u00e9xico, CDMX", "geometry": {"location": {"lat": 19.328509, "lng": -99.113087}, "viewport": {"northeast": {"lat": 19.32989002989272, "lng": -99.11173452010728}, "southwest": {"lat": 19.32719037010728, "lng": -99.11443417989273}}}, "icon": "https://maps.gstatic.com/mapfiles/place_api/icons/v1/png_71/generic_business-71.png", "name": "Viaje Experiencias Travel", "opening_hours": {"open_now": true}, "place_id": "ChIJ8RKGV-UBzoURyFUiV8FcLj0", "plus_code": {"compound_code": "8VHP+CQ Mexico City", "global_code": "76F28VHP+CQ"}, "rating": 0, "reference": "ChIJ8RKGV-UBzoURyFUiV8FcLj0", "types": ["travel_agency", "point_of_interest", "establishment"], "user_ratings_total": 0}, {"business_status": "OPERATIONAL", "formatted_address": "Cerro de Jes\u00fas 164, Campestre Churubusco, Coyoac\u00e1n, 04200 Ciudad de M\u00e9xico, CDMX", "geometry": {"location": {"lat": 19.3438912, "lng": -99.13484919999999}, "viewport": {"northeast": {"lat": 19.34518177989272, "lng": -99.13353537010727}, "southwest": {"lat": 19.34248212010728, "lng": -99.13623502989272}}}, "icon": "https://maps.gstatic.com/mapfiles/place_api/icons/v1/png_71/generic_business-71.png", "name": "Agencia de Viajes", "opening_hours": {"open_now": false}, "place_id": "ChIJKeb9oyj-0YURB3xT3uynYp8", "plus_code": {"compound_code": "8VV8+H3 Mexico City", "global_code": "76F28VV8+H3"}, "rating": 0, "reference": "ChIJKeb9oyj-0YURB3xT3uynYp8", "types": ["travel_agency", "point_of_interest", "establishment"], "user_ratings_total": 0}, {"business_status": "OPERATIONAL", "formatted_address": "Paseo de Los Fresnos 121-102, Paseos de Taxque\u00f1a, Coyoac\u00e1n, 04250 Ciudad de M\u00e9xico, CDMX", "geometry": {"location": {"lat": 19.3449753, "lng": -99.1238037}, "viewport": {"northeast": {"lat": 19.34632412989272, "lng": -99.1224052701073}, "southwest": {"lat": 19.34362447010728, "lng": -99.12510492989274}}}, "icon": "https://maps.gstatic.com/mapfiles/place_api/icons/v1/png_71/generic_business-71.png", "name": "Asesores en Viajes", "place_id": "ChIJ0WSTeFr_0YURxN-XmGoK4vE", "plus_code": {"compound_code": "8VVG+XF Mexico City", "global_code": "76F28VVG+XF"}, "rating": 0, "reference": "ChIJ0WSTeFr_0YURxN-XmGoK4vE", "types": ["travel_agency", "point_of_interest", "establishment"], "user_ratings_total": 0}, {"business_status": "OPERATIONAL", "formatted_address": "Av. Paseo de los Jardines No. 17, Paseos de Taxque\u00f1a, Coyoac\u00e1n, 04240 Ciudad de M\u00e9xico, CDMX", "geometry": {"location": {"lat": 19.3503218, "lng": -99.12721150000002}, "viewport": {"northeast": {"lat": 19.35167872989272, "lng": -99.12576267010728}, "southwest": {"lat": 19.34897907010728, "lng": -99.12846232989273}}}, "icon": "https://maps.gstatic.com/mapfiles/place_api/icons/v1/png_71/generic_business-71.png", "name": "Viajes a Per\u00fa", "opening_hours": {"open_now": false}, "photos": [{"height": 315, "html_attributions": ["<a href=\"https://maps.google.com/maps/contrib/107992867447773716868\">A Google User</a>"], "photo_reference": "CmRaAAAA143swHtKgr9_m-szYZTPDjsivUCCd6Q-Xah4pm4es7eJr4KFAiuXCRgkdcS65l_Z4dH6tqcx4vZNx2KtmNlc1AnDI4wj-fR6eopr4xf8j0-XmiYwcqFkDjedqLfcQ6F2EhBhv9Wkjt8hZGv0zW3jUFtJGhRRiWH0lUyBr5IYlRK_uugMeJLx4g", "width": 820}], "place_id": "ChIJBUv_OiP-0YURbUCy94F0TcE", "plus_code": {"compound_code": "9V2F+44 Mexico City", "global_code": "76F29V2F+44"}, "rating": 0, "reference": "ChIJBUv_OiP-0YURbUCy94F0TcE", "types": ["travel_agency", "point_of_interest", "establishment"], "user_ratings_total": 0}, {"business_status": "OPERATIONAL", "formatted_address": "Av. H. Escuela Naval Militar # 132, San Francisco Culhuacan de la Magdalena, Coyoac\u00e1n, 04260 Ciudad de M\u00e9xico, CDMX", "geometry": {"location": {"lat": 19.343455, "lng": -99.1199961}, "viewport": {"northeast": {"lat": 19.34480312989272, "lng": -99.11864677010728}, "southwest": {"lat": 19.34210347010728, "lng": -99.12134642989272}}}, "icon": "https://maps.gstatic.com/mapfiles/place_api/icons/v1/png_71/generic_business-71.png", "name": "Strollver", "opening_hours": {"open_now": false}, "photos": [{"height": 960, "html_attributions": ["<a href=\"https://maps.google.com/maps/contrib/114616493254277492014\">Ana Olvera</a>"], "photo_reference": "CmRaAAAAT7W-U_Lg0mdMQNXpE8ZqsfSRIRVozY5o1bQXwRHJlTLPwPOm0CCXo4NuKk1ytu_k5VjSlBrsNUZrgEae3BC8VuDA8FTeqdvhQyoP_1eMkn6fcoL8XDaomVgK2-FuXnTPEhAqkwIgduCA1lJbYCMlG9LGGhTvLy1bQwLUCZo06RF0S-i0HySPnA", "width": 1280}], "place_id": "ChIJCXdR4Pj_0YURr2hB5QprSkw", "plus_code": {"compound_code": "8VVJ+92 Mexico City", "global_code": "76F28VVJ+92"}, "rating": 4.7, "reference": "ChIJCXdR4Pj_0YURr2hB5QprSkw", "types": ["travel_agency", "point_of_interest", "establishment"], "user_ratings_total": 3}, {"business_status": "OPERATIONAL", "formatted_address": "Av. A\u00f1o de Ju\u00e1rez 205, Granjas San Antonio, Iztapalapa, 09070 Ciudad de M\u00e9xico, CDMX", "geometry": {"location": {"lat": 19.3629511, "lng": -99.10684870000001}, "viewport": {"northeast": {"lat": 19.36438902989272, "lng": -99.10574752010727}, "southwest": {"lat": 19.36168937010727, "lng": -99.10844717989272}}}, "icon": "https://maps.gstatic.com/mapfiles/place_api/icons/v1/png_71/generic_business-71.png", "name": "Pacific Monarch Expeditions", "place_id": "ChIJo3-uWAv-0YUR1L7zM0k4GlU", "plus_code": {"compound_code": "9V7V+57 Mexico City", "global_code": "76F29V7V+57"}, "rating": 0, "reference": "ChIJo3-uWAv-0YUR1L7zM0k4GlU", "types": ["travel_agency", "point_of_interest", "establishment"], "user_ratings_total": 0}, {"business_status": "OPERATIONAL", "formatted_address": "Veterinarios 17, El Sif\u00f3n, Iztapalapa, 09400 Ciudad de M\u00e9xico, CDMX", "geometry": {"location": {"lat": 19.3702701, "lng": -99.1188167}, "viewport": {"northeast": {"lat": 19.37163447989272, "lng": -99.11753777010729}, "southwest": {"lat": 19.36893482010728, "lng": -99.12023742989273}}}, "icon": "https://maps.gstatic.com/mapfiles/place_api/icons/v1/png_71/generic_business-71.png", "name": "Viajes Miguel Angelo", "place_id": "ChIJPVGWXGn-0YURzvTinK1YdEk", "plus_code": {"compound_code": "9VCJ+4F Mexico City", "global_code": "76F29VCJ+4F"}, "rating": 0, "reference": "ChIJPVGWXGn-0YURzvTinK1YdEk", "types": ["travel_agency", "point_of_interest", "establishment"], "user_ratings_total": 0}]