[{"business_status": "OPERATIONAL", "formatted_address": "Ermita Iztapalapa 939, Santa Isabel Industrial, Iztapalapa, 09820 Ciudad de M\u00e9xico, CDMX", "geometry": {"location": {"lat": 19.3555592, "lng": -99.1023931}, "viewport": {"northeast": {"lat": 19.35701292989272, "lng": -99.10103867010727}, "southwest": {"lat": 19.35431327010728, "lng": -99.10373832989272}}}, "icon": "https://maps.gstatic.com/mapfiles/place_api/icons/v1/png_71/atm-71.png", "name": "Santander ATM", "place_id": "ChIJ6RLk0gn-0YURRu39gk0FJeE", "plus_code": {"compound_code": "9V4X+62 Mexico City", "global_code": "76F29V4X+62"}, "rating": 0, "reference": "ChIJ6RLk0gn-0YURRu39gk0FJeE", "types": ["atm", "finance", "point_of_interest", "establishment"], "user_ratings_total": 0}, {"business_status": "OPERATIONAL", "formatted_address": "Ermita Iztapalapa 1029, Amp Ricardo Flores Mag\u00f3n, Iztapalapa, 09828 Ciudad de M\u00e9xico, CDMX", "geometry": {"location": {"lat": 19.3562654, "lng": -99.0987786}, "viewport": {"northeast": {"lat": 19.35723147989272, "lng": -99.09752962010728}, "southwest": {"lat": 19.35453182010728, "lng": -99.10022927989273}}}, "icon": "https://maps.gstatic.com/mapfiles/place_api/icons/v1/png_71/atm-71.png", "name": "Cajero ATM Citibanamex", "opening_hours": {"open_now": true}, "place_id": "ChIJddRnFy_90YURIIO8phGxkrg", "plus_code": {"compound_code": "9W42+GF Mexico City", "global_code": "76F29W42+GF"}, "rating": 4.5, "reference": "ChIJddRnFy_90YURIIO8phGxkrg", "types": ["atm", "finance", "point_of_interest", "establishment"], "user_ratings_total": 2}, {"business_status": "OPERATIONAL", "formatted_address": "Av. Tlahuac 125, Santa Isabel Industrial, Iztapalapa, 09820 Ciudad de M\u00e9xico, CDMX", "geometry": {"location": {"lat": 19.3520295, "lng": -99.1068841}, "viewport": {"northeast": {"lat": 19.35334472989272, "lng": -99.10531902010727}, "southwest": {"lat": 19.35064507010728, "lng": -99.10801867989271}}}, "icon": "https://maps.gstatic.com/mapfiles/place_api/icons/v1/png_71/atm-71.png", "name": "ATM / CASHIER BANCOMER SUC Tulyehualco", "opening_hours": {"open_now": true}, "place_id": "ChIJCWFpAQb-0YURYh4mMA4lcvY", "plus_code": {"compound_code": "9V2V+R6 Mexico City", "global_code": "76F29V2V+R6"}, "rating": 3, "reference": "ChIJCWFpAQb-0YURYh4mMA4lcvY", "types": ["atm", "finance", "point_of_interest", "establishment"], "user_ratings_total": 2}, {"business_status": "OPERATIONAL", "formatted_address": "Ermita Iztapalapa 1042, San Pablo, Iztapalapa, 09000 Ciudad de M\u00e9xico, CDMX", "geometry": {"location": {"lat": 19.3565911, "lng": -99.09891929999999}, "viewport": {"northeast": {"lat": 19.35785332989272, "lng": -99.09755507010728}, "southwest": {"lat": 19.35515367010728, "lng": -99.10025472989271}}}, "icon": "https://maps.gstatic.com/mapfiles/place_api/icons/v1/png_71/atm-71.png", "name": "ATM / CASHIER BANCOMER SUC IZTAPALAPA", "opening_hours": {"open_now": true}, "place_id": "ChIJQfs9s-P90YUR826hv6IraoY", "plus_code": {"compound_code": "9W42+JC Mexico City", "global_code": "76F29W42+JC"}, "rating": 2.5, "reference": "ChIJQfs9s-P90YUR826hv6IraoY", "types": ["atm", "finance", "point_of_interest", "establishment"], "user_ratings_total": 2}, {"business_status": "OPERATIONAL", "formatted_address": "Privada Ermita Iztapalapa 160, Amp Ricardo Flores Mag\u00f3n, Iztapalapa, 09820 Ciudad de M\u00e9xico, CDMX", "geometry": {"location": {"lat": 19.355338, "lng": -99.095557}, "viewport": {"northeast": {"lat": 19.35654077989272, "lng": -99.09418667010726}, "southwest": {"lat": 19.35384112010728, "lng": -99.09688632989271}}}, "icon": "https://maps.gstatic.com/mapfiles/place_api/icons/v1/png_71/atm-71.png", "name": "Atm/Cajero BBVA Suc Ermita464", "opening_hours": {"open_now": true}, "place_id": "ChIJO4AAh-T90YUR3Wryw3bq2mw", "plus_code": {"compound_code": "9W43+4Q Mexico City", "global_code": "76F29W43+4Q"}, "rating": 2.7, "reference": "ChIJO4AAh-T90YUR3Wryw3bq2mw", "types": ["atm", "finance", "point_of_interest", "establishment"], "user_ratings_total": 3}, {"business_status": "OPERATIONAL", "formatted_address": "Av. A\u00f1o de Ju\u00e1rez 36, Granjas San Antonio, Iztapalapa, 09070 Ciudad de M\u00e9xico, CDMX", "geometry": {"location": {"lat": 19.3576521, "lng": -99.1087405}, "viewport": {"northeast": {"lat": 19.35903187989272, "lng": -99.10752732010728}, "southwest": {"lat": 19.35633222010728, "lng": -99.11022697989273}}}, "icon": "https://maps.gstatic.com/mapfiles/place_api/icons/v1/png_71/atm-71.png", "name": "Santander ATM", "place_id": "ChIJv_x_mQ7-0YUREpmKWsCvlcI", "plus_code": {"compound_code": "9V5R+3G Mexico City", "global_code": "76F29V5R+3G"}, "rating": 0, "reference": "ChIJv_x_mQ7-0YUREpmKWsCvlcI", "types": ["atm", "finance", "point_of_interest", "establishment"], "user_ratings_total": 0}, {"business_status": "OPERATIONAL", "formatted_address": "09000, Ayuntamiento 60, San Pablo, Iztapalapa, Ciudad de M\u00e9xico, CDMX", "geometry": {"location": {"lat": 19.3585691, "lng": -99.0922289}, "viewport": {"northeast": {"lat": 19.35988787989272, "lng": -99.09075872010727}, "southwest": {"lat": 19.35718822010728, "lng": -99.09345837989272}}}, "icon": "https://maps.gstatic.com/mapfiles/place_api/icons/v1/png_71/atm-71.png", "name": "cajero afirme", "opening_hours": {"open_now": true}, "photos": [{"height": 3366, "html_attributions": ["<a href=\"https://maps.google.com/maps/contrib/114642632612407118350\">Roberto Reyes</a>"], "photo_reference": "CmRaAAAA7YHUZJBNS-rOGUBcIYFlvxLJQCFLN90TcN7dOvwng3xvwU0hcRljWRUYUq2JF0xUlw74E-XmlmFy33vjLB4SrEGAR9hXcsPjGPDMOPn7vKE0DSGz-b8EFMH50D5kgqNGEhAIIz1o3UHMpcYoYIZD2Pg3GhQwrYGLRF7-XKfYD9DuBPVeaPYcNQ", "width": 5984}], "place_id": "ChIJob8c2OX90YURr3yPNHRms4c", "plus_code": {"compound_code": "9W55+C4 Mexico City", "global_code": "76F29W55+C4"}, "rating": 0, "reference": "ChIJob8c2OX90YURr3yPNHRms4c", "types": ["atm", "finance", "point_of_interest", "establishment"], "user_ratings_total": 0}, {"business_status": "OPERATIONAL", "formatted_address": "Campesinos 105, Santa Isabel Industrial, Iztapalapa, 09820 Ciudad de M\u00e9xico, CDMX", "geometry": {"location": {"lat": 19.3523096, "lng": -99.1043706}, "viewport": {"northeast": {"lat": 19.35358847989272, "lng": -99.10303227010728}, "southwest": {"lat": 19.35088882010727, "lng": -99.10573192989273}}}, "icon": "https://maps.gstatic.com/mapfiles/place_api/icons/v1/png_71/civic_building-71.png", "name": "CFE", "opening_hours": {"open_now": false}, "photos": [{"height": 1536, "html_attributions": ["<a href=\"https://maps.google.com/maps/contrib/105143792918166207379\">German Mora</a>"], "photo_reference": "CmRaAAAAp5z8cVvlUOhNZEG1BrIvYv5APCS8NMWP0W5widDc9wT2nSFFgQp5vhxfNmcIGrjrFoGEQwCUKaCjXj_IX-u_3G-jIV7gyQqUdfDGnJKhPwAym9mQAjoWxKRJxqGXz9OzEhBJ6iXF2jUGgS4HqLdleUh9GhQ5WfMtQ5EkrMLXghzGJTdkoT6kxw", "width": 2048}], "place_id": "ChIJJfhtYgb-0YUR6IltrPIabBw", "plus_code": {"compound_code": "9V2W+W7 Mexico City", "global_code": "76F29V2W+W7"}, "rating": 3, "reference": "ChIJJfhtYgb-0YUR6IltrPIabBw", "types": ["atm", "finance", "local_government_office", "point_of_interest", "establishment"], "user_ratings_total": 15}, {"business_status": "OPERATIONAL", "formatted_address": "Av. Tlahuac 320, Culhuacan, Iztapalapa, 09800 Ciudad de M\u00e9xico, CDMX", "geometry": {"location": {"lat": 19.3427296, "lng": -99.10734819999999}, "viewport": {"northeast": {"lat": 19.34414547989272, "lng": -99.10627807010727}, "southwest": {"lat": 19.34144582010727, "lng": -99.10897772989271}}}, "icon": "https://maps.gstatic.com/mapfiles/place_api/icons/v1/png_71/atm-71.png", "name": "ATM BANCOMER", "opening_hours": {"open_now": true}, "photos": [{"height": 1916, "html_attributions": ["<a href=\"https://maps.google.com/maps/contrib/110499894291937238915\">Chiquilinelgrande Elgrande</a>"], "photo_reference": "CmRaAAAAVXyGmgBYU1fbKUduKsCzttQ9eBZ6NwdAk7JKO1qHs0OIbmRMB6yRrkAdC5JDP6jWdpft8Sg5ydWGvK9TxNE2s1W6AOVDUueCW3evIO65Fo_G6t5qEOF3qYIjcpJQTtSVEhBc3lXdU3XyXpiDEnBxATGwGhROhLcTlsaVHFFQZXQSattmcCsjmw", "width": 828}], "place_id": "ChIJL08Xjub_0YUR8MO2qvWdCSc", "plus_code": {"compound_code": "8VVV+33 Mexico City", "global_code": "76F28VVV+33"}, "rating": 5, "reference": "ChIJL08Xjub_0YUR8MO2qvWdCSc", "types": ["atm", "finance", "point_of_interest", "establishment"], "user_ratings_total": 1}, {"business_status": "OPERATIONAL", "formatted_address": "Av. Tlahuac 390, Los Reyes Culhuacan, Iztapalapa, 09840 Ciudad de M\u00e9xico, CDMX", "geometry": {"location": {"lat": 19.343104, "lng": -99.10661859999999}, "viewport": {"northeast": {"lat": 19.34465297989272, "lng": -99.10519917010727}, "southwest": {"lat": 19.34195332010728, "lng": -99.10789882989272}}}, "icon": "https://maps.gstatic.com/mapfiles/place_api/icons/v1/png_71/atm-71.png", "name": "Atm/Cajero BBVA Bodega Gigante Tlahuac975", "opening_hours": {"open_now": true}, "photos": [{"height": 3264, "html_attributions": ["<a href=\"https://maps.google.com/maps/contrib/109609653416058430084\">A Google User</a>"], "photo_reference": "CmRaAAAAPQ-XLLlsw31q1B1A9dgDkqKvqzEWgRcSOw-AVEFlN4XDKAOrbRf3tkRDJGjArdYtemB_qnj2POLOOLehefCptGBzspGMJcBPRl-S7RhLIWGJfmSjbMZII9NP0WeRBEMdEhAiYSPgzdPLX2VlSrmzZLxYGhTqF1TnNbXmyIBwyciLb-silXUWTQ", "width": 2448}], "place_id": "ChIJYdphLAL-0YURZHixz7cOyCU", "plus_code": {"compound_code": "8VVV+69 Mexico City", "global_code": "76F28VVV+69"}, "rating": 3, "reference": "ChIJYdphLAL-0YURZHixz7cOyCU", "types": ["atm", "finance", "point_of_interest", "establishment"], "user_ratings_total": 1}, {"business_status": "OPERATIONAL", "formatted_address": "Callej\u00f3n Estrella 4, San Pablo, Iztapalapa, 09000 Ciudad de M\u00e9xico, CDMX", "geometry": {"location": {"lat": 19.3585021, "lng": -99.0898079}, "viewport": {"northeast": {"lat": 19.35981502989273, "lng": -99.08825757010729}, "southwest": {"lat": 19.35711537010728, "lng": -99.09095722989274}}}, "icon": "https://maps.gstatic.com/mapfiles/place_api/icons/v1/png_71/atm-71.png", "name": "Atm/Cajero BBVA Suc Ermita El Manto601", "opening_hours": {"open_now": true}, "place_id": "ChIJP6IwUe_90YURTv8I3eBDJFA", "plus_code": {"compound_code": "9W56+C3 Mexico City", "global_code": "76F29W56+C3"}, "rating": 3.3, "reference": "ChIJP6IwUe_90YURTv8I3eBDJFA", "types": ["atm", "finance", "point_of_interest", "establishment"], "user_ratings_total": 3}, {"business_status": "OPERATIONAL", "formatted_address": "Calle A 18, 20, Culhuacan, Iztapalapa, 09800 Ciudad de M\u00e9xico, CDMX", "geometry": {"location": {"lat": 19.3431471, "lng": -99.10723039999999}, "viewport": {"northeast": {"lat": 19.34452307989272, "lng": -99.10596107010728}, "southwest": {"lat": 19.34182342010728, "lng": -99.10866072989273}}}, "icon": "https://maps.gstatic.com/mapfiles/place_api/icons/v1/png_71/atm-71.png", "name": "ATM SCOTIABANK", "opening_hours": {"open_now": true}, "photos": [{"height": 1552, "html_attributions": ["<a href=\"https://maps.google.com/maps/contrib/110499894291937238915\">Chiquilinelgrande Elgrande</a>"], "photo_reference": "CmRaAAAABoZYkrR9dSBIKRclmzVQ1ss2QGr5iW1AcBgqpD2RJKkh_Bl3Czxh_Grj6In65PlScbyVtl7BDxJlEvi60qJOV_kewrDkrnzWGXZUb7p5wqRKUezjhJlu2TD37S72HQMQEhAHh_c-3Wmhnw0_60DaW_ZeGhQ_nfTqe2aE-F7l6zyypAmZYQiBzQ", "width": 671}], "place_id": "ChIJIf8ku33_0YURmFESPUbSSZw", "plus_code": {"compound_code": "8VVV+74 Mexico City", "global_code": "76F28VVV+74"}, "rating": 3.5, "reference": "ChIJIf8ku33_0YURmFESPUbSSZw", "types": ["atm", "finance", "point_of_interest", "establishment"], "user_ratings_total": 2}, {"business_status": "OPERATIONAL", "formatted_address": "Jose Ma. Morelos 1614, Culhuacan, 09800 Iztapalapa, CDMX", "geometry": {"location": {"lat": 19.3393075, "lng": -99.10873420000001}, "viewport": {"northeast": {"lat": 19.34065787989272, "lng": -99.10742672010728}, "southwest": {"lat": 19.33795822010728, "lng": -99.11012637989272}}}, "icon": "https://maps.gstatic.com/mapfiles/place_api/icons/v1/png_71/atm-71.png", "name": "Scotiabank Sucursal con autocajero", "opening_hours": {"open_now": true}, "photos": [{"height": 2992, "html_attributions": ["<a href=\"https://maps.google.com/maps/contrib/115309980913998819036\">Jaime Martinez</a>"], "photo_reference": "CmRaAAAAXWsPvbqkMU_7O1WwwBwG_LUiT6Pt4S7kXG4IZzrsPydTVRntkvHktS4_jLqwmSqEToVqs8yeWYp8r4RPiHJt89C9qqbjS1mIybChPguPazGp4tmXW7awu3UBKQdqgGMhEhBEKYSGK8HIRA8IyRi-e6vHGhTg-XpuBVVO1pOxdno00EduPEdlyA", "width": 2992}], "place_id": "ChIJv83okv0BzoURZaRKK6UHw8w", "plus_code": {"compound_code": "8VQR+PG Mexico City", "global_code": "76F28VQR+PG"}, "rating": 5, "reference": "ChIJv83okv0BzoURZaRKK6UHw8w", "types": ["atm", "finance", "point_of_interest", "establishment"], "user_ratings_total": 2}, {"business_status": "OPERATIONAL", "formatted_address": "Pueblo Culhuac\u00e1n, Iztapalapa, 09800 Mexico City", "geometry": {"location": {"lat": 19.3426547, "lng": -99.10726939999999}, "viewport": {"northeast": {"lat": 19.34397042989272, "lng": -99.10592962010728}, "southwest": {"lat": 19.34127077010728, "lng": -99.10862927989272}}}, "icon": "https://maps.gstatic.com/mapfiles/place_api/icons/v1/png_71/atm-71.png", "name": "HSBC", "opening_hours": {"open_now": true}, "photos": [{"height": 1352, "html_attributions": ["<a href=\"https://maps.google.com/maps/contrib/110499894291937238915\">Chiquilinelgrande Elgrande</a>"], "photo_reference": "CmRaAAAA_kC91zh_gKaZKT3OocfBWfzJ1NR4wGdEZ24FQaV2K4NtnNw6-_nqgY3Ep4IvphWA3Bqy3XgNRk-Lfkkd69-3-5YDi_2pYHFii3PCoUJ8cT1Hb4lNoC900C0KRuI0rm9cEhAUgcCQY61cDm6KRyXEYXD3GhQ-zB9tWp8k5oNusML0qWkgzHvBeg", "width": 415}], "place_id": "ChIJ5QRor3D_0YURlNL7HaO__po", "plus_code": {"compound_code": "8VVV+33 Mexico City", "global_code": "76F28VVV+33"}, "rating": 0, "reference": "ChIJ5QRor3D_0YURlNL7HaO__po", "types": ["atm", "finance", "point_of_interest", "establishment"], "user_ratings_total": 0}, {"business_status": "OPERATIONAL", "formatted_address": "Pueblo Culhuac\u00e1n, Iztapalapa, 09800 Mexico City", "geometry": {"location": {"lat": 19.3421497, "lng": -99.1083168}, "viewport": {"northeast": {"lat": 19.34349132989272, "lng": -99.10692887010728}, "southwest": {"lat": 19.34079167010728, "lng": -99.10962852989272}}}, "icon": "https://maps.gstatic.com/mapfiles/place_api/icons/v1/png_71/atm-71.png", "name": "BANAMEX", "opening_hours": {"open_now": true}, "photos": [{"height": 1168, "html_attributions": ["<a href=\"https://maps.google.com/maps/contrib/110499894291937238915\">Chiquilinelgrande Elgrande</a>"], "photo_reference": "CmRaAAAAreoh6DDs-IgqtMlX6ITE-UUxTg_VgE3s746ThetirPu7hEfEJggy7Jv4sgaBBU02wjMBIMJlIZM951P5lQGZYpmMJq5Y-uS-cjGguHtJrHz--SZfGJfsTjaDtt5Xtgj8EhCDA6SGilnkS99ZDrk_YIQlGhRPW9px_C9PpagIgCf7iTMywOfLbA", "width": 568}], "place_id": "ChIJ36RX80r_0YURt-EhFcNqA3w", "plus_code": {"compound_code": "8VRR+VM Mexico City", "global_code": "76F28VRR+VM"}, "rating": 5, "reference": "ChIJ36RX80r_0YURt-EhFcNqA3w", "types": ["atm", "finance", "point_of_interest", "establishment"], "user_ratings_total": 2}, {"business_status": "OPERATIONAL", "formatted_address": "Av. Javier Rojo G\u00f3mez 1201, San Pedro, Iztapalapa, 09360 Ciudad de M\u00e9xico, CDMX", "geometry": {"location": {"lat": 19.3652071, "lng": -99.08394009999999}, "viewport": {"northeast": {"lat": 19.36637357989272, "lng": -99.0820455701073}, "southwest": {"lat": 19.36367392010728, "lng": -99.08474522989273}}}, "icon": "https://maps.gstatic.com/mapfiles/place_api/icons/v1/png_71/atm-71.png", "name": "Atm/Cajero BBVA Afina Servicios Advos.", "opening_hours": {"open_now": true}, "place_id": "ChIJz2_24sH90YURVtsoBj-dzK4", "plus_code": {"compound_code": "9W88+3C Mexico City", "global_code": "76F29W88+3C"}, "rating": 2.3, "reference": "ChIJz2_24sH90YURVtsoBj-dzK4", "types": ["atm", "finance", "point_of_interest", "establishment"], "user_ratings_total": 3}, {"business_status": "OPERATIONAL", "formatted_address": "Calz Taxque\u00f1a 2167, Culhuacan, Iztapalapa, 09790 Ciudad de M\u00e9xico, CDMX", "geometry": {"location": {"lat": 19.3379, "lng": -99.1099}, "viewport": {"northeast": {"lat": 19.33931852989272, "lng": -99.10853627010728}, "southwest": {"lat": 19.33661887010728, "lng": -99.11123592989271}}}, "icon": "https://maps.gstatic.com/mapfiles/place_api/icons/v1/png_71/atm-71.png", "name": "BBVA BANCOMER", "opening_hours": {"open_now": false}, "photos": [{"height": 1280, "html_attributions": ["<a href=\"https://maps.google.com/maps/contrib/109609653416058430084\">A Google User</a>"], "photo_reference": "CmRaAAAAErIJhtqKuh8hENSHQUsHwzLYDkQIMt1OIk1Wu_Y96kqWN_6Szl6x_ioIraqFn2aqjkqHqCYDeTjWVVdvcJB5_hGglOyY-O8loMaxoun3CRkHs7yeblBxr5jm1oHKlV4qEhBdS5xW7XexxKhCOxigHpIsGhQIUmJbptUv_s_8p7TP87NlzAKVqw", "width": 720}], "place_id": "ChIJl3MLB_0BzoURkGrZj5znKi8", "plus_code": {"compound_code": "8VQR+52 Mexico City", "global_code": "76F28VQR+52"}, "rating": 2.8, "reference": "ChIJl3MLB_0BzoURkGrZj5znKi8", "types": ["atm", "finance", "point_of_interest", "establishment"], "user_ratings_total": 6}, {"business_status": "OPERATIONAL", "formatted_address": "Ma\u00edz 71, Granjas Esmeralda, Iztapalapa, 09810 Ciudad de M\u00e9xico, CDMX", "geometry": {"location": {"lat": 19.356674, "lng": -99.1151009}, "viewport": {"northeast": {"lat": 19.35803222989272, "lng": -99.11384612010728}, "southwest": {"lat": 19.35533257010728, "lng": -99.11654577989273}}}, "icon": "https://maps.gstatic.com/mapfiles/place_api/icons/v1/png_71/atm-71.png", "name": "HSBC", "opening_hours": {"open_now": false}, "photos": [{"height": 1836, "html_attributions": ["<a href=\"https://maps.google.com/maps/contrib/103562092855780123841\">Ricardo Vega P\u00e9rez</a>"], "photo_reference": "CmRaAAAAMZJF9LU-jKNsQ6U1ucVvMBeCgjDrq7Sv1DiZujxJqDaq4uN0hNfa3tcVSNKgHW1guJjbQ2XkrbqMJlfmu8xCecIC3e5784I17aHEL4rqRoopZXXlozt3cwMEvMBn3jZ6EhCNhjiYxWPHfa-EB9q1dAisGhSRhRYUqEkJqHhunlO8UI6djszxnw", "width": 3264}], "place_id": "ChIJc5WA_hD-0YURZ2QBsJEN4XE", "plus_code": {"compound_code": "9V4M+MX Mexico City", "global_code": "76F29V4M+MX"}, "rating": 1.3, "reference": "ChIJc5WA_hD-0YURZ2QBsJEN4XE", "types": ["atm", "finance", "point_of_interest", "establishment"], "user_ratings_total": 4}, {"business_status": "OPERATIONAL", "formatted_address": "Aculco, Eje 6 Sur 560, \u00c1rea Federal Central de Abastos, Iztapalapa, 09000 Ciudad de M\u00e9xico, CDMX", "geometry": {"location": {"lat": 19.3677629, "lng": -99.09694820000001}, "viewport": {"northeast": {"lat": 19.36906167989272, "lng": -99.09561552010729}, "southwest": {"lat": 19.36636202010728, "lng": -99.09831517989274}}}, "icon": "https://maps.gstatic.com/mapfiles/place_api/icons/v1/png_71/atm-71.png", "name": "ATM / Cash Bancomer Suc. La Nueva Viga", "opening_hours": {"open_now": true}, "place_id": "ChIJ9QHwi9790YUREXpnf2V3W5k", "plus_code": {"compound_code": "9W93+46 Mexico City", "global_code": "76F29W93+46"}, "rating": 0, "reference": "ChIJ9QHwi9790YUREXpnf2V3W5k", "types": ["atm", "finance", "point_of_interest", "establishment"], "user_ratings_total": 0}, {"business_status": "OPERATIONAL", "formatted_address": "Avenida, Ermita Iztapalapa 920, Sta B\u00e1rbara, Iztapalapa, 09000 Ciudad de M\u00e9xico, CDMX", "geometry": {"location": {"lat": 19.3560229, "lng": -99.1029654}, "viewport": {"northeast": {"lat": 19.35731887989272, "lng": -99.10161932010729}, "southwest": {"lat": 19.35461922010728, "lng": -99.10431897989274}}}, "icon": "https://maps.gstatic.com/mapfiles/place_api/icons/v1/png_71/bank-71.png", "name": "Banca Afirme S.A.", "opening_hours": {"open_now": false}, "photos": [{"height": 2988, "html_attributions": ["<a href=\"https://maps.google.com/maps/contrib/105143792918166207379\">German Mora</a>"], "photo_reference": "CmRaAAAAH7SI6qcOHtQhdgcyRS9dYRUbSLvK5jZxn5US_PMzH5RBSVXFdaKjSMdUOn-BOxQE_J1JdrXJoNvuiL8sRHCoNd2lL7hgQPvydm1VwEvoqSR2oqcrN-RECFC2VyfNCUFmEhCT4CNuNvGpPDOnoQV7Nd5OGhT52EpEtQGdEOakU2YhsaZn0KB7Uw", "width": 5312}], "place_id": "ChIJg2AXYuL90YURhrnQaPXUX3w", "plus_code": {"compound_code": "9V4W+CR Mexico City", "global_code": "76F29V4W+CR"}, "rating": 2.7, "reference": "ChIJg2AXYuL90YURhrnQaPXUX3w", "types": ["bank", "atm", "finance", "point_of_interest", "establishment"], "user_ratings_total": 17}]