[{"business_status": "OPERATIONAL", "formatted_address": "Av. Pdte. Plutarco El\u00edas Calles 11, Nueva Sta Anita, Iztacalco, 03500 Ciudad de M\u00e9xico, CDMX", "geometry": {"location": {"lat": 19.3811975, "lng": -99.13445259999999}, "viewport": {"northeast": {"lat": 19.38254242989272, "lng": -99.13307937010728}, "southwest": {"lat": 19.37984277010728, "lng": -99.13577902989273}}}, "icon": "https://maps.gstatic.com/mapfiles/place_api/icons/v1/png_71/generic_business-71.png", "name": "Bolero El Bola", "photos": [{"height": 2560, "html_attributions": ["<a href=\"https://maps.google.com/maps/contrib/104451932992811795099\">A Google User</a>"], "photo_reference": "CmRaAAAAyb9ny-hLFa9niQKVrN5-WPVXHy8JKr7BeyJSTD_l8w8GPEOpq5V-2JBTO0lqb1cQsTRO6t8omIwN-lpgmEotM1KgpxD5sVaVhtV9ZThZu6h-sukS2vmseXvqLtSG8G5PEhDZC9GPVJwVTlNzg3MweL6PGhRkC43_LONDV7VHUNET4Z0MkAOQ_w", "width": 1440}], "place_id": "ChIJ-2Lt4ln-0YURAkwUUncD5wk", "plus_code": {"compound_code": "9VJ8+F6 Mexico City", "global_code": "76F29VJ8+F6"}, "rating": 0, "reference": "ChIJ-2Lt4ln-0YURAkwUUncD5wk", "types": ["bowling_alley", "point_of_interest", "establishment"], "user_ratings_total": 0}, {"business_status": "OPERATIONAL", "formatted_address": "Eugenia #1664, Narvarte Poniente, Benito Ju\u00e1rez, 03020 Ciudad de M\u00e9xico, CDMX", "geometry": {"location": {"lat": 19.3841685, "lng": -99.1504638}, "viewport": {"northeast": {"lat": 19.38556367989272, "lng": -99.14917992010729}, "southwest": {"lat": 19.38286402010728, "lng": -99.15187957989272}}}, "icon": "https://maps.gstatic.com/mapfiles/place_api/icons/v1/png_71/generic_business-71.png", "name": "Bol Narvarte", "opening_hours": {"open_now": true}, "photos": [{"height": 2976, "html_attributions": ["<a href=\"https://maps.google.com/maps/contrib/106904190838039531350\">Aldo N\u00e1jera Flores</a>"], "photo_reference": "CmRaAAAAWjsXy7uwUNAUkuNX4dWovFK-eqMTEDf5fesjnznvq7dxtvSWYL7EWlAKHqVBdkJC3PlWYdTqAu9oS5afdQ4gkdFCe5xirpau59-xk-9ZYTBT7g2MZaynBAIA-Wf7k5o8EhA_KMrAO2AXy849kh8uPMT9GhRUSJAYPbwQLvJNM5ReNn00ZCuJfg", "width": 3968}], "place_id": "ChIJMe8yEar_0YUR05QP7RIusXw", "plus_code": {"compound_code": "9RMX+MR Mexico City", "global_code": "76F29RMX+MR"}, "rating": 4, "reference": "ChIJMe8yEar_0YUR05QP7RIusXw", "types": ["bowling_alley", "point_of_interest", "establishment"], "user_ratings_total": 1803}, {"business_status": "OPERATIONAL", "formatted_address": "Eje 8 Sur, Jos\u00e9 Mar\u00eda Rico 526, Col del Valle Sur, Benito Ju\u00e1rez, 03100 Ciudad de M\u00e9xico, CDMX", "geometry": {"location": {"lat": 19.3672886, "lng": -99.1711502}, "viewport": {"northeast": {"lat": 19.36855557989272, "lng": -99.1698195701073}, "southwest": {"lat": 19.36585592010728, "lng": -99.17251922989273}}}, "icon": "https://maps.gstatic.com/mapfiles/place_api/icons/v1/png_71/generic_business-71.png", "name": "Bolerama Coyoac\u00e1n", "opening_hours": {"open_now": true}, "photos": [{"height": 1333, "html_attributions": ["<a href=\"https://maps.google.com/maps/contrib/113066118358968581462\">Bolerama Coyoac\u00e1n</a>"], "photo_reference": "CmRaAAAAxYemT2bWBTw489OI5L9LCKPs_2HsXYb4wr_GBxqDA1aKnc9oG6vW54W5NgkjPd0svcUD3JvErwOII5t-iEQg3-Xp4AaKx0JtXfsX6fDqbpxVyvRu1yE7olCkGDICHZMjEhCW0V-toS4NMd_TX7YWRI7mGhQjc1ZJZtzbEqTmPkANpFfit5IhJw", "width": 2000}], "place_id": "ChIJHUMfYOcc0oURe4QuKWf5BwM", "plus_code": {"compound_code": "9R8H+WG Mexico City", "global_code": "76F29R8H+WG"}, "rating": 4.5, "reference": "ChIJHUMfYOcc0oURe4QuKWf5BwM", "types": ["bowling_alley", "point_of_interest", "establishment"], "user_ratings_total": 5059}, {"business_status": "OPERATIONAL", "formatted_address": "L\u00e1zaro Pavia 306, Jard\u00edn Balbuena, Venustiano Carranza, 15900 Ciudad de M\u00e9xico, CDMX", "geometry": {"location": {"lat": 19.4164861, "lng": -99.1153254}, "viewport": {"northeast": {"lat": 19.41783842989272, "lng": -99.11399692010728}, "southwest": {"lat": 19.41513877010728, "lng": -99.11669657989273}}}, "icon": "https://maps.gstatic.com/mapfiles/place_api/icons/v1/png_71/generic_business-71.png", "name": "Bolero \u201cDon Felipe\u201d", "opening_hours": {"open_now": false}, "place_id": "ChIJGfaHdWz_0YURITjT63zRDzo", "plus_code": {"compound_code": "CV8M+HV Mexico City", "global_code": "76F2CV8M+HV"}, "rating": 0, "reference": "ChIJGfaHdWz_0YURITjT63zRDzo", "types": ["bowling_alley", "point_of_interest", "establishment"], "user_ratings_total": 0}, {"business_status": "OPERATIONAL", "formatted_address": "Calz. de Tlalpan 3543, Sta. \u00darsula Coapa, Coyoac\u00e1n, 04650 Ciudad de M\u00e9xico, CDMX", "geometry": {"location": {"lat": 19.300518, "lng": -99.1491089}, "viewport": {"northeast": {"lat": 19.30174862989272, "lng": -99.14765692010728}, "southwest": {"lat": 19.29904897010728, "lng": -99.15035657989272}}}, "icon": "https://maps.gstatic.com/mapfiles/place_api/icons/v1/png_71/generic_business-71.png", "name": "BOL TLALPAN", "opening_hours": {"open_now": true}, "photos": [{"height": 3024, "html_attributions": ["<a href=\"https://maps.google.com/maps/contrib/107220160833597048439\">H\u00e9ctor Aguilar</a>"], "photo_reference": "CmRaAAAAsqHKeTNmtORsahcP-WjkwsHjDP9HHKNV9MJ4C2pYJCIzrZVxuN8IyYNIhT-4uVdMPW8xyKW0bEDQVDTqrp1mvbu1UFs_ELAn67AcO2Jet54mF6jEuuJwSEMHF1qc_sZ7EhALA8pmbqzhF8_nXdfLR1k_GhQDfv3MEJJ-_RRfb1KLABPJD7itfA", "width": 4032}], "place_id": "ChIJHS4ZM1gAzoURbD9ZuoRaF0A", "plus_code": {"compound_code": "8V22+69 Mexico City", "global_code": "76F28V22+69"}, "rating": 4.4, "reference": "ChIJHS4ZM1gAzoURbD9ZuoRaF0A", "types": ["bowling_alley", "point_of_interest", "establishment"], "user_ratings_total": 2723}, {"business_status": "OPERATIONAL", "formatted_address": "Av. Insurgentes Sur 1222, Tlacoquemecatl del Valle, Benito Ju\u00e1rez, 03220 Ciudad de M\u00e9xico, CDMX", "geometry": {"location": {"lat": 19.3762561, "lng": -99.17793189999999}, "viewport": {"northeast": {"lat": 19.37762457989272, "lng": -99.17665297010727}, "southwest": {"lat": 19.37492492010728, "lng": -99.17935262989272}}}, "icon": "https://maps.gstatic.com/mapfiles/place_api/icons/v1/png_71/generic_business-71.png", "name": "Bolero", "place_id": "ChIJ13InOpv_0YUR9kEQgZ1HBEw", "plus_code": {"compound_code": "9RGC+GR Mexico City", "global_code": "76F29RGC+GR"}, "rating": 0, "reference": "ChIJ13InOpv_0YUR9kEQgZ1HBEw", "types": ["bowling_alley", "point_of_interest", "establishment"], "user_ratings_total": 0}, {"business_status": "OPERATIONAL", "formatted_address": "Hermes 25, Cr\u00e9dito Constructor, Benito Ju\u00e1rez, 03940 Ciudad de M\u00e9xico, CDMX", "geometry": {"location": {"lat": 19.3637496, "lng": -99.1810366}, "viewport": {"northeast": {"lat": 19.36524577989272, "lng": -99.17964332010729}, "southwest": {"lat": 19.36254612010728, "lng": -99.18234297989272}}}, "icon": "https://maps.gstatic.com/mapfiles/place_api/icons/v1/png_71/generic_business-71.png", "name": "Boliches AMF Insurgentes", "opening_hours": {"open_now": true}, "photos": [{"height": 3024, "html_attributions": ["<a href=\"https://maps.google.com/maps/contrib/117044898817302189069\">Marc Bernal</a>"], "photo_reference": "CmRaAAAAQl3WlkDYnIrlM5IYZb5vUTVWSQ-JcIV_EyFM1xRKP61EpcyT3qBPLdt3wRyl_bbI6g7DSHtTZvN6AzydUF-Z5dvrOdONyidOBKDm_XVABi7xscc9U1HOUKjRRGkbQid7EhApyrsUL7Mq8Q7w8uWawy-xGhR2fLsHomWq1hzYmj7KA50LeWI4qw", "width": 4032}], "place_id": "ChIJ_36SrY3_0YUROj0ZnrvAIz8", "plus_code": {"compound_code": "9R79+FH Mexico City", "global_code": "76F29R79+FH"}, "rating": 4.2, "reference": "ChIJ_36SrY3_0YUROj0ZnrvAIz8", "types": ["bowling_alley", "point_of_interest", "establishment"], "user_ratings_total": 2094}, {"business_status": "OPERATIONAL", "formatted_address": "Miguel Hidalgo 2, Tlalpan Centro I, Tlalpan, 14000 Ciudad de M\u00e9xico, CDMX", "geometry": {"location": {"lat": 19.2889744, "lng": -99.1664521}, "viewport": {"northeast": {"lat": 19.29030552989272, "lng": -99.1651348701073}, "southwest": {"lat": 19.28760587010728, "lng": -99.16783452989274}}}, "icon": "https://maps.gstatic.com/mapfiles/place_api/icons/v1/png_71/generic_business-71.png", "name": "Bolero zapatos El Maii", "opening_hours": {"open_now": false}, "photos": [{"height": 1080, "html_attributions": ["<a href=\"https://maps.google.com/maps/contrib/108170293969618111015\">Jose Alberto Hernandez Palacios</a>"], "photo_reference": "CmRaAAAAq_WvT-I6PW_uTwPQ0DV7GG_6ptrBrjp93Qlhjjq9dxY_ZN8Ceictvl2CPuLzgtP8QBdwkx_82ADLwABKofwZsSrqUoPTsvgpLDpDbbWcuMpdUm8OY_vBUdknh04q6IpLEhD9aPX0wu30tvPyMWVitk5SGhSPt19FHCk4orq6X9khSLaWnZn-cQ", "width": 1920}], "place_id": "ChIJ2cVIBqoBzoURxwdnYyJt1oE", "plus_code": {"compound_code": "7RQM+HC Mexico City", "global_code": "76F27RQM+HC"}, "rating": 0, "reference": "ChIJ2cVIBqoBzoURxwdnYyJt1oE", "types": ["bowling_alley", "point_of_interest", "establishment"], "user_ratings_total": 0}, {"business_status": "OPERATIONAL", "formatted_address": "Avenida Patriotismo 229, San Pedro de los Pinos, Benito Ju\u00e1rez, 03810 Ciudad de M\u00e9xico, CDMX", "geometry": {"location": {"lat": 19.3963898, "lng": -99.18038299999999}, "viewport": {"northeast": {"lat": 19.39782272989272, "lng": -99.17938422010727}, "southwest": {"lat": 19.39512307010728, "lng": -99.18208387989272}}}, "icon": "https://maps.gstatic.com/mapfiles/place_api/icons/v1/png_71/generic_business-71.png", "name": "Alboa Patriotismo", "opening_hours": {"open_now": true}, "photos": [{"height": 3029, "html_attributions": ["<a href=\"https://maps.google.com/maps/contrib/101140157211829159526\">Claudia Patricia Galarza</a>"], "photo_reference": "CmRaAAAAgQ_TeAg-gfmL1G5lVvgtHjNFiGr14ey4M4DbHJf2ExYNJJ3M-hkM0Ty1ojOkEb8gOT27gIMSsmr1RKOSZVGcO85ACawvcSwBsxJ7ZB0z3upkU-LU7GnGZWCSXAVYISllEhBDO3XYMOwmeGJ9VHQ-MRXyGhS1bu8UNLM2nrXMpjAgn_1Xt3CRKA", "width": 4654}], "place_id": "ChIJ3xSCN2X_0YURUG3AcC30aIM", "plus_code": {"compound_code": "9RW9+HR Mexico City", "global_code": "76F29RW9+HR"}, "rating": 4.4, "reference": "ChIJ3xSCN2X_0YURUG3AcC30aIM", "types": ["bowling_alley", "point_of_interest", "establishment"], "user_ratings_total": 1878}, {"business_status": "OPERATIONAL", "formatted_address": "Juan Vazquez de Mella #315, Chapultepec Morales, Polanco I Secc, Miguel Hidalgo, 11560 Ciudad de M\u00e9xico, CDMX", "geometry": {"location": {"lat": 19.4380673, "lng": -99.2083033}, "viewport": {"northeast": {"lat": 19.43938837989272, "lng": -99.20679817010728}, "southwest": {"lat": 19.43668872010728, "lng": -99.20949782989273}}}, "icon": "https://maps.gstatic.com/mapfiles/place_api/icons/v1/png_71/generic_business-71.png", "name": "AMF Bol Polanco", "opening_hours": {"open_now": true}, "photos": [{"height": 3072, "html_attributions": ["<a href=\"https://maps.google.com/maps/contrib/114208053094854716780\">A Google User</a>"], "photo_reference": "CmRaAAAAn9VtqBw3UhSbMcDRtYt9biF7SFw9I2A7DS3wM4J_mjF2ciEjMDAyHX_nlWabpYO81RywL9eR3j95f0liqBtBIVbtCtw_VbHa2FwPeY1O3LSpetYaTq-m40yE1nMcUFHxEhDoR3pAtrVi3pChEZTE-IwdGhQsZp54UV8msvIAvyi7LfXcyfwFUg", "width": 4096}], "place_id": "ChIJh_LqChkC0oURfrACDsx-BBI", "plus_code": {"compound_code": "CQQR+6M Mexico City", "global_code": "76F2CQQR+6M"}, "rating": 4.3, "reference": "ChIJh_LqChkC0oURfrACDsx-BBI", "types": ["bowling_alley", "point_of_interest", "establishment"], "user_ratings_total": 1597}, {"business_status": "OPERATIONAL", "formatted_address": "Bah\u00eda Todos Los Santos 157, Ver\u00f3nica Anz\u00fares, Miguel Hidalgo, 11300 Ciudad de M\u00e9xico, CDMX", "geometry": {"location": {"lat": 19.434429, "lng": -99.17338009999999}, "viewport": {"northeast": {"lat": 19.43582157989272, "lng": -99.17200222010727}, "southwest": {"lat": 19.43312192010728, "lng": -99.17470187989272}}}, "icon": "https://maps.gstatic.com/mapfiles/place_api/icons/v1/png_71/generic_business-71.png", "name": "Bol Bah\u00eda", "opening_hours": {"open_now": true}, "photos": [{"height": 3000, "html_attributions": ["<a href=\"https://maps.google.com/maps/contrib/108327791927295591700\">Josue MRodriguez</a>"], "photo_reference": "CmRaAAAAnmj_bx0EyAoL7WQ9dUhMvVQhrQ6xxMFuFJ0i5KwzOqI-2HxBFeqRY74RFDi42POqwD3C-4JOYOKzymsDxN5aA9riejCxKQGGcB7rf4llbryJkhYRcaldsbH-g7SECf7KEhCpO4fOIljr-FfZpq4bc8HLGhR9a91jlCuYv3q-1JvODfX77BfhuQ", "width": 4000}], "place_id": "ChIJR2EMgLP40YURLNErRPAizg4", "plus_code": {"compound_code": "CRMG+QJ Mexico City", "global_code": "76F2CRMG+QJ"}, "rating": 4.2, "reference": "ChIJR2EMgLP40YURLNErRPAizg4", "types": ["bowling_alley", "bar", "restaurant", "food", "point_of_interest", "store", "establishment"], "user_ratings_total": 2006}, {"business_status": "OPERATIONAL", "formatted_address": "Av. Montevideo 109, Lindavista, Gustavo A. Madero, 07300 Ciudad de M\u00e9xico, CDMX", "geometry": {"location": {"lat": 19.4877778, "lng": -99.1244444}, "viewport": {"northeast": {"lat": 19.48899527989272, "lng": -99.12314812010729}, "southwest": {"lat": 19.48629562010727, "lng": -99.12584777989272}}}, "icon": "https://maps.gstatic.com/mapfiles/place_api/icons/v1/png_71/generic_business-71.png", "name": "Bol Montevideo AMF", "opening_hours": {"open_now": true}, "photos": [{"height": 2448, "html_attributions": ["<a href=\"https://maps.google.com/maps/contrib/116062655087234941379\">A Google User</a>"], "photo_reference": "CmRaAAAAFnC8AqA_O3s7cekXS2pfFhjhANturwvtBPWiQ25hSskMvS_k1yfpgtYS5gyCx5OhXkk15OSVOzTqlozzKvBT7Ybn1UilhKP1zb6yPqbLjER3kgoTqURIdbqSCFqTzYBkEhArx_9L4MINT4YX6UEbfLmNGhQm1wiiM8oI4jPiiRxaSk0CVwd6dA", "width": 3264}], "place_id": "ChIJudfMGaL50YURcHmJ_yTt84s", "plus_code": {"compound_code": "FVQG+46 Mexico City", "global_code": "76F2FVQG+46"}, "rating": 4.2, "reference": "ChIJudfMGaL50YURcHmJ_yTt84s", "types": ["bowling_alley", "point_of_interest", "establishment"], "user_ratings_total": 2659}, {"business_status": "OPERATIONAL", "formatted_address": "Col del Valle Nte, Coyoac\u00e1n, 03100 Mexico City", "geometry": {"location": {"lat": 19.3898177, "lng": -99.16641949999999}, "viewport": {"northeast": {"lat": 19.39117382989272, "lng": -99.16510032010729}, "southwest": {"lat": 19.38847417010728, "lng": -99.16779997989273}}}, "icon": "https://maps.gstatic.com/mapfiles/place_api/icons/v1/png_71/generic_business-71.png", "name": "Aceadores de calzado \"Don PePe\"", "opening_hours": {"open_now": false}, "photos": [{"height": 1520, "html_attributions": ["<a href=\"https://maps.google.com/maps/contrib/104474052004159479614\">A Google User</a>"], "photo_reference": "CmRaAAAAsm1M-n4zzx8OFTp4dWF0rH_jzxJfAheodKm_0vawhno0xBXCuuTdGlxsWVXEaUqoQlW0I4etPFk01SxGV7NUBo89Y1PhZF_4lKwRmtLOAVfLf0Ah_cJi744FkDsrLwdsEhCfwD7_YdWbTnh5fSwbbUhBGhTG_VpMKXxKnGMBXGctXnnCKDXKlA", "width": 720}], "place_id": "ChIJC-lD28b_0YURfgffvpY228M", "plus_code": {"compound_code": "9RQM+WC Mexico City", "global_code": "76F29RQM+WC"}, "rating": 5, "reference": "ChIJC-lD28b_0YURfgffvpY228M", "types": ["bowling_alley", "point_of_interest", "establishment"], "user_ratings_total": 1}, {"business_status": "OPERATIONAL", "formatted_address": "Violeta 140, Moctezuma 2da Secc, La Magdalena Contreras, 10610 Ciudad de M\u00e9xico, CDMX", "geometry": {"location": {"lat": 19.4340133, "lng": -99.1041674}, "viewport": {"northeast": {"lat": 19.43537652989273, "lng": -99.10284777010727}, "southwest": {"lat": 19.43267687010728, "lng": -99.10554742989272}}}, "icon": "https://maps.gstatic.com/mapfiles/place_api/icons/v1/png_71/generic_business-71.png", "name": "The Alley Cat", "place_id": "ChIJw2WQJ6v-0YURr_6zuQoiDCw", "rating": 0, "reference": "ChIJw2WQJ6v-0YURr_6zuQoiDCw", "types": ["bowling_alley", "point_of_interest", "establishment"], "user_ratings_total": 0}, {"business_status": "OPERATIONAL", "formatted_address": "Nivel B, Calle Guillermo Gonzalez Camarena 1205, \u00c1lvaro Obreg\u00f3n, 01210 CDMX", "geometry": {"location": {"lat": 19.3660229, "lng": -99.263897}, "viewport": {"northeast": {"lat": 19.36749432989272, "lng": -99.26268537010728}, "southwest": {"lat": 19.36479467010728, "lng": -99.26538502989273}}}, "icon": "https://maps.gstatic.com/mapfiles/place_api/icons/v1/png_71/generic_business-71.png", "name": "Royal Bol Garden Santa Fe", "opening_hours": {}, "photos": [{"height": 1960, "html_attributions": ["<a href=\"https://maps.google.com/maps/contrib/112170982198058447890\">Emmanuel Ignacio Orihuela</a>"], "photo_reference": "CmRaAAAA5fgkwu3G6fJOGgWxREaAaG2vWHfuwKErxvNjGPRSvLJAHvsdZMtuuDHkr5IB0tdGunmAdeVSeBqOswR-7QLTt5xZg4u90T0Ke_M053ncxTZXnMPdrKpJ6vLNK0ShZbfNEhCSul-ITVvWiOTpMlCUgXZyGhSOLwuNInSD3obQCHjCq26Y5cwJpg", "width": 4032}], "place_id": "ChIJP2Qz78QA0oURQXaoZIgqiHk", "plus_code": {"compound_code": "9P8P+CC Mexico City", "global_code": "76F29P8P+CC"}, "rating": 4.5, "reference": "ChIJP2Qz78QA0oURQXaoZIgqiHk", "types": ["bowling_alley", "point_of_interest", "establishment"], "user_ratings_total": 392}, {"business_status": "OPERATIONAL", "formatted_address": "Av M\u00e9xico 75A, Hip\u00f3dromo, Cuauht\u00e9moc, 06100 Ciudad de M\u00e9xico, CDMX", "geometry": {"location": {"lat": 19.4115713, "lng": -99.1704196}, "viewport": {"northeast": {"lat": 19.41293677989272, "lng": -99.16911137010729}, "southwest": {"lat": 19.41023712010728, "lng": -99.17181102989274}}}, "icon": "https://maps.gstatic.com/mapfiles/place_api/icons/v1/png_71/generic_business-71.png", "name": "Boleado de zapatos Don Julio", "place_id": "ChIJ9XPWmIX_0YURDtEBT1OhCNk", "plus_code": {"compound_code": "CR6H+JR Mexico City", "global_code": "76F2CR6H+JR"}, "rating": 0, "reference": "ChIJ9XPWmIX_0YURDtEBT1OhCNk", "types": ["bowling_alley", "point_of_interest", "establishment"], "user_ratings_total": 0}, {"business_status": "OPERATIONAL", "formatted_address": "Unnamed Road, Residencial Zacatenco, 07369 Ciudad de M\u00e9xico, CDMX", "geometry": {"location": {"lat": 19.4955694, "lng": -99.120274}, "viewport": {"northeast": {"lat": 19.49692322989272, "lng": -99.11894492010728}, "southwest": {"lat": 19.49422357010728, "lng": -99.12164457989273}}}, "icon": "https://maps.gstatic.com/mapfiles/place_api/icons/v1/png_71/generic_business-71.png", "name": "Bolero saucedos", "photos": [{"height": 1920, "html_attributions": ["<a href=\"https://maps.google.com/maps/contrib/101297337972021438485\">Jose Antonio Aquino Espejel</a>"], "photo_reference": "CmRaAAAAFMYx1Feoo38yAuM6ocuxqoRi97vjnMP0BE35ldvEuLAyRAnigQwMH-ojnDWT5neFUBlnVwsgCzfFsXjdva6y3IZSVbOD8byxey3q9iNC2dW4ixjBM8jOPt5lEX50nGVEEhDgyXCnLe7FF4Wlun3dkx5gGhQ2o__Fa6TW63LPbqma-h-tOxElwg", "width": 1080}], "place_id": "ChIJ3Q04whz50YURtGcfGx7dqa8", "plus_code": {"compound_code": "FVWH+6V Mexico City", "global_code": "76F2FVWH+6V"}, "rating": 0, "reference": "ChIJ3Q04whz50YURtGcfGx7dqa8", "types": ["bowling_alley", "point_of_interest", "establishment"], "user_ratings_total": 0}, {"business_status": "OPERATIONAL", "formatted_address": "7 de Julio, Venustiano Carranza, 15390 Mexico City", "geometry": {"location": {"lat": 19.4301744, "lng": -99.1134043}, "viewport": {"northeast": {"lat": 19.43148687989272, "lng": -99.11206282010728}, "southwest": {"lat": 19.42878722010728, "lng": -99.11476247989273}}}, "icon": "https://maps.gstatic.com/mapfiles/place_api/icons/v1/png_71/generic_business-71.png", "name": "Loter\u00eda Nacional", "place_id": "ChIJbzaxItf_0YURFhtJIn5Jxsg", "plus_code": {"compound_code": "CVJP+3J Mexico City", "global_code": "76F2CVJP+3J"}, "rating": 0, "reference": "ChIJbzaxItf_0YURFhtJIn5Jxsg", "types": ["bowling_alley", "point_of_interest", "establishment"], "user_ratings_total": 0}, {"business_status": "OPERATIONAL", "formatted_address": "Nte 82-A 6546, San Pedro el Chico, Gustavo A. Madero, 07480 Ciudad de M\u00e9xico, CDMX", "geometry": {"location": {"lat": 19.4712542, "lng": -99.09921709999999}, "viewport": {"northeast": {"lat": 19.47258222989272, "lng": -99.09780037010728}, "southwest": {"lat": 19.46988257010728, "lng": -99.10050002989273}}}, "icon": "https://maps.gstatic.com/mapfiles/place_api/icons/v1/png_71/generic_business-71.png", "name": "Exelente", "place_id": "ChIJ253dGcL70YURhHJeIQ_FppA", "plus_code": {"compound_code": "FWC2+G8 Mexico City", "global_code": "76F2FWC2+G8"}, "rating": 0, "reference": "ChIJ253dGcL70YURhHJeIQ_FppA", "types": ["bowling_alley", "point_of_interest", "establishment"], "user_ratings_total": 0}, {"business_status": "OPERATIONAL", "formatted_address": "Vasco de Quiroga 3850, Lomas de Santa Fe, Cuajimalpa, Cuajimalpa de Morelos, 05348 Ciudad de M\u00e9xico, CDMX", "geometry": {"location": {"lat": 19.3608689, "lng": -99.2757122}, "viewport": {"northeast": {"lat": 19.36229382989272, "lng": -99.27426802010727}, "southwest": {"lat": 19.35959417010728, "lng": -99.27696767989272}}}, "icon": "https://maps.gstatic.com/mapfiles/place_api/icons/v1/png_71/generic_business-71.png", "name": "Alboa", "opening_hours": {"open_now": true}, "photos": [{"height": 1080, "html_attributions": ["<a href=\"https://maps.google.com/maps/contrib/113087157082108599525\">aaronzon</a>"], "photo_reference": "CmRaAAAApP4pImJohLETEoaqxfEO5Bnhohil8zDzhajL7q4wEhOCgvvQasi5pZHdL7nEETBlLH-0C9Ib8TXwRFWuBfBjI6fNqh3QGKW6i1gren-ahY2eDqzRmXhXOUgpPt-58kWdEhBfnBZz201zMdZzWfQEjYREGhRZeU8mKNCaZxves8lF8brz0U213g", "width": 1920}], "place_id": "ChIJ67d_YcsA0oUR-fTwGjPc9mg", "plus_code": {"compound_code": "9P6F+8P Mexico City", "global_code": "76F29P6F+8P"}, "rating": 4.4, "reference": "ChIJ67d_YcsA0oUR-fTwGjPc9mg", "types": ["bowling_alley", "bar", "restaurant", "food", "point_of_interest", "establishment"], "user_ratings_total": 1642}]