[{"business_status": "OPERATIONAL", "formatted_address": "Tlaxcanes 35, Ricardo Flores Mag\u00f3n, Iztapalapa, 09820 Ciudad de M\u00e9xico, CDMX", "geometry": {"location": {"lat": 19.3537749, "lng": -99.0977006}, "viewport": {"northeast": {"lat": 19.35515102989272, "lng": -99.09633957010728}, "southwest": {"lat": 19.35245137010728, "lng": -99.09903922989271}}}, "icon": "https://maps.gstatic.com/mapfiles/place_api/icons/v1/png_71/cafe-71.png", "name": "Cafeteria Del 37", "place_id": "ChIJ63mDO-P90YURb7hpf646RJ8", "plus_code": {"compound_code": "9W32+GW Mexico City", "global_code": "76F29W32+GW"}, "rating": 4.9, "reference": "ChIJ63mDO-P90YURb7hpf646RJ8", "types": ["cafe", "food", "point_of_interest", "store", "establishment"], "user_ratings_total": 15}, {"business_status": "OPERATIONAL", "formatted_address": "Puente Titla, Ampliaci\u00f3n Ricardo Flores Mag\u00f3n, 09828 Iztapalapa, CDMX", "geometry": {"location": {"lat": 19.353705, "lng": -99.09936599999999}, "viewport": {"northeast": {"lat": 19.35504387989272, "lng": -99.09798717010729}, "southwest": {"lat": 19.35234422010728, "lng": -99.10068682989272}}}, "icon": "https://maps.gstatic.com/mapfiles/place_api/icons/v1/png_71/shopping-71.png", "name": "FlavorCup Iztapalapa", "opening_hours": {"open_now": true}, "photos": [{"height": 3456, "html_attributions": ["<a href=\"https://maps.google.com/maps/contrib/103192964286047952723\">Herbert Maldonado</a>"], "photo_reference": "CmRaAAAAfeSPI5qb0XZaKYL2SpXDNJOBjx_g3MVVGbpDmNVbIEGe57_T0TYHUVBN3JKgX2J-O200C5hLrzJB2xbB3MWjXa2xf6JkbvTU6C5-bVGOQ6PtDHa4F-aQ8JPgIsFJF3TwEhATchE-IBeaSnqFUk5GWz4WGhRpiPzANbHR4unO7g6fr12I7AZihQ", "width": 5184}], "place_id": "ChIJO_y7xOL90YURM8avLLGZJkM", "plus_code": {"compound_code": "9W32+F7 Mexico City", "global_code": "76F29W32+F7"}, "price_level": 2, "rating": 4.2, "reference": "ChIJO_y7xOL90YURM8avLLGZJkM", "types": ["cafe", "food", "point_of_interest", "store", "establishment"], "user_ratings_total": 120}, {"business_status": "OPERATIONAL", "formatted_address": "Puentetitla 17, Estrella del Sur, Iztapalapa, 09820 Ciudad de M\u00e9xico, CDMX", "geometry": {"location": {"lat": 19.3507276, "lng": -99.1005954}, "viewport": {"northeast": {"lat": 19.35207512989272, "lng": -99.09923922010726}, "southwest": {"lat": 19.34937547010728, "lng": -99.10193887989271}}}, "icon": "https://maps.gstatic.com/mapfiles/place_api/icons/v1/png_71/cafe-71.png", "name": "Cafe Gourmet COA", "opening_hours": {"open_now": true}, "place_id": "ChIJ7520aP390YURrx-BH57a5jw", "plus_code": {"compound_code": "9V2X+7Q Mexico City", "global_code": "76F29V2X+7Q"}, "rating": 3.3, "reference": "ChIJ7520aP390YURrx-BH57a5jw", "types": ["cafe", "food", "point_of_interest", "store", "establishment"], "user_ratings_total": 3}, {"business_status": "OPERATIONAL", "formatted_address": "Tlaxcanes 3, Ricardo Flores Mag\u00f3n, Iztapalapa, 09820 Ciudad de M\u00e9xico, CDMX", "geometry": {"location": {"lat": 19.3542714, "lng": -99.0989953}, "viewport": {"northeast": {"lat": 19.35564462989272, "lng": -99.09763547010728}, "southwest": {"lat": 19.35294497010728, "lng": -99.10033512989271}}}, "icon": "https://maps.gstatic.com/mapfiles/place_api/icons/v1/png_71/cafe-71.png", "name": "Dulce Creaci\u00f3n", "opening_hours": {"open_now": true}, "photos": [{"height": 3096, "html_attributions": ["<a href=\"https://maps.google.com/maps/contrib/115269747581822912943\">A Google User</a>"], "photo_reference": "CmRaAAAAXiv01iIePY0kh9BUUKq7caSqsukXzzhqAGLTMQMK92sJQSqqeHa0qfu-9yVjbUJq_BEcf63RPL98ho_GbGAY2XDX3MjT8MezawoQ7x5AO6Wcam9J6Lj_aNNfcTGvgo-sEhAccufzs-4L4VYIWGFC5EvAGhSVDe3j53zzpsDlUcN5-duxWlFGTA", "width": 4128}], "place_id": "ChIJcTvvVTz90YURsNLRt5fIMTo", "plus_code": {"compound_code": "9W32+PC Mexico City", "global_code": "76F29W32+PC"}, "rating": 0, "reference": "ChIJcTvvVTz90YURsNLRt5fIMTo", "types": ["cafe", "food", "point_of_interest", "establishment"], "user_ratings_total": 0}, {"business_status": "OPERATIONAL", "formatted_address": "Ermita Iztapalapa 528, H\u00e9roes de Churubusco, Iztapalapa, 09090 Ciudad de M\u00e9xico, CDMX", "geometry": {"location": {"lat": 19.355575, "lng": -99.10014319999999}, "viewport": {"northeast": {"lat": 19.35691892989272, "lng": -99.09879402010728}, "southwest": {"lat": 19.35421927010728, "lng": -99.10149367989271}}}, "icon": "https://maps.gstatic.com/mapfiles/place_api/icons/v1/png_71/cafe-71.png", "name": "El Gorila Caf\u00e9", "place_id": "ChIJgafSYeL90YUR-G4eRuX2Xgs", "plus_code": {"compound_code": "9V4X+6W Mexico City", "global_code": "76F29V4X+6W"}, "rating": 5, "reference": "ChIJgafSYeL90YUR-G4eRuX2Xgs", "types": ["cafe", "food", "point_of_interest", "establishment"], "user_ratings_total": 3}, {"business_status": "OPERATIONAL", "formatted_address": "Av, Ermita Iztapalapa 190, Ricardo Flores Mag\u00f3n, Iztapalapa, 09200 CDMX", "geometry": {"location": {"lat": 19.3557008, "lng": -99.098323}, "viewport": {"northeast": {"lat": 19.35693757989272, "lng": -99.09697317010726}, "southwest": {"lat": 19.35423792010728, "lng": -99.09967282989271}}}, "icon": "https://maps.gstatic.com/mapfiles/place_api/icons/v1/png_71/restaurant-71.png", "name": "El Globo Iztapalapa", "opening_hours": {"open_now": true}, "photos": [{"height": 3464, "html_attributions": ["<a href=\"https://maps.google.com/maps/contrib/105993309410233698807\">Arturo morales torres</a>"], "photo_reference": "CmRaAAAA-5ysCzRpXEUBTksDqTAHwvf5jH0MN5eSpDpQ0Vb2O5aowSqxa2xPdYZgKtMimHLrFsl4VyLWyIIqeIfqFs0NfM0yqVvC-XjWzkxKt8nQUiOVkPM6S_x8RBlC2AGquDQKEhCD_mBj_aoe4N8mhVXTB00IGhSxpt4fIZNc80YoXgXe8TQhXx1o9A", "width": 4618}], "place_id": "ChIJfxo4Czf-0YUR-FiKlxOyF6o", "plus_code": {"compound_code": "9W42+7M Ricardo Flores Mag\u00f3n, Mexico City", "global_code": "76F29W42+7M"}, "price_level": 2, "rating": 4.1, "reference": "ChIJfxo4Czf-0YUR-FiKlxOyF6o", "types": ["bakery", "cafe", "food", "point_of_interest", "store", "establishment"], "user_ratings_total": 1505}, {"business_status": "OPERATIONAL", "formatted_address": "Ilhuicamina & Tizoc, Zona Urbana Ejidal los Reyes Culhuacan, Iztapalapa, 09820 Ciudad de M\u00e9xico, CDMX", "geometry": {"location": {"lat": 19.3460694, "lng": -99.10238199999999}, "viewport": {"northeast": {"lat": 19.34738672989272, "lng": -99.10104097010729}, "southwest": {"lat": 19.34468707010728, "lng": -99.10374062989274}}}, "icon": "https://maps.gstatic.com/mapfiles/place_api/icons/v1/png_71/cafe-71.png", "name": "Cafeter\u00eda Dubai", "opening_hours": {"open_now": true}, "photos": [{"height": 4160, "html_attributions": ["<a href=\"https://maps.google.com/maps/contrib/111253931170940823278\">A Google User</a>"], "photo_reference": "CmRaAAAAWL1B3UDx2wKzW2hmVjf7zy4Yjazcm0lI47BtXCXhjfNRS6JMMj1e6-TyN9uXbfKThoCg-l4-ussDHipWky2En1mCZSTWdrEowGKNiB_LsqVy1XNJ98oIHtjAH1cJDq8fEhDC6FjgjiWqk0emxhfdkS0LGhQxfOStWuGRYYLMcdVKutd6AWCjHA", "width": 3120}], "place_id": "ChIJt7rMtgD-0YURPGTnN60JCSY", "plus_code": {"compound_code": "8VWX+C2 Mexico City", "global_code": "76F28VWX+C2"}, "rating": 4.1, "reference": "ChIJt7rMtgD-0YURPGTnN60JCSY", "types": ["cafe", "food", "point_of_interest", "store", "establishment"], "user_ratings_total": 21}, {"business_status": "OPERATIONAL", "formatted_address": "Agricultores 302, Minerva, Iztapalapa, 09810 Ciudad de M\u00e9xico, CDMX", "geometry": {"location": {"lat": 19.3548043, "lng": -99.1100336}, "viewport": {"northeast": {"lat": 19.35609862989272, "lng": -99.10868992010727}, "southwest": {"lat": 19.35339897010728, "lng": -99.11138957989272}}}, "icon": "https://maps.gstatic.com/mapfiles/place_api/icons/v1/png_71/cafe-71.png", "name": "Cafeter\u00eda El Capricho", "place_id": "ChIJuad6rA_-0YURGidQEiEJPs4", "plus_code": {"compound_code": "9V3Q+WX Mexico City", "global_code": "76F29V3Q+WX"}, "rating": 4.3, "reference": "ChIJuad6rA_-0YURGidQEiEJPs4", "types": ["cafe", "food", "point_of_interest", "store", "establishment"], "user_ratings_total": 7}, {"business_status": "OPERATIONAL", "formatted_address": "A de, Sur 125 152, Los Cipreses, Iztapalapa, 09810 Ciudad de M\u00e9xico, CDMX", "geometry": {"location": {"lat": 19.350924, "lng": -99.1085023}, "viewport": {"northeast": {"lat": 19.35227707989273, "lng": -99.1071978701073}, "southwest": {"lat": 19.34957742010728, "lng": -99.10989752989275}}}, "icon": "https://maps.gstatic.com/mapfiles/place_api/icons/v1/png_71/cafe-71.png", "name": "El Capricho Coffee", "place_id": "ChIJ1445lAX-0YURjVxZwLbeJjA", "plus_code": {"compound_code": "9V2R+9H Mexico City", "global_code": "76F29V2R+9H"}, "rating": 3, "reference": "ChIJ1445lAX-0YURjVxZwLbeJjA", "types": ["cafe", "food", "point_of_interest", "establishment"], "user_ratings_total": 2}, {"business_status": "OPERATIONAL", "formatted_address": "Av. Toltecas 100, Sta B\u00e1rbara, Iztapalapa, 09000 Ciudad de M\u00e9xico, CDMX", "geometry": {"location": {"lat": 19.3591182, "lng": -99.1044681}, "viewport": {"northeast": {"lat": 19.36047522989272, "lng": -99.10313932010727}, "southwest": {"lat": 19.35777557010728, "lng": -99.10583897989271}}}, "icon": "https://maps.gstatic.com/mapfiles/place_api/icons/v1/png_71/cafe-71.png", "name": "CAFETER\u00cdA LA BUENA VIBRA", "opening_hours": {"open_now": false}, "photos": [{"height": 4032, "html_attributions": ["<a href=\"https://maps.google.com/maps/contrib/109410871523193285950\">Ivon Ruiz</a>"], "photo_reference": "CmRaAAAAU896IjhIi05qBDkrkELaknhMK6_BBV59q0qFyRtFYH6WlypqAZX0CtnBspJtBfWVBAu_F3AC_ZDn0PpQL9JhV06pupdUD_GNb2ijetzX2RYLrySrvgv22-nPn4kj016WEhCHeVAIqBqSY4WaVwK6lHZuGhTO1Ecrzcd-rkvazhcWZKgMWn7JFg", "width": 3024}], "place_id": "ChIJDbpnzgv-0YURz4lsz5FiCiw", "plus_code": {"compound_code": "9V5W+J6 Mexico City", "global_code": "76F29V5W+J6"}, "rating": 5, "reference": "ChIJDbpnzgv-0YURz4lsz5FiCiw", "types": ["cafe", "food", "point_of_interest", "store", "establishment"], "user_ratings_total": 1}, {"business_status": "OPERATIONAL", "formatted_address": "San Pedro, Santa Mar\u00eda del Monte, Iztapalapa, 09850 Ciudad de M\u00e9xico, CDMX", "geometry": {"location": {"lat": 19.3520721, "lng": -99.0891146}, "viewport": {"northeast": {"lat": 19.35342652989272, "lng": -99.08779202010727}, "southwest": {"lat": 19.35072687010728, "lng": -99.09049167989272}}}, "icon": "https://maps.gstatic.com/mapfiles/place_api/icons/v1/png_71/cafe-71.png", "name": "T\u00fa cafeter\u00eda", "opening_hours": {"open_now": true}, "photos": [{"height": 3024, "html_attributions": ["<a href=\"https://maps.google.com/maps/contrib/118391688336619369915\">Itandehui Linares Teodocio</a>"], "photo_reference": "CmRaAAAAF3z1GHksIOFNKyhtOaMkVZtX9KxtOpdhAL3pOutVP2ibvwCNc984vS3crodz-d77nUFLB5_e3RuqW4NkCbbtpw5MuFd4l9w8acMbwroBc2gglH6l1vXhr1pZsuYtSeilEhDxRKfxqEoXFcw_blgs1wZnGhQmJb8vRovjL2-bTUnsxn9opY2otg", "width": 4032}], "place_id": "ChIJkYMheqn90YURedR_rbL6Sk8", "plus_code": {"compound_code": "9W26+R9 Mexico City", "global_code": "76F29W26+R9"}, "rating": 4.6, "reference": "ChIJkYMheqn90YURedR_rbL6Sk8", "types": ["cafe", "food", "point_of_interest", "store", "establishment"], "user_ratings_total": 14}, {"business_status": "OPERATIONAL", "formatted_address": "Ignacio Comonfort 80, San Lucas, Iztapalapa, 09000 Ciudad de M\u00e9xico, CDMX", "geometry": {"location": {"lat": 19.3591981, "lng": -99.0958347}, "viewport": {"northeast": {"lat": 19.36058277989273, "lng": -99.09447447010727}, "southwest": {"lat": 19.35788312010728, "lng": -99.09717412989272}}}, "icon": "https://maps.gstatic.com/mapfiles/place_api/icons/v1/png_71/cafe-71.png", "name": "Kafetsin", "opening_hours": {"open_now": true}, "place_id": "ChIJqQoyU-H90YUR_WZDbY_u4V8", "plus_code": {"compound_code": "9W53+MM Mexico City", "global_code": "76F29W53+MM"}, "rating": 4.4, "reference": "ChIJqQoyU-H90YUR_WZDbY_u4V8", "types": ["cafe", "food", "point_of_interest", "store", "establishment"], "user_ratings_total": 9}, {"business_status": "OPERATIONAL", "formatted_address": "5 de Mayo 10, Zona Urbana Ejidal los Reyes Culhuacan, Iztapalapa, 09840 Ciudad de M\u00e9xico, CDMX", "geometry": {"location": {"lat": 19.3434052, "lng": -99.1059751}, "viewport": {"northeast": {"lat": 19.34473042989272, "lng": -99.10463392010729}, "southwest": {"lat": 19.34203077010728, "lng": -99.10733357989272}}}, "icon": "https://maps.gstatic.com/mapfiles/place_api/icons/v1/png_71/cafe-71.png", "name": "Cafeteria El Colibr\u00ed", "place_id": "ChIJ56uanQH-0YURNF3o82Dc2wI", "plus_code": {"compound_code": "8VVV+9J Mexico City", "global_code": "76F28VVV+9J"}, "rating": 0, "reference": "ChIJ56uanQH-0YURNF3o82Dc2wI", "types": ["cafe", "food", "point_of_interest", "establishment"], "user_ratings_total": 0}, {"business_status": "OPERATIONAL", "formatted_address": "Cjon. Victoria, San Lucas, Iztapalapa, 09000 Ciudad de M\u00e9xico, CDMX", "geometry": {"location": {"lat": 19.3598205, "lng": -99.0968741}, "viewport": {"northeast": {"lat": 19.36116437989272, "lng": -99.09550017010727}, "southwest": {"lat": 19.35846472010727, "lng": -99.09819982989272}}}, "icon": "https://maps.gstatic.com/mapfiles/place_api/icons/v1/png_71/cafe-71.png", "name": "Pasteleria Y Cafeteria La Peke", "place_id": "ChIJiY-NJOH90YURWyekJXLJksE", "plus_code": {"compound_code": "9W53+W7 Mexico City", "global_code": "76F29W53+W7"}, "rating": 0, "reference": "ChIJiY-NJOH90YURWyekJXLJksE", "types": ["cafe", "food", "point_of_interest", "establishment"], "user_ratings_total": 0}, {"business_status": "OPERATIONAL", "formatted_address": "Av. A\u00f1o de Ju\u00e1rez 32, Granjas San Antonio, Iztapalapa, 09070 Ciudad de M\u00e9xico, CDMX", "geometry": {"location": {"lat": 19.3575777, "lng": -99.10936079999999}, "viewport": {"northeast": {"lat": 19.35891062989272, "lng": -99.10794362010728}, "southwest": {"lat": 19.35621097010728, "lng": -99.11064327989273}}}, "icon": "https://maps.gstatic.com/mapfiles/place_api/icons/v1/png_71/cafe-71.png", "name": "Caff\u00e8to", "opening_hours": {"open_now": true}, "place_id": "ChIJ2_MdhA7-0YURihmZbQkKoqI", "plus_code": {"compound_code": "9V5R+27 Mexico City", "global_code": "76F29V5R+27"}, "rating": 4.5, "reference": "ChIJ2_MdhA7-0YURihmZbQkKoqI", "types": ["cafe", "food", "point_of_interest", "establishment"], "user_ratings_total": 2}, {"business_status": "OPERATIONAL", "formatted_address": "Campesinos 269, Progreso del Sur, Iztapalapa, 09810 Ciudad de M\u00e9xico, CDMX", "geometry": {"location": {"lat": 19.3529195, "lng": -99.11236439999999}, "viewport": {"northeast": {"lat": 19.35437117989272, "lng": -99.11100317010728}, "southwest": {"lat": 19.35167152010728, "lng": -99.11370282989273}}}, "icon": "https://maps.gstatic.com/mapfiles/place_api/icons/v1/png_71/generic_business-71.png", "name": "La Coincidencia Caf\u00e9", "opening_hours": {"open_now": true}, "photos": [{"height": 4160, "html_attributions": ["<a href=\"https://maps.google.com/maps/contrib/107683320247814384147\">monica duran</a>"], "photo_reference": "CmRaAAAALV4ldxnHNAqrWKT8eFi8vJXFumes5-SzgDz0Ac-x-xzKj3VModFR35SCMQ_kAbnw6-gms1LG5BeU4eq3B7Qvo0ZT-xPNGollsH3pQYDcKeJy7yseavlaNS7t58RlwO_pEhDQsA7KVhXvpmIFXYfh7PVeGhQrAfbz6TiOk-GLzrpBDS3x2oe3AQ", "width": 2336}], "place_id": "ChIJUZRk4g_-0YURTxELHYPfkZ8", "plus_code": {"compound_code": "9V3Q+53 Mexico City", "global_code": "76F29V3Q+53"}, "rating": 4.3, "reference": "ChIJUZRk4g_-0YURTxELHYPfkZ8", "types": ["cafe", "food", "point_of_interest", "store", "establishment"], "user_ratings_total": 62}, {"business_status": "OPERATIONAL", "formatted_address": "Rayo 13, Valle de Luces 1ra Secc, Iztapalapa, 09800 Ciudad de M\u00e9xico, CDMX", "geometry": {"location": {"lat": 19.3409036, "lng": -99.09996029999999}, "viewport": {"northeast": {"lat": 19.34225762989272, "lng": -99.09862557010727}, "southwest": {"lat": 19.33955797010728, "lng": -99.10132522989272}}}, "icon": "https://maps.gstatic.com/mapfiles/place_api/icons/v1/png_71/cafe-71.png", "name": "Cafeteria Sarava", "opening_hours": {"open_now": true}, "photos": [{"height": 3120, "html_attributions": ["<a href=\"https://maps.google.com/maps/contrib/105716790268190186272\">Daz li</a>"], "photo_reference": "CmRaAAAAaFlqOaBG6HTRWanFQeL_bnV_HBUxzt0nprLpUDPKJTs9YUNErsgxM3XKK6hLcD9je9U2PoBv_XtcYvfyuvtl-wcDIX6hdZQO0ZXLCGW1VwOzGUme6yIDSnysB41pEd_tEhADCDMh-Ngo9GoJMVeFKatmGhR_4B_qqnJ9gzDNO7yIbEMwsLBIyw", "width": 4160}], "place_id": "ChIJt5bKiv_90YURjqE3Lr06YDY", "plus_code": {"compound_code": "8WR2+92 Mexico City", "global_code": "76F28WR2+92"}, "rating": 4.7, "reference": "ChIJt5bKiv_90YURjqE3Lr06YDY", "types": ["cafe", "food", "point_of_interest", "store", "establishment"], "user_ratings_total": 12}, {"business_status": "OPERATIONAL", "formatted_address": "Av. Toltecas 160, Sta B\u00e1rbara, Iztapalapa, 09000 Ciudad de M\u00e9xico, CDMX", "geometry": {"location": {"lat": 19.3609698, "lng": -99.10389599999999}, "viewport": {"northeast": {"lat": 19.36230562989272, "lng": -99.10251287010728}, "southwest": {"lat": 19.35960597010727, "lng": -99.10521252989271}}}, "icon": "https://maps.gstatic.com/mapfiles/place_api/icons/v1/png_71/cafe-71.png", "name": "Caffe De'l Barrio", "opening_hours": {"open_now": true}, "photos": [{"height": 2448, "html_attributions": ["<a href=\"https://maps.google.com/maps/contrib/111459823024172637257\">Aries Uriel Gomez Lopez</a>"], "photo_reference": "CmRaAAAABYS7h69Rxt30PGnJYogpB2uPeK0cTicrjv23j3i4GoGyZXhnBIs-Hc4kPJ7f-g7fEAobGMqO9S12XdMNlU3orKcoQ7NrxP3s3CpURNPkyFDrynyc4HuQNuiwsa04GdmVEhAZjnuu7WCsZKDeH9UavQyuGhSZ0oqysP-p-4v8dKYxms_NDEi0iA", "width": 3264}], "place_id": "ChIJDaFqVAr-0YURfLkjgqhDy38", "plus_code": {"compound_code": "9V6W+9C Mexico City", "global_code": "76F29V6W+9C"}, "rating": 4.1, "reference": "ChIJDaFqVAr-0YURfLkjgqhDy38", "types": ["cafe", "food", "point_of_interest", "store", "establishment"], "user_ratings_total": 14}, {"business_status": "OPERATIONAL", "formatted_address": "Cereales 332, Valle del Sur, Iztapalapa, 09819 Ciudad de M\u00e9xico, CDMX", "geometry": {"location": {"lat": 19.3481954, "lng": -99.11404809999999}, "viewport": {"northeast": {"lat": 19.34954947989272, "lng": -99.11274282010729}, "southwest": {"lat": 19.34684982010728, "lng": -99.11544247989272}}}, "icon": "https://maps.gstatic.com/mapfiles/place_api/icons/v1/png_71/cafe-71.png", "name": "Cafeter\u00eda Naranja Mec\u00e1nica", "opening_hours": {"open_now": true}, "place_id": "ChIJGQ9sFxv-0YURMyDkOH-MIM8", "plus_code": {"compound_code": "8VXP+79 Valle del Sur, Mexico City", "global_code": "76F28VXP+79"}, "rating": 3.3, "reference": "ChIJGQ9sFxv-0YURMyDkOH-MIM8", "types": ["cafe", "food", "point_of_interest", "store", "establishment"], "user_ratings_total": 7}, {"business_status": "OPERATIONAL", "formatted_address": "Cerrada Iturbide 68-60, San Lucas, Iztapalapa, 09000 Ciudad de M\u00e9xico, CDMX", "geometry": {"location": {"lat": 19.3598347, "lng": -99.0967275}, "viewport": {"northeast": {"lat": 19.36119407989272, "lng": -99.09541612010729}, "southwest": {"lat": 19.35849442010728, "lng": -99.09811577989272}}}, "icon": "https://maps.gstatic.com/mapfiles/place_api/icons/v1/png_71/cafe-71.png", "name": "cafeteria peke y pulques nichos 2", "place_id": "ChIJm0vDRuH90YURxeuZaShyWIA", "plus_code": {"compound_code": "9W53+W8 Mexico City", "global_code": "76F29W53+W8"}, "rating": 4, "reference": "ChIJm0vDRuH90YURxeuZaShyWIA", "types": ["cafe", "food", "point_of_interest", "store", "establishment"], "user_ratings_total": 4}]