[{"business_status": "OPERATIONAL", "geometry": {"location": {"lat": 19.3551623, "lng": -99.1012574}, "viewport": {"northeast": {"lat": 19.3565527302915, "lng": -99.09994121970848}, "southwest": {"lat": 19.3538547697085, "lng": -99.10263918029149}}}, "icon": "https://maps.gstatic.com/mapfiles/place_api/icons/v1/png_71/shopping-71.png", "name": "Copias y Ba\u00f1os Publicos", "opening_hours": {"open_now": true}, "place_id": "ChIJKZDDgeL90YURHlBz5gfysj4", "plus_code": {"compound_code": "9V4X+3F Mexico City, CDMX, Mexico", "global_code": "76F29V4X+3F"}, "reference": "ChIJKZDDgeL90YURHlBz5gfysj4", "scope": "GOOGLE", "types": ["convenience_store", "food", "point_of_interest", "store", "establishment"], "vicinity": "Antiguo Camino a Los Reyes MZ11 LTSN, Ampliaci\u00f3n Ricardo Flores Mag\u00f3n, Ciudad de M\u00e9xico"}, {"business_status": "OPERATIONAL", "geometry": {"location": {"lat": 19.3542372, "lng": -99.0989535}, "viewport": {"northeast": {"lat": 19.3556203302915, "lng": -99.09758991970848}, "southwest": {"lat": 19.3529223697085, "lng": -99.10028788029149}}}, "icon": "https://maps.gstatic.com/mapfiles/place_api/icons/v1/png_71/shopping-71.png", "name": "RECAUDERIA", "opening_hours": {"open_now": true}, "place_id": "ChIJfS_qouL90YURTxBC_rLavdE", "plus_code": {"compound_code": "9W32+MC Mexico City, CDMX, Mexico", "global_code": "76F29W32+MC"}, "reference": "ChIJfS_qouL90YURTxBC_rLavdE", "scope": "GOOGLE", "types": ["convenience_store", "food", "point_of_interest", "store", "establishment"], "vicinity": "Manzana 4 Lote 14, esq. Pastores, Tlacositiluyac, Ampliaci\u00f3n Ricardo Flores Mag\u00f3n, Iztapalapa, Ciudad de M\u00e9xico"}, {"business_status": "OPERATIONAL", "geometry": {"location": {"lat": 19.348032, "lng": -99.09924400000001}, "viewport": {"northeast": {"lat": 19.3494131302915, "lng": -99.0978828197085}, "southwest": {"lat": 19.3467151697085, "lng": -99.10058078029151}}}, "icon": "https://maps.gstatic.com/mapfiles/place_api/icons/v1/png_71/shopping-71.png", "name": "ABARROTES Y VINATERIA Las Margaritas", "opening_hours": {"open_now": true}, "place_id": "ChIJmc57yP390YURWgyLnAgeaK0", "plus_code": {"compound_code": "8WX2+68 Estrella del Sur, Mexico City, CDMX, Mexico", "global_code": "76F28WX2+68"}, "rating": 3, "reference": "ChIJmc57yP390YURWgyLnAgeaK0", "scope": "GOOGLE", "types": ["convenience_store", "food", "point_of_interest", "store", "establishment"], "user_ratings_total": 2, "vicinity": "Cuicacalli Mz29 Lt38, Estrella del Sur"}, {"business_status": "OPERATIONAL", "geometry": {"location": {"lat": 19.3474944, "lng": -99.1031083}, "viewport": {"northeast": {"lat": 19.3488511302915, "lng": -99.10175696970849}, "southwest": {"lat": 19.3461531697085, "lng": -99.10445493029151}}}, "icon": "https://maps.gstatic.com/mapfiles/place_api/icons/v1/png_71/shopping-71.png", "name": "Miscelanea Melissa", "opening_hours": {"open_now": true}, "place_id": "ChIJP77QOwf-0YUR_7r8M52aASU", "plus_code": {"compound_code": "8VWW+XQ Mexico City, CDMX, Mexico", "global_code": "76F28VWW+XQ"}, "reference": "ChIJP77QOwf-0YUR_7r8M52aASU", "scope": "GOOGLE", "types": ["convenience_store", "food", "point_of_interest", "store", "establishment"], "vicinity": "Cacama Lt. 4, Zona Urbana Ejidal los Reyes Culhuacan, Ciudad de M\u00e9xico"}, {"business_status": "OPERATIONAL", "geometry": {"location": {"lat": 19.3476957, "lng": -99.0993794}, "viewport": {"northeast": {"lat": 19.34905638029151, "lng": -99.09806661970849}, "southwest": {"lat": 19.3463584197085, "lng": -99.1007645802915}}}, "icon": "https://maps.gstatic.com/mapfiles/place_api/icons/v1/png_71/shopping-71.png", "name": "Miscel\u00e1nea La Estrella", "opening_hours": {"open_now": true}, "place_id": "ChIJQfyvxf390YURG5UspLLOaZw", "plus_code": {"compound_code": "8WX2+36 Mexico City, CDMX, Mexico", "global_code": "76F28WX2+36"}, "rating": 5, "reference": "ChIJQfyvxf390YURG5UspLLOaZw", "scope": "GOOGLE", "types": ["convenience_store", "food", "point_of_interest", "store", "establishment"], "user_ratings_total": 2, "vicinity": "Xochitl 56, Estrella del Sur, Ciudad de M\u00e9xico"}, {"business_status": "OPERATIONAL", "geometry": {"location": {"lat": 19.3555329, "lng": -99.1014578}, "viewport": {"northeast": {"lat": 19.3569710302915, "lng": -99.10010656970849}, "southwest": {"lat": 19.3542730697085, "lng": -99.10280453029151}}}, "icon": "https://maps.gstatic.com/mapfiles/place_api/icons/v1/png_71/shopping-71.png", "name": "BIMBO EXPENDIO ATLALILCO", "place_id": "ChIJx_YJ1Qn-0YURgf_XFJXzCG4", "plus_code": {"compound_code": "9V4X+6C Mexico City, CDMX, Mexico", "global_code": "76F29V4X+6C"}, "reference": "ChIJx_YJ1Qn-0YURgf_XFJXzCG4", "scope": "GOOGLE", "types": ["convenience_store", "food", "point_of_interest", "store", "establishment"], "vicinity": "Ermita Iztapalapa 939, Santa Isabel Industrial, Ciudad de M\u00e9xico"}]