[{"business_status": "OPERATIONAL", "formatted_address": "Av. San Rafael Atlixco, Leyes de Reforma 1ra Secc, Iztapalapa, Ciudad de M\u00e9xico, CDMX", "geometry": {"location": {"lat": 19.3614302, "lng": -99.07292799999999}, "viewport": {"northeast": {"lat": 19.36324237989272, "lng": -99.07145897010727}, "southwest": {"lat": 19.36054272010728, "lng": -99.07415862989272}}}, "icon": "https://maps.gstatic.com/mapfiles/place_api/icons/v1/png_71/generic_business-71.png", "name": "Art Gallery", "photos": [{"height": 1860, "html_attributions": ["<a href=\"https://maps.google.com/maps/contrib/103483968845387622789\">Jose Luis Flores</a>"], "photo_reference": "CmRaAAAAlJCSm-lVICno8qDcT-Qx70-8B1Lb2oTd1yyq6gxxU5lzaaLmBxU8yXIHzBCoj_iEAN1dj_WCwevpOKik8xQ6WBfoMSiJrSuqhA04UU44gzVIy2a4sk4bbCPSyFcDENVBEhAZ_D0mc_uBHjV9JPDViUPQGhQ-u8ZBcZ2ITIsXhnBAaT9Pksuu-w", "width": 4032}], "place_id": "ChIJqQ6kl5b90YURfebzVpvW-cA", "plus_code": {"compound_code": "9W6G+HR Mexico City", "global_code": "76F29W6G+HR"}, "rating": 4.6, "reference": "ChIJqQ6kl5b90YURfebzVpvW-cA", "types": ["art_gallery", "point_of_interest", "establishment"], "user_ratings_total": 14}, {"business_status": "OPERATIONAL", "formatted_address": "Trojes, Agricultores 45 Esquina, Minerva, Iztapalapa, 09810 CDMX", "geometry": {"location": {"lat": 19.3547569, "lng": -99.1098425}, "viewport": {"northeast": {"lat": 19.35606572989272, "lng": -99.10850147010727}, "southwest": {"lat": 19.35336607010728, "lng": -99.11120112989272}}}, "icon": "https://maps.gstatic.com/mapfiles/place_api/icons/v1/png_71/generic_business-71.png", "name": "Baghdad Galer\u00eda y Caf\u00e9", "photos": [{"height": 2448, "html_attributions": ["<a href=\"https://maps.google.com/maps/contrib/117114724593516635146\">Mauricio Hernandez Galindo</a>"], "photo_reference": "CmRZAAAAuJ_Zx9_Lg1bePoW5bzStKruHuwqGEM-SVFIxtS2aN86XIHHyuPXXr63N2KsZBZIzB9eb8Tf5HVUSNfwMcSR5PvXrsYkPD7qhKtUSkT-qKeFDrpHLDxDN5I6aKYrFQit4EhCIMn5g4DgoU4BUiCJMUuEyGhTywub3_ATrKtM33HcUtQSd_LAdsA", "width": 3264}], "place_id": "ChIJRYFkaKb_0YURQIcU3T4Nvck", "plus_code": {"compound_code": "9V3R+W3 Minerva, Mexico City", "global_code": "76F29V3R+W3"}, "rating": 4.6, "reference": "ChIJRYFkaKb_0YURQIcU3T4Nvck", "types": ["art_gallery", "point_of_interest", "establishment"], "user_ratings_total": 20}, {"business_status": "OPERATIONAL", "formatted_address": "Pablo L. Rivas Mart\u00ednez 634, Sector Popular, Escuadr\u00f3n 201, Iztapalapa, 09060 Ciudad de M\u00e9xico, CDMX", "geometry": {"location": {"lat": 19.3663052, "lng": -99.1127056}, "viewport": {"northeast": {"lat": 19.36764087989272, "lng": -99.11128612010728}, "southwest": {"lat": 19.36494122010728, "lng": -99.11398577989272}}}, "icon": "https://maps.gstatic.com/mapfiles/place_api/icons/v1/png_71/generic_business-71.png", "name": "Art Residency", "photos": [{"height": 1821, "html_attributions": ["<a href=\"https://maps.google.com/maps/contrib/102707866821136634299\">Damian H. Alvarez</a>"], "photo_reference": "CmRaAAAAPMjuHCXgLXxMSztG1AjZlJugYP0BYyBZTto9RlE7eZZUOatotT_hRZQmW1uyTBEaYwXrtn4AtEJ5hhqGfwKBUTnNg0yzgiqJedjCnWJ9rgpmgVvw-LUR-QlvBMErcYUgEhB_AzJ0N_kzNdtMJkGEl_mmGhSeBIKZyz51lJ3qJGQsWJDuVe5shg", "width": 1024}], "place_id": "ChIJw-4tfG3-0YURrBc-UsUwvcY", "plus_code": {"compound_code": "9V8P+GW Mexico City", "global_code": "76F29V8P+GW"}, "rating": 4.5, "reference": "ChIJw-4tfG3-0YURrBc-UsUwvcY", "types": ["art_gallery", "point_of_interest", "establishment"], "user_ratings_total": 4}, {"business_status": "OPERATIONAL", "formatted_address": "Ejido Xochimilco 75, Ex-Ejido de San Francisco Culhuacan, Coyoac\u00e1n, 04470 Ciudad de M\u00e9xico, CDMX", "geometry": {"location": {"lat": 19.3353323, "lng": -99.1277393}, "viewport": {"northeast": {"lat": 19.33668082989272, "lng": -99.1263529201073}, "southwest": {"lat": 19.33398117010728, "lng": -99.12905257989273}}}, "icon": "https://maps.gstatic.com/mapfiles/place_api/icons/v1/png_71/generic_business-71.png", "name": "Dzulum art studio", "place_id": "ChIJ9zVJmsABzoURSgYcR8XRtCs", "plus_code": {"compound_code": "8VPC+4W Mexico City", "global_code": "76F28VPC+4W"}, "rating": 0, "reference": "ChIJ9zVJmsABzoURSgYcR8XRtCs", "types": ["art_gallery", "point_of_interest", "establishment"], "user_ratings_total": 0}, {"business_status": "OPERATIONAL", "formatted_address": "Viena 249-bis, Del Carmen, Coyoac\u00e1n, 04100 Ciudad de M\u00e9xico, CDMX", "geometry": {"location": {"lat": 19.3557992, "lng": -99.16672799999999}, "viewport": {"northeast": {"lat": 19.35719407989273, "lng": -99.16538827010729}, "southwest": {"lat": 19.35449442010728, "lng": -99.16808792989272}}}, "icon": "https://maps.gstatic.com/mapfiles/place_api/icons/v1/png_71/generic_business-71.png", "name": "Arte Hoy Galer\u00eda", "photos": [{"height": 1836, "html_attributions": ["<a href=\"https://maps.google.com/maps/contrib/102333996999137423115\">Arturo Amor</a>"], "photo_reference": "CmRaAAAA6a70X24WzRXyN-JLjky8ypq_dXOgGd37xG5Pvj5f2vx03Z-QCmoYhE89VNBS22zoshvVEZKU8E5KFEwnHQXhxKoyAxXHKfP3mK8FrjeqEjhQ_kazAC5bsVsmuFyoRDUsEhB9GHu3sflzDiTASEiBaoJfGhRupiPs49jP8xg7CrFTNFVnwUKTng", "width": 3264}], "place_id": "ChIJzdpp7sH_0YURkZd3IJkhQVE", "plus_code": {"compound_code": "9R4M+88 Mexico City", "global_code": "76F29R4M+88"}, "rating": 3.6, "reference": "ChIJzdpp7sH_0YURkZd3IJkhQVE", "types": ["art_gallery", "point_of_interest", "establishment"], "user_ratings_total": 11}, {"business_status": "OPERATIONAL", "formatted_address": "Sur 167 1718, Bramadero Ramos Mill\u00e1n, Iztacalco, 08020 Ciudad de M\u00e9xico, CDMX", "geometry": {"location": {"lat": 19.3891217, "lng": -99.0942059}, "viewport": {"northeast": {"lat": 19.39047052989272, "lng": -99.09284337010727}, "southwest": {"lat": 19.38777087010728, "lng": -99.09554302989271}}}, "icon": "https://maps.gstatic.com/mapfiles/place_api/icons/v1/png_71/generic_business-71.png", "name": "galer\u00eda Tamat\u00e1n", "place_id": "ChIJgQ9bxiz80YURCX3syEYLUEc", "plus_code": {"compound_code": "9WQ4+J8 Mexico City", "global_code": "76F29WQ4+J8"}, "rating": 5, "reference": "ChIJgQ9bxiz80YURCX3syEYLUEc", "types": ["art_gallery", "point_of_interest", "establishment"], "user_ratings_total": 1}, {"business_status": "OPERATIONAL", "formatted_address": "int. 110 102 de Calz de La Viga Unidad, Modelo, 09089 Ciudad de M\u00e9xico, CDMX", "geometry": {"location": {"lat": 19.3664039, "lng": -99.1228929}, "viewport": {"northeast": {"lat": 19.36763687989272, "lng": -99.12167742010729}, "southwest": {"lat": 19.36493722010728, "lng": -99.12437707989272}}}, "icon": "https://maps.gstatic.com/mapfiles/place_api/icons/v1/png_71/generic_business-71.png", "name": "Espacio Lim\u00edtrofe", "photos": [{"height": 3183, "html_attributions": ["<a href=\"https://maps.google.com/maps/contrib/104641664462811918265\">A Google User</a>"], "photo_reference": "CmRaAAAAsDsaMvxScHeds33ZSb4zAPK70ov3pvEQ9cmbzoJYIMSA6rDmgUIZvJCALAojuGeHQvcTbFny9Hr1W4NtpAl3_uUupO1oOl9wIk8ZX6gWRQJWc2ytJGsIRl7LMyLanmlWEhAMUgh0lk10IK-gOEWDhVODGhRgWt11AxIm9_ASaQAwzq7Ev7RZKA", "width": 2387}], "place_id": "ChIJMT8cT8n_0YURIJp3PK_G7iM", "plus_code": {"compound_code": "9V8G+HR Mexico City", "global_code": "76F29V8G+HR"}, "rating": 5, "reference": "ChIJMT8cT8n_0YURIJp3PK_G7iM", "types": ["art_gallery", "museum", "point_of_interest", "establishment"], "user_ratings_total": 1}, {"business_status": "OPERATIONAL", "formatted_address": "Mirasoles, Av. Tlahuac 1577, Tulyehualco Canal de Garay, Iztapalapa, 09919 Ciudad de M\u00e9xico, CDMX", "geometry": {"location": {"lat": 19.3171557, "lng": -99.07427299999999}, "viewport": {"northeast": {"lat": 19.31852652989272, "lng": -99.07290402010727}, "southwest": {"lat": 19.31582687010728, "lng": -99.07560367989272}}}, "icon": "https://maps.gstatic.com/mapfiles/place_api/icons/v1/png_71/generic_business-71.png", "name": "Retrato y Arte", "opening_hours": {"open_now": true}, "photos": [{"height": 2304, "html_attributions": ["<a href=\"https://maps.google.com/maps/contrib/109495544044165369231\">Hector Chavelas</a>"], "photo_reference": "CmRaAAAAYqKoCX9JK6RTxAkiHNI8PHREskpRMfodi7uEWrdndRsCVuGtCANPfr_zfFHs4V6W5Swb5h7cvb-htIgBOjoU2vm_nnDDbpLe9BUNCqPwFEfQa-Kuf1hf02qVeguOgPkWEhCqwijBscJ87CG7WOMe-pvqGhQeRMlq0fKlZ1fuIV1yPaAWhNzz7Q", "width": 3072}], "place_id": "ChIJM5Bqd0ECzoURgyobwEkWAQY", "plus_code": {"compound_code": "8W8G+V7 Mexico City", "global_code": "76F28W8G+V7"}, "rating": 5, "reference": "ChIJM5Bqd0ECzoURgyobwEkWAQY", "types": ["art_gallery", "point_of_interest", "establishment"], "user_ratings_total": 1}, {"business_status": "OPERATIONAL", "formatted_address": "Gobernador Rafael Rebollar 43, San Miguel Chapultepec I Secc, Miguel Hidalgo, 11850 Ciudad de M\u00e9xico, CDMX", "geometry": {"location": {"lat": 19.413262, "lng": -99.18703599999999}, "viewport": {"northeast": {"lat": 19.41460432989272, "lng": -99.18566527010728}, "southwest": {"lat": 19.41190467010728, "lng": -99.18836492989273}}}, "icon": "https://maps.gstatic.com/mapfiles/place_api/icons/v1/png_71/generic_business-71.png", "name": "Mexican Art Gallery GAM", "opening_hours": {"open_now": false}, "photos": [{"height": 4032, "html_attributions": ["<a href=\"https://maps.google.com/maps/contrib/110963862640444360094\">A Google User</a>"], "photo_reference": "CmRaAAAA24DJVbnfgZmwYkqqIDrQRFqov8wAh5XYn1AZCzcRJw0x5-3OGmftwJm9q59Ib2Owj-OyGJfXapZUd-Eaw38g10fGLl5g2Wsn0cdeFXGVn7pjOHts1NaLwHPa_wctf-LmEhA3t50beagPHjgo_dM5WEkRGhQNmHa3TIkRj3Vbssde-Z1EiT5Tug", "width": 3024}], "place_id": "ChIJfwhDKln_0YURgYPzyXiKOZo", "plus_code": {"compound_code": "CR77+85 Mexico City", "global_code": "76F2CR77+85"}, "rating": 4.5, "reference": "ChIJfwhDKln_0YURgYPzyXiKOZo", "types": ["art_gallery", "tourist_attraction", "point_of_interest", "establishment"], "user_ratings_total": 132}, {"business_status": "OPERATIONAL", "formatted_address": "Sur 73 440, Justo Sierra, Iztapalapa, 09460 Ciudad de M\u00e9xico, CDMX", "geometry": {"location": {"lat": 19.3645035, "lng": -99.1339347}, "viewport": {"northeast": {"lat": 19.36581362989272, "lng": -99.13246032010728}, "southwest": {"lat": 19.36311397010727, "lng": -99.13515997989272}}}, "icon": "https://maps.gstatic.com/mapfiles/place_api/icons/v1/png_71/generic_business-71.png", "name": "Edsonian bvsett", "place_id": "ChIJO0lBZcL_0YUR4fW8tQvm6mI", "plus_code": {"compound_code": "9V78+RC Mexico City", "global_code": "76F29V78+RC"}, "rating": 5, "reference": "ChIJO0lBZcL_0YUR4fW8tQvm6mI", "types": ["art_gallery", "point_of_interest", "establishment"], "user_ratings_total": 2}, {"business_status": "OPERATIONAL", "formatted_address": "Francisco Ortega 23, Coyoac\u00e1n TNT, Coyoac\u00e1n, 04000 Ciudad de M\u00e9xico, CDMX", "geometry": {"location": {"lat": 19.3482431, "lng": -99.16330210000001}, "viewport": {"northeast": {"lat": 19.34956337989272, "lng": -99.16196087010728}, "southwest": {"lat": 19.34686372010728, "lng": -99.16466052989271}}}, "icon": "https://maps.gstatic.com/mapfiles/place_api/icons/v1/png_71/generic_business-71.png", "name": "Estaci\u00f3n Coyoac\u00e1n Arte Contemporaneo", "opening_hours": {"open_now": true}, "photos": [{"height": 1908, "html_attributions": ["<a href=\"https://maps.google.com/maps/contrib/107174743909429415297\">Gregorio Casta\u00f1eda C.</a>"], "photo_reference": "CmRaAAAA5RSdzg_iyMHhi5gYGTlnPdzLnzASgPWPaRSbpH1a-4t7tdI2v6GgxsVyD2wuqW1aTkk3Qi738h3krMDbuAPfz6-7mnBiYNnScBKK5UlcwB6OVWJWRKSPyE9z32WwXlzWEhCauNpoBBoe_eDpeqcO27IlGhRGxmDOaziZbcRO7eIEkujbOqwyQw", "width": 4032}], "place_id": "ChIJz2mVvtz_0YURgjGHHvY2Xgo", "plus_code": {"compound_code": "8RXP+7M Mexico City", "global_code": "76F28RXP+7M"}, "rating": 4.5, "reference": "ChIJz2mVvtz_0YURgjGHHvY2Xgo", "types": ["art_gallery", "point_of_interest", "store", "establishment"], "user_ratings_total": 81}, {"business_status": "OPERATIONAL", "formatted_address": "Edificio A, Villa Quietud, Ciudad de M\u00e9xico, CDMX", "geometry": {"location": {"lat": 19.3041552, "lng": -99.10316429999999}, "viewport": {"northeast": {"lat": 19.30550502989272, "lng": -99.10181447010727}, "southwest": {"lat": 19.30280537010728, "lng": -99.1045141298927}}}, "icon": "https://maps.gstatic.com/mapfiles/place_api/icons/v1/png_71/generic_business-71.png", "name": "Galer\u00eda del Sur, Sala Leopoldo M\u00e9ndez", "opening_hours": {"open_now": false}, "photos": [{"height": 1732, "html_attributions": ["<a href=\"https://maps.google.com/maps/contrib/109018412196248829598\">A Google User</a>"], "photo_reference": "CmRaAAAA5GwUuvPkThoyBMI6soxmYzgfLh22NN-DMhfsTLrCyKgkSoboRK7_sbS25zvLXFINEBTZsA2HcoHcamOLtJjG1DDzstY3g4dJEkk7SsSwUgXSoB-ahvbheTeRsjqDm8xAEhBZK3zvCqvlGPOHvMxqL_-bGhTiE7XDqVIUgkvrDZMVMY77gmITKA", "width": 2309}], "place_id": "ChIJLQJye24BzoURuAG6W_nyfmM", "plus_code": {"compound_code": "8V3W+MP Mexico City", "global_code": "76F28V3W+MP"}, "rating": 5, "reference": "ChIJLQJye24BzoURuAG6W_nyfmM", "types": ["art_gallery", "point_of_interest", "establishment"], "user_ratings_total": 1}, {"business_status": "OPERATIONAL", "formatted_address": "Los Robles, Calz. del Hueso 670, Coapa 28 Bis, Coyoac\u00e1n, 04870 Ciudad de M\u00e9xico, CDMX", "geometry": {"location": {"lat": 19.2998736, "lng": -99.1058376}, "viewport": {"northeast": {"lat": 19.30117877989272, "lng": -99.10448517010728}, "southwest": {"lat": 19.29847912010728, "lng": -99.10718482989272}}}, "icon": "https://maps.gstatic.com/mapfiles/place_api/icons/v1/png_71/generic_business-71.png", "name": "Silvia Vasquez Avalos", "place_id": "ChIJc4UctJsBzoURvTkw8mUNEI4", "plus_code": {"compound_code": "7VXV+WM Mexico City", "global_code": "76F27VXV+WM"}, "rating": 4, "reference": "ChIJc4UctJsBzoURvTkw8mUNEI4", "types": ["art_gallery", "point_of_interest", "establishment"], "user_ratings_total": 1}, {"business_status": "OPERATIONAL", "formatted_address": "Calz. Del Hueso 670 local 23, Los robles, 04870 CDMX", "geometry": {"location": {"lat": 19.303373, "lng": -99.11867799999999}, "viewport": {"northeast": {"lat": 19.30476102989272, "lng": -99.11753832010727}, "southwest": {"lat": 19.30206137010727, "lng": -99.12023797989272}}}, "icon": "https://maps.gstatic.com/mapfiles/place_api/icons/v1/png_71/generic_business-71.png", "name": "Galer\u00edas V\u00e1zquez", "opening_hours": {"open_now": true}, "photos": [{"height": 4608, "html_attributions": ["<a href=\"https://maps.google.com/maps/contrib/101226785813533469313\">A Google User</a>"], "photo_reference": "CmRaAAAAgnt4AtG1uz-lflTnLe78I0pRVm0RubG8m32YLizSkGIwLqY11WfZ59wN9qcIj3T75uiQzJXg_aSumEsEI1bKub_uFG8KBijkEv__4iPVkHkdKZxdDgyzaF9Al2uqT6cKEhBNlEYqjMLvxPsO3VfClnRNGhQizVt5_4iLF8wfLmSEhg27WWCTIw", "width": 3456}], "place_id": "ChIJ8VCm9pkBzoURNMPO5JO4uLo", "plus_code": {"compound_code": "8V3J+8G Mexico City", "global_code": "76F28V3J+8G"}, "rating": 3, "reference": "ChIJ8VCm9pkBzoURNMPO5JO4uLo", "types": ["art_gallery", "point_of_interest", "establishment"], "user_ratings_total": 1}, {"business_status": "OPERATIONAL", "formatted_address": "Eje Central L\u00e1zaro C\u00e1rdenas 518, Portales Nte, Benito Ju\u00e1rez, 03300 Ciudad de M\u00e9xico, CDMX", "geometry": {"location": {"lat": 19.367284, "lng": -99.15056779999999}, "viewport": {"northeast": {"lat": 19.36862197989272, "lng": -99.14914112010727}, "southwest": {"lat": 19.36592232010728, "lng": -99.15184077989272}}}, "icon": "https://maps.gstatic.com/mapfiles/place_api/icons/v1/png_71/generic_business-71.png", "name": "VADIA Arte & Decoraci\u00f3n", "opening_hours": {"open_now": false}, "photos": [{"height": 1600, "html_attributions": ["<a href=\"https://maps.google.com/maps/contrib/103214476021791319797\">A Google User</a>"], "photo_reference": "CmRaAAAAUU1bIBCy3TWS45mNVHKL_co43ehgYk7aqYi6iwQ5IPUp17_YK8RNgngNr-W7cH3WdbUJOPIZi7s3H-mdalprBWGKFhKloZwJLalQ-jz8MNSJH-Omsc6PWKYuvX0YGV_hEhCFGmUVr9F0nr-O6nUeJ8_5GhR7QJm76FuSf70B_u1Ogi131vqIbg", "width": 1200}], "place_id": "ChIJh1f9BbT_0YURwgxTOI59tuA", "plus_code": {"compound_code": "9R8X+WQ Mexico City", "global_code": "76F29R8X+WQ"}, "rating": 5, "reference": "ChIJh1f9BbT_0YURwgxTOI59tuA", "types": ["art_gallery", "home_goods_store", "point_of_interest", "store", "establishment"], "user_ratings_total": 1}, {"business_status": "OPERATIONAL", "formatted_address": "Cuauht\u00e9moc 180, Del Carmen, Coyoac\u00e1n, 04000 Ciudad de M\u00e9xico, CDMX", "geometry": {"location": {"lat": 19.35135, "lng": -99.16362199999999}, "viewport": {"northeast": {"lat": 19.35272962989272, "lng": -99.16226367010728}, "southwest": {"lat": 19.35002997010728, "lng": -99.16496332989273}}}, "icon": "https://maps.gstatic.com/mapfiles/place_api/icons/v1/png_71/shopping-71.png", "name": "Jessab", "opening_hours": {"open_now": false}, "photos": [{"height": 2425, "html_attributions": ["<a href=\"https://maps.google.com/maps/contrib/109543354802968765647\">Jessab</a>"], "photo_reference": "CmRaAAAAJybmGSSUDZeTnGjoZoj2OUJWQjNzWuFKN3J8HfTJwwzkFq2Av_pNbGufyEE18VuGlvdvJY8hC8kTo1zqICOgy-arKwVKRBzr7c8IHcNzgUefq-qSb0Mx4ql5pRVGc8eeEhDaAZKHTeRx0Rlz0Jcxinw0GhRx1Bi8fWXaXa3j_QKXgwvh265erQ", "width": 3927}], "place_id": "ChIJp_UzE8P_0YURz16mnz6Nu0A", "plus_code": {"compound_code": "9R2P+GH Mexico City", "global_code": "76F29R2P+GH"}, "rating": 5, "reference": "ChIJp_UzE8P_0YURz16mnz6Nu0A", "types": ["art_gallery", "home_goods_store", "point_of_interest", "store", "establishment"], "user_ratings_total": 11}, {"business_status": "OPERATIONAL", "formatted_address": "Av Miguel Hidalgo 266, La Concepci\u00f3n, Coyoac\u00e1n, 04020 Ciudad de M\u00e9xico, CDMX", "geometry": {"location": {"lat": 19.3496028, "lng": -99.1602815}, "viewport": {"northeast": {"lat": 19.35103522989272, "lng": -99.15895932010729}, "southwest": {"lat": 19.34833557010728, "lng": -99.16165897989274}}}, "icon": "https://maps.gstatic.com/mapfiles/place_api/icons/v1/png_71/generic_business-71.png", "name": "Habitus Uthopia", "opening_hours": {"open_now": false}, "photos": [{"height": 768, "html_attributions": ["<a href=\"https://maps.google.com/maps/contrib/107747018122335366342\">M\u00f3nica Mart\u00ednez</a>"], "photo_reference": "CmRaAAAAFuVxtQKFck6iUOO0kb9QGeIqdz8rSkwl0S7fd5ZXmtlgBSty9DnGbzQfaJG1D-kHuaZkxOzTolaMC3B9YZC2q4H02X_vQzYQRx3j1-0Zfoe_yRCcwXnm7izU5VGC5g2jEhA0wVpVJfvUO6FvWZxSNCNzGhQySpy3DfDT750gtd760uaXr1xvnA", "width": 1024}], "place_id": "ChIJBYL_Ppf_0YURJrawe5P4vJg", "plus_code": {"compound_code": "8RXQ+RV Mexico City", "global_code": "76F28RXQ+RV"}, "rating": 5, "reference": "ChIJBYL_Ppf_0YURJrawe5P4vJg", "types": ["art_gallery", "point_of_interest", "establishment"], "user_ratings_total": 2}, {"business_status": "OPERATIONAL", "formatted_address": "Ayuntamiento 36-C, Del Carmen, Coyoac\u00e1n, 04100 Ciudad de M\u00e9xico, CDMX", "geometry": {"location": {"lat": 19.350954, "lng": -99.16819679999999}, "viewport": {"northeast": {"lat": 19.35229127989272, "lng": -99.16679487010728}, "southwest": {"lat": 19.34959162010728, "lng": -99.16949452989272}}}, "icon": "https://maps.gstatic.com/mapfiles/place_api/icons/v1/png_71/generic_business-71.png", "name": "Galeria Escorpi\u00f3n", "opening_hours": {"open_now": false}, "place_id": "ChIJzy3AI-j_0YURxOYW11mvsUM", "plus_code": {"compound_code": "9R2J+9P Mexico City", "global_code": "76F29R2J+9P"}, "rating": 0, "reference": "ChIJzy3AI-j_0YURxOYW11mvsUM", "types": ["art_gallery", "point_of_interest", "establishment"], "user_ratings_total": 0}, {"business_status": "OPERATIONAL", "formatted_address": "Calle Xicot\u00e9ncatl 287, Del Carmen, Coyoac\u00e1n, 04100 Ciudad de M\u00e9xico, CDMX", "geometry": {"location": {"lat": 19.3536868, "lng": -99.1598503}, "viewport": {"northeast": {"lat": 19.35498457989272, "lng": -99.15848867010729}, "southwest": {"lat": 19.35228492010728, "lng": -99.16118832989274}}}, "icon": "https://maps.gstatic.com/mapfiles/place_api/icons/v1/png_71/generic_business-71.png", "name": "Galer\u00eda Frida Kahlo", "opening_hours": {"open_now": true}, "place_id": "ChIJLSDVTsT_0YURReh-G_8jA-E", "plus_code": {"compound_code": "9R3R+F3 Mexico City", "global_code": "76F29R3R+F3"}, "rating": 4, "reference": "ChIJLSDVTsT_0YURReh-G_8jA-E", "types": ["art_gallery", "point_of_interest", "establishment"], "user_ratings_total": 16}, {"business_status": "OPERATIONAL", "formatted_address": "Av Miguel \u00c1ngel de Quevedo 1105, Col Del Carmen, Atl\u00e1ntida, Coyoac\u00e1n, 04370 Ciudad de M\u00e9xico, CDMX", "geometry": {"location": {"lat": 19.34232, "lng": -99.1478289}, "viewport": {"northeast": {"lat": 19.34373177989272, "lng": -99.14646972010728}, "southwest": {"lat": 19.34103212010728, "lng": -99.14916937989271}}}, "icon": "https://maps.gstatic.com/mapfiles/place_api/icons/v1/png_71/generic_business-71.png", "name": "Mundo de Arte", "opening_hours": {"open_now": false}, "place_id": "ChIJXz278dT_0YURJkIeEDQoPnQ", "plus_code": {"compound_code": "8VR2+WV Mexico City", "global_code": "76F28VR2+WV"}, "rating": 4.7, "reference": "ChIJXz278dT_0YURJkIeEDQoPnQ", "types": ["art_gallery", "point_of_interest", "store", "establishment"], "user_ratings_total": 3}]