[{"business_status": "OPERATIONAL", "formatted_address": "Chimacoatl 13, Estrella del Sur, Iztapalapa, 09820 Ciudad de M\u00e9xico, CDMX", "geometry": {"location": {"lat": 19.3517809, "lng": -99.09898369999999}, "viewport": {"northeast": {"lat": 19.35305317989272, "lng": -99.09766657010728}, "southwest": {"lat": 19.35035352010728, "lng": -99.10036622989273}}}, "icon": "https://maps.gstatic.com/mapfiles/place_api/icons/v1/png_71/shopping-71.png", "name": "Comercializadora Fammax Parts of bicycles and motorcycles", "opening_hours": {"open_now": false}, "place_id": "ChIJpW7lJP390YURab239SMzfRM", "plus_code": {"compound_code": "9W22+PC Mexico City", "global_code": "76F29W22+PC"}, "rating": 4.2, "reference": "ChIJpW7lJP390YURab239SMzfRM", "types": ["bicycle_store", "car_repair", "point_of_interest", "store", "establishment"], "user_ratings_total": 6}, {"business_status": "OPERATIONAL", "formatted_address": "Ermita Iztapalapa 876, Sta B\u00e1rbara, Iztapalapa, 09000 Ciudad de M\u00e9xico, CDMX", "geometry": {"location": {"lat": 19.3560861, "lng": -99.10391659999999}, "viewport": {"northeast": {"lat": 19.35739102989272, "lng": -99.10257107010727}, "southwest": {"lat": 19.35469137010728, "lng": -99.10527072989271}}}, "icon": "https://maps.gstatic.com/mapfiles/place_api/icons/v1/png_71/shopping-71.png", "name": "Super Bike Ermita", "opening_hours": {"open_now": false}, "photos": [{"height": 1920, "html_attributions": ["<a href=\"https://maps.google.com/maps/contrib/109480878016842708926\">Zero Luna</a>"], "photo_reference": "CmRaAAAAT2YwrZL2MoBWFm3LA5BgIMAtv0zi6sbsk5egw-carmwOfhjCxXQqj-tyUxzHtsfR1wu7aU_yVG1eESYsC4xxxAns0z3eCD2pbav2IWZHDY_zW3ghor0e__umb74YNcmJEhAPyqS3uzpKxN9fETSemai6GhQMYxQman4wxmC1UFdUiq29D11gsg", "width": 1080}], "place_id": "ChIJyZkppgn-0YURDTcoh3AKhho", "plus_code": {"compound_code": "9V4W+CC Mexico City", "global_code": "76F29V4W+CC"}, "rating": 4.2, "reference": "ChIJyZkppgn-0YURDTcoh3AKhho", "types": ["bicycle_store", "point_of_interest", "store", "establishment"], "user_ratings_total": 132}, {"business_status": "OPERATIONAL", "formatted_address": "Ermita Iztapalapa 750, Granjas San Antonio, Iztapalapa, 09070 Ciudad de M\u00e9xico, CDMX", "geometry": {"location": {"lat": 19.3565556, "lng": -99.10883729999999}, "viewport": {"northeast": {"lat": 19.35784957989272, "lng": -99.10749347010729}, "southwest": {"lat": 19.35514992010727, "lng": -99.11019312989272}}}, "icon": "https://maps.gstatic.com/mapfiles/place_api/icons/v1/png_71/shopping-71.png", "name": "Latin Retro Bikes", "place_id": "ChIJkV5xbsH_0YURtWmZRWxjCV0", "plus_code": {"compound_code": "9V4R+JF Mexico City", "global_code": "76F29V4R+JF"}, "rating": 0, "reference": "ChIJkV5xbsH_0YURtWmZRWxjCV0", "types": ["bicycle_store", "point_of_interest", "store", "establishment"], "user_ratings_total": 0}, {"business_status": "OPERATIONAL", "formatted_address": "Eje 3, Av. 5, Escuadr\u00f3n 201, 09060 Ciudad de M\u00e9xico, CDMX", "geometry": {"location": {"lat": 19.3589781, "lng": -99.11098109999999}, "viewport": {"northeast": {"lat": 19.36031667989272, "lng": -99.10957777010728}, "southwest": {"lat": 19.35761702010728, "lng": -99.11227742989271}}}, "icon": "https://maps.gstatic.com/mapfiles/place_api/icons/v1/png_71/shopping-71.png", "name": "Oskarbyke taller de reparaci\u00f3n de bicicletas", "opening_hours": {"open_now": false}, "photos": [{"height": 4032, "html_attributions": ["<a href=\"https://maps.google.com/maps/contrib/116226363536134655648\">Oscar Moreno Fosado</a>"], "photo_reference": "CmRaAAAAnNpWEnrCwtwL73vfCB0ykFFkueLzwSY5jJsBajhZYifiHMvuqi4arhnUs9ajfR-IvzH5gs2bQ5jlsgWi_gXTsldCggQBIL7k4auYrlV_iRWxMzdJ9Nn8RSG46syT69zNEhCePNmPgUxysQ_mlWKnW6QFGhTWSnYGCT-0gOOYrZ-tLy7DCtzm1Q", "width": 3024}], "place_id": "ChIJK3dywg3-0YUR8jBIE-ixmjM", "plus_code": {"compound_code": "9V5Q+HJ Mexico City", "global_code": "76F29V5Q+HJ"}, "rating": 3.9, "reference": "ChIJK3dywg3-0YUR8jBIE-ixmjM", "types": ["bicycle_store", "point_of_interest", "store", "establishment"], "user_ratings_total": 9}, {"business_status": "OPERATIONAL", "formatted_address": "Av. 5 No. 6, Zona Ermita A, Escuadr\u00f3n 201, Iztapalapa, 09060 Ciudad de M\u00e9xico, CDMX", "geometry": {"location": {"lat": 19.3568805, "lng": -99.11153859999999}, "viewport": {"northeast": {"lat": 19.35821267989272, "lng": -99.11010607010726}, "southwest": {"lat": 19.35551302010728, "lng": -99.11280572989271}}}, "icon": "https://maps.gstatic.com/mapfiles/place_api/icons/v1/png_71/shopping-71.png", "name": "BICI CINCO", "opening_hours": {"open_now": true}, "photos": [{"height": 2448, "html_attributions": ["<a href=\"https://maps.google.com/maps/contrib/105276387156078179248\">bicicinco</a>"], "photo_reference": "CmRaAAAAYBt77ib_kL5ZuM3Ax3hJ-VzWc2g5Cm91w0C-mEiW5rbsKw37oioH6SzZLPpdfRjz6BJ7A8xhAagyTBibGQuWGyUUqBREeaL5P4orE86SbxMVTGDAr34Qxg3_EpN1tbyVEhDEXgLy394RWVwXjU5MYFg5GhQBgEFqjOv9OgTF-LHqZS7Hy7Edrw", "width": 3264}], "place_id": "ChIJg9fbFw7-0YURkSc673Z6MCc", "plus_code": {"compound_code": "9V4Q+Q9 Mexico City", "global_code": "76F29V4Q+Q9"}, "rating": 4.8, "reference": "ChIJg9fbFw7-0YURkSc673Z6MCc", "types": ["bicycle_store", "point_of_interest", "store", "establishment"], "user_ratings_total": 8}, {"business_status": "OPERATIONAL", "formatted_address": "Ermita Iztapalapa 1781, 8va Amp San Miguel, Iztapalapa, 09837 Ciudad de M\u00e9xico, CDMX", "geometry": {"location": {"lat": 19.3513694, "lng": -99.07615709999999}, "viewport": {"northeast": {"lat": 19.35277837989272, "lng": -99.07477777010727}, "southwest": {"lat": 19.35007872010728, "lng": -99.07747742989272}}}, "icon": "https://maps.gstatic.com/mapfiles/place_api/icons/v1/png_71/shopping-71.png", "name": "INTERBIKE", "opening_hours": {"open_now": false}, "photos": [{"height": 3998, "html_attributions": ["<a href=\"https://maps.google.com/maps/contrib/109648888150256741187\">one two</a>"], "photo_reference": "CmRaAAAACWh-nr4fMe93N6rQF3IiDeDo1Ns9EMf1QeLtEtEkXDWPn5n5teK8Yv46pjnchUZ53BHhwXMEAM_EC7X36uzipxRHBt71xlumk4599WMGaFNvkvb2bftwaHy_Q1rMBDVrEhBoUb2Rf-rQxQCbi23ly_6jGhQq2_l9uQiwjk1jYqcrciHpdPkWEQ", "width": 2248}], "place_id": "ChIJXZcpqY390YUR1CRKlvWNzPw", "plus_code": {"compound_code": "9W2F+GG Mexico City", "global_code": "76F29W2F+GG"}, "rating": 3.6, "reference": "ChIJXZcpqY390YUR1CRKlvWNzPw", "types": ["bicycle_store", "point_of_interest", "store", "establishment"], "user_ratings_total": 71}, {"business_status": "OPERATIONAL", "formatted_address": "Jacarandas 23, El Molino Iztapalapa, Iztapalapa, 09830 Ciudad de M\u00e9xico, CDMX", "geometry": {"location": {"lat": 19.3555772, "lng": -99.08641039999999}, "viewport": {"northeast": {"lat": 19.35695982989272, "lng": -99.0851298201073}, "southwest": {"lat": 19.35426017010727, "lng": -99.08782947989273}}}, "icon": "https://maps.gstatic.com/mapfiles/place_api/icons/v1/png_71/shopping-71.png", "name": "bicicletas valerio", "opening_hours": {"open_now": false}, "photos": [{"height": 397, "html_attributions": ["<a href=\"https://maps.google.com/maps/contrib/107531322467213672251\">Vicente Valerio</a>"], "photo_reference": "CmRaAAAAiCXdwYKOPahu4bpipYbk_oBdP8q56iwau2mO2-WIJXL1z2yFsK96gKVdqniJF2yA8ChZucEd747Kw8guj9ShFllxXcjEblT8KqNw6uWHEbI5Nbgl2mnwJInpw-B-CVu9EhDb6OLFHjMb9E9zWf2I8OTVGhSxpQLXhRCuUXT18NtGTIIkGkapYg", "width": 530}], "place_id": "ChIJd_-uW-790YURTqreo7IXRRg", "plus_code": {"compound_code": "9W47+6C Mexico City", "global_code": "76F29W47+6C"}, "rating": 4.5, "reference": "ChIJd_-uW-790YURTqreo7IXRRg", "types": ["bicycle_store", "point_of_interest", "store", "establishment"], "user_ratings_total": 24}, {"business_status": "OPERATIONAL", "formatted_address": "Benito Ju\u00e1rez 72 Bis, Los Reyes Culhuacan, Iztapalapa, 09840 Ciudad de M\u00e9xico, CDMX", "geometry": {"location": {"lat": 19.3424749, "lng": -99.1094564}, "viewport": {"northeast": {"lat": 19.34382472989272, "lng": -99.10810657010727}, "southwest": {"lat": 19.34112507010728, "lng": -99.11080622989272}}}, "icon": "https://maps.gstatic.com/mapfiles/place_api/icons/v1/png_71/shopping-71.png", "name": "V\u00e9loM\u00e9xico Bicicleteria", "photos": [{"height": 3024, "html_attributions": ["<a href=\"https://maps.google.com/maps/contrib/100255438913391446529\">A Google User</a>"], "photo_reference": "CmRaAAAA4ggs5QD2AAYsh_vU-kIwpdtAjBVNxBvT0yMsIAvbCTfd4ot8V1tTTvWfFAHlHMtfax2ogxhXhbq1fVnF-v-zcYph6bZ3bPrh9dzFQEA_SUVClSOcQwnbvBzpCSmuJI6CEhBvfNF1x4Irpuahmb1IbE6YGhRJ5u9WMNtfdxB9PR5mExBrL2obMQ", "width": 4032}], "place_id": "ChIJXfi0mw7_0YUREGsa_CJkUGg", "plus_code": {"compound_code": "8VRR+X6 Mexico City", "global_code": "76F28VRR+X6"}, "rating": 5, "reference": "ChIJXfi0mw7_0YUREGsa_CJkUGg", "types": ["bicycle_store", "point_of_interest", "store", "establishment"], "user_ratings_total": 1}, {"business_status": "OPERATIONAL", "formatted_address": "Av. Tlahuac 1021, Granjas Estrella, Iztapalapa, 09880 Ciudad de M\u00e9xico, CDMX", "geometry": {"location": {"lat": 19.3215988, "lng": -99.09147639999999}, "viewport": {"northeast": {"lat": 19.32291272989272, "lng": -99.09013327010727}, "southwest": {"lat": 19.32021307010728, "lng": -99.09283292989271}}}, "icon": "https://maps.gstatic.com/mapfiles/place_api/icons/v1/png_71/shopping-71.png", "name": "Motocicletas Vento Monk", "opening_hours": {"open_now": false}, "photos": [{"height": 4096, "html_attributions": ["<a href=\"https://maps.google.com/maps/contrib/110637882507528796115\">Yolanda Velazquez</a>"], "photo_reference": "CmRaAAAAoEdyxwkopHhjbeIM41UW5OejAKJ9mATFFFFMXRh5B8g4Pi-xZnKsEiqIuym9KJ-IWfTHmQTVxOitRFZpUi96WobWOOgiffgT_BPBbbpgjkIb81z0-lIu4TK4kS9dfoaYEhA4OLufiE1a5Twt5eyMMheFGhQytRaIEvebaU1ouPBVbFtz0fSoLA", "width": 3072}], "place_id": "ChIJdT_qChUCzoURxRi4iXixdvY", "plus_code": {"compound_code": "8WC5+JC Mexico City", "global_code": "76F28WC5+JC"}, "rating": 4.3, "reference": "ChIJdT_qChUCzoURxRi4iXixdvY", "types": ["bicycle_store", "point_of_interest", "store", "establishment"], "user_ratings_total": 75}, {"business_status": "OPERATIONAL", "formatted_address": "Calz. del Hueso 921, Coapa, Granjas Coapa, Tlalpan, 14330 Ciudad de M\u00e9xico, CDMX", "geometry": {"location": {"lat": 19.2991168, "lng": -99.11016040000001}, "viewport": {"northeast": {"lat": 19.30054637989272, "lng": -99.1087918701073}, "southwest": {"lat": 19.29784672010728, "lng": -99.11149152989273}}}, "icon": "https://maps.gstatic.com/mapfiles/place_api/icons/v1/png_71/shopping-71.png", "name": "Transvision Bike Coapa", "opening_hours": {"open_now": false}, "photos": [{"height": 3024, "html_attributions": ["<a href=\"https://maps.google.com/maps/contrib/114657580204079056023\">SalvaTierrA musik</a>"], "photo_reference": "CmRaAAAAVEVuT-XzUljRPapWahcPWCRrOCvEouvVTItiHEgxGiksUEYUV0kbdhGO_6eYjAiezVioYoS0Mj79Sookhb_3aPLrQcaQ10iMdDYTScjGa0FizHQ5lsNvDTcYCDwXdzWqEhBcFhyU36fT_OI3mU4KtGrrGhSFtQP_SanfhiTHPwesN1w-23J9_Q", "width": 4032}], "place_id": "ChIJSX3NhYQBzoURTHhO8FGAX2g", "plus_code": {"compound_code": "7VXQ+JW Mexico City", "global_code": "76F27VXQ+JW"}, "rating": 3.8, "reference": "ChIJSX3NhYQBzoURTHhO8FGAX2g", "types": ["bicycle_store", "point_of_interest", "store", "establishment"], "user_ratings_total": 70}, {"business_status": "OPERATIONAL", "formatted_address": "Ermita Iztapalapa 1781, 8va Amp San Miguel, Iztapalapa, 09837 Ciudad de M\u00e9xico, CDMX", "geometry": {"location": {"lat": 19.3513489, "lng": -99.0761065}, "viewport": {"northeast": {"lat": 19.35275657989272, "lng": -99.07472712010727}, "southwest": {"lat": 19.35005692010728, "lng": -99.07742677989272}}}, "icon": "https://maps.gstatic.com/mapfiles/place_api/icons/v1/png_71/shopping-71.png", "name": "Alubike Iztapalapa", "opening_hours": {"open_now": true}, "photos": [{"height": 480, "html_attributions": ["<a href=\"https://maps.google.com/maps/contrib/116571805466540014868\">A Google User</a>"], "photo_reference": "CmRaAAAAQ1pZBX3ViTEySws1gcmswgm1ED_BB1NZVDNE-MbvX0-XqppHfKuFSSzTceM3XDju4fudiE0iZ2h_NWRur93k7bhH-oCzKTlr228gk84twvrEODiArcc8wCQwTB-buEMUEhA7mEQfRSZf_VCIkV38d92NGhSy9vFkzxC27XwKGBl8vYLm7SoVew", "width": 640}], "place_id": "ChIJL9RLeCX90YURSeP9BUTn8N8", "plus_code": {"compound_code": "9W2F+GH Mexico City", "global_code": "76F29W2F+GH"}, "rating": 5, "reference": "ChIJL9RLeCX90YURSeP9BUTn8N8", "types": ["bicycle_store", "point_of_interest", "store", "establishment"], "user_ratings_total": 2}, {"business_status": "OPERATIONAL", "formatted_address": "Eje 8 Sur (Calz. Ermita Iztapalapa), Constituci\u00f3n de 1917, 09260 Iztapalapa, CDMX", "geometry": {"location": {"lat": 19.3467115, "lng": -99.0645548}, "viewport": {"northeast": {"lat": 19.34803057989272, "lng": -99.06318282010729}, "southwest": {"lat": 19.34533092010728, "lng": -99.06588247989272}}}, "icon": "https://maps.gstatic.com/mapfiles/place_api/icons/v1/png_71/shopping-71.png", "name": "Ferre-Bici Juarez", "opening_hours": {"open_now": false}, "photos": [{"height": 4160, "html_attributions": ["<a href=\"https://maps.google.com/maps/contrib/108785129146590306822\">Roberto Morales</a>"], "photo_reference": "CmRZAAAAwIpN2zWz-M6jemsHYWIX8X_P-fMGuhqj0ShoCMVKr_3ukpunoAaE8uwmvjTCBVCkf697SpUkLC_eM6vuIyvBL8A4sOJEwnH6PWVzs_j4P7-oLsaSJHeLe2Sv_xtBGMjREhDtgcD7gTs0C4csD5gEj5KpGhSpFl3Rt7JfRipOYt8ypS0_3yrvfQ", "width": 3120}], "place_id": "ChIJXXYz7Ib90YURmAv3rQfJBm8", "plus_code": {"compound_code": "8WWP+M5 Mexico City", "global_code": "76F28WWP+M5"}, "rating": 4.2, "reference": "ChIJXXYz7Ib90YURmAv3rQfJBm8", "types": ["bicycle_store", "point_of_interest", "store", "establishment"], "user_ratings_total": 88}, {"business_status": "OPERATIONAL", "formatted_address": "Rio Churubusco Bajo, Puente 03 04, Acacias, Iztapalapa, 03330 Ciudad de M\u00e9xico, CDMX", "geometry": {"location": {"lat": 19.3690542, "lng": -99.12491650000001}, "viewport": {"northeast": {"lat": 19.37037942989272, "lng": -99.12354582010728}, "southwest": {"lat": 19.36767977010728, "lng": -99.12624547989273}}}, "icon": "https://maps.gstatic.com/mapfiles/place_api/icons/v1/png_71/shopping-71.png", "name": "Giant", "place_id": "ChIJo6wPIEL-0YURbOADjNX_1s0", "rating": 5, "reference": "ChIJo6wPIEL-0YURbOADjNX_1s0", "types": ["bicycle_store", "point_of_interest", "store", "establishment"], "user_ratings_total": 1}, {"business_status": "OPERATIONAL", "formatted_address": "Avenida Santa Ana 372, San Francisco Culhuacan, Ex-Ejido de San Francisco Culhuacan, Coyoac\u00e1n, 04260 Ciudad de M\u00e9xico, CDMX", "geometry": {"location": {"lat": 19.3293696, "lng": -99.1219881}, "viewport": {"northeast": {"lat": 19.33063027989272, "lng": -99.12064652010729}, "southwest": {"lat": 19.32793062010728, "lng": -99.12334617989272}}}, "icon": "https://maps.gstatic.com/mapfiles/place_api/icons/v1/png_71/shopping-71.png", "name": "Finbici", "opening_hours": {"open_now": false}, "photos": [{"height": 901, "html_attributions": ["<a href=\"https://maps.google.com/maps/contrib/114007912236335208072\">A Google User</a>"], "photo_reference": "CmRaAAAAfLQNph9xlbrC48Myp1EZitBhovTSjl7KoBzJGUptaN7E8iqb9rrM1gF-9m8nR6wnFf0ujfr_sqjFh4S1Bt-wY8LTXL1AyqBfOWLvn2hNFpQFotXJxhMKA9YtdYL8R3YlEhDzYth7OD1tk8ELDV3o8HrUGhRqgNOHAW7FPLOJ99r54PloGSr8Zg", "width": 1797}], "place_id": "ChIJn9e3JuoBzoURnKora1fI6Dw", "plus_code": {"compound_code": "8VHH+P6 Mexico City", "global_code": "76F28VHH+P6"}, "rating": 1, "reference": "ChIJn9e3JuoBzoURnKora1fI6Dw", "types": ["bicycle_store", "point_of_interest", "store", "establishment"], "user_ratings_total": 1}, {"business_status": "OPERATIONAL", "formatted_address": "Eje 5 Sur, Av. Leyes de Reforma 1178 A, Leyes de Reforma 3ra Secc, Iztapalapa, 09310 Ciudad de M\u00e9xico, CDMX", "geometry": {"location": {"lat": 19.3769573, "lng": -99.06697229999999}, "viewport": {"northeast": {"lat": 19.37837702989273, "lng": -99.06560852010728}, "southwest": {"lat": 19.37567737010728, "lng": -99.06830817989271}}}, "icon": "https://maps.gstatic.com/mapfiles/place_api/icons/v1/png_71/shopping-71.png", "name": "Garozzo Bikes", "opening_hours": {"open_now": false}, "photos": [{"height": 2160, "html_attributions": ["<a href=\"https://maps.google.com/maps/contrib/117346599946589814935\">Ezequiel Isaac Acu\u00f1a</a>"], "photo_reference": "CmRaAAAANJzHvf3Cgd1kFgbNnw8URDHRRJBfZgFaOF28-r9ZiXsnyNVheA2lFUVRZYmPUZo0ApWWgBjCz3SYqu3Ote8d_RWy6nCpHRphBsg93ptUIwhqqZkM1Eh-x8MYfM1Iz290EhBT5STRAX-6lgQVM_9jdHtDGhSOA2YVQZo0vYSN56_NEGnF7PiJAQ", "width": 3840}], "place_id": "ChIJnQ8YQ6X90YUReJ1Mp0Ru5U4", "plus_code": {"compound_code": "9WGM+Q6 Mexico City", "global_code": "76F29WGM+Q6"}, "rating": 3.7, "reference": "ChIJnQ8YQ6X90YUReJ1Mp0Ru5U4", "types": ["bicycle_store", "point_of_interest", "store", "establishment"], "user_ratings_total": 71}, {"business_status": "OPERATIONAL", "formatted_address": "Desierto de los Leones 45, San \u00c1ngel, \u00c1lvaro Obreg\u00f3n, 01000 Ciudad de M\u00e9xico, CDMX", "geometry": {"location": {"lat": 19.3495466, "lng": -99.1892618}, "viewport": {"northeast": {"lat": 19.35086342989272, "lng": -99.18789947010728}, "southwest": {"lat": 19.34816377010728, "lng": -99.19059912989272}}}, "icon": "https://maps.gstatic.com/mapfiles/place_api/icons/v1/png_71/shopping-71.png", "name": "We R Bikes San Angel", "opening_hours": {"open_now": false}, "photos": [{"height": 2736, "html_attributions": ["<a href=\"https://maps.google.com/maps/contrib/117411063334466696951\">Carlos Andres Lopez Gomez</a>"], "photo_reference": "CmRaAAAArFHnaZZFWC2bpBNCnkyoz4MT6L2hEWGHVmmqGKXfCf51RxjyA1nWms_MGfcKbLL7ZcuBN1TJ6XU-mhj-whzHMPqjJ062iP8mNMgMrHl95wKn_TILQsGs0xgm6vkUsPLTEhBe5a22d3SwrLnmei61T3GCGhTF0fDQHQgDtxVctsaoQa3WDcZfhw", "width": 3648}], "place_id": "ChIJPdWnWB0A0oURrW3Tr3E9fv4", "plus_code": {"compound_code": "8RX6+R7 Mexico City", "global_code": "76F28RX6+R7"}, "rating": 4.1, "reference": "ChIJPdWnWB0A0oURrW3Tr3E9fv4", "types": ["bicycle_store", "point_of_interest", "store", "establishment"], "user_ratings_total": 106}, {"business_status": "OPERATIONAL", "formatted_address": "Ingenieros Petroleros 35, Nueva Rosita, Iztacalco, 09420 Ciudad de M\u00e9xico, CDMX", "geometry": {"location": {"lat": 19.3783059, "lng": -99.1040338}, "viewport": {"northeast": {"lat": 19.37966477989272, "lng": -99.10272852010726}, "southwest": {"lat": 19.37696512010728, "lng": -99.10542817989271}}}, "icon": "https://maps.gstatic.com/mapfiles/place_api/icons/v1/png_71/shopping-71.png", "name": "Taller de bicicletas mundo", "opening_hours": {"open_now": true}, "photos": [{"height": 2048, "html_attributions": ["<a href=\"https://maps.google.com/maps/contrib/100270418563710896348\">A Google User</a>"], "photo_reference": "CmRaAAAASv8bGoC6jhtcxRXH8yJvhVI5LUOUXo8YRxAs8yhaZ7CimF61FcJ_0TUbiMrh0d6YMBAY8bgA1ApsnklNaAqWugCm4fH-2zelRLmBF-ef6Ih1V3LBjOJf9r5UTd1iWjVMEhC9vRupC1HPE9KN52eT0bYqGhQwW5rwP5os5S8Tk9d86LK2s94NqA", "width": 1536}], "place_id": "ChIJ2QdNrXn-0YUR2DnlgYP9FIc", "plus_code": {"compound_code": "9VHW+89 Mexico City", "global_code": "76F29VHW+89"}, "rating": 3, "reference": "ChIJ2QdNrXn-0YUR2DnlgYP9FIc", "types": ["bicycle_store", "point_of_interest", "store", "establishment"], "user_ratings_total": 1}, {"business_status": "OPERATIONAL", "formatted_address": "Sur 157 1414, Amp Ramos Mill\u00e1n, Iztacalco, 08020 Ciudad de M\u00e9xico, CDMX", "geometry": {"location": {"lat": 19.3853575, "lng": -99.09622859999999}, "viewport": {"northeast": {"lat": 19.38670852989272, "lng": -99.09489112010728}, "southwest": {"lat": 19.38400887010728, "lng": -99.09759077989273}}}, "icon": "https://maps.gstatic.com/mapfiles/place_api/icons/v1/png_71/shopping-71.png", "name": "Taller de Bicicletas", "place_id": "ChIJ92Ymh9T90YURfs889bEbJ9s", "plus_code": {"compound_code": "9WP3+4G Mexico City", "global_code": "76F29WP3+4G"}, "rating": 5, "reference": "ChIJ92Ymh9T90YURfs889bEbJ9s", "types": ["bicycle_store", "point_of_interest", "store", "establishment"], "user_ratings_total": 2}, {"business_status": "OPERATIONAL", "formatted_address": "Prol. Emiliano Zapata, Modelo, Iztapalapa, 09089 Ciudad de M\u00e9xico, CDMX", "geometry": {"location": {"lat": 19.3618744, "lng": -99.1234996}, "viewport": {"northeast": {"lat": 19.36326482989272, "lng": -99.12214437010728}, "southwest": {"lat": 19.36056517010728, "lng": -99.12484402989273}}}, "icon": "https://maps.gstatic.com/mapfiles/place_api/icons/v1/png_71/shopping-71.png", "name": "BICLA retro bikes", "place_id": "ChIJ_yIb4D_-0YURiClYw14LiiY", "plus_code": {"compound_code": "9V6G+PJ Mexico City", "global_code": "76F29V6G+PJ"}, "rating": 4.5, "reference": "ChIJ_yIb4D_-0YURiClYw14LiiY", "types": ["bicycle_store", "point_of_interest", "store", "establishment"], "user_ratings_total": 2}, {"business_status": "OPERATIONAL", "formatted_address": "Av. Leyes de Reforma 1377, Leyes de Reforma 3ra Secc, Iztapalapa, 09310 Ciudad de M\u00e9xico, CDMX", "geometry": {"location": {"lat": 19.3773726, "lng": -99.067644}, "viewport": {"northeast": {"lat": 19.37864577989272, "lng": -99.06630842010728}, "southwest": {"lat": 19.37594612010727, "lng": -99.06900807989273}}}, "icon": "https://maps.gstatic.com/mapfiles/place_api/icons/v1/png_71/shopping-71.png", "name": "BENOTTO", "opening_hours": {"open_now": false}, "photos": [{"height": 5344, "html_attributions": ["<a href=\"https://maps.google.com/maps/contrib/100827044639829473856\">Mauricio Ortega</a>"], "photo_reference": "CmRaAAAAcLRst6tKzFZfEWuQAEYjcyzIVNSo854X1uP9rYppII-dfZWCRoezgP2i7vAF13-_qRPs5VApvGc_bRgVFS4QV-gyHouGDxZu_0osmSd73KNxjODhlHxED1mevIyY0FsNEhCXtjR_YVgew0GPYdCFhQ7UGhS565034_Gkno3q_fmD2SI2TmZzBg", "width": 4008}], "place_id": "ChIJo3HeUKX90YURj6ty_W9PnZk", "plus_code": {"compound_code": "9WGJ+WW Mexico City", "global_code": "76F29WGJ+WW"}, "rating": 3.9, "reference": "ChIJo3HeUKX90YURj6ty_W9PnZk", "types": ["bicycle_store", "point_of_interest", "store", "establishment"], "user_ratings_total": 139}]