[{"business_status": "OPERATIONAL", "geometry": {"location": {"lat": 19.3523287, "lng": -99.1007794}, "viewport": {"northeast": {"lat": 19.3536680802915, "lng": -99.09940016970849}, "southwest": {"lat": 19.3509701197085, "lng": -99.10209813029151}}}, "icon": "https://maps.gstatic.com/mapfiles/place_api/icons/v1/png_71/generic_business-71.png", "name": "Enchuler\u00eda", "photos": [{"height": 3456, "html_attributions": ["<a href=\"https://maps.google.com/maps/contrib/109174261311451860929\">Enchuler\u00eda</a>"], "photo_reference": "CmRaAAAA7NCazAjRl_UA_eZl_vkbFfGAh1K3bcMhAhsf6odW81_X76VEs2Y0-cCGFJ6YKgVzJdZye1Oy8t-SyVnpLOo4PbyI2a1xcKr57c5Yiy7BYOkztbdYsIaz7Qkw9_1OS11lEhCFWrUDMSVamHCOwSgftNXAGhTBBgxG6MXkwkjQoUtmf2CiLkefUg", "width": 4608}], "place_id": "ChIJzzzmVAb90YURtBPF1lT6D68", "plus_code": {"compound_code": "9V2X+WM Mexico City, CDMX, Mexico", "global_code": "76F29V2X+WM"}, "rating": 5, "reference": "ChIJzzzmVAb90YURtBPF1lT6D68", "scope": "GOOGLE", "types": ["beauty_salon", "point_of_interest", "establishment"], "user_ratings_total": 14, "vicinity": "Privada Ermita Iztapalapa 69, Ampliaci\u00f3n Ricardo Flores Mag\u00f3n, Ciudad de M\u00e9xico"}, {"business_status": "OPERATIONAL", "geometry": {"location": {"lat": 19.3503496, "lng": -99.1000547}, "viewport": {"northeast": {"lat": 19.3517132802915, "lng": -99.0987376197085}, "southwest": {"lat": 19.3490153197085, "lng": -99.10143558029151}}}, "icon": "https://maps.gstatic.com/mapfiles/place_api/icons/v1/png_71/generic_business-71.png", "name": "Est\u00e9tica Dennis", "place_id": "ChIJUUiecv390YURUoHJlhJPZ3U", "plus_code": {"compound_code": "9V2X+4X Mexico City, CDMX, Mexico", "global_code": "76F29V2X+4X"}, "rating": 5, "reference": "ChIJUUiecv390YURUoHJlhJPZ3U", "scope": "GOOGLE", "types": ["beauty_salon", "point_of_interest", "establishment"], "user_ratings_total": 1, "vicinity": "Mz 8, Lt 20, Netzahualpilli S/N, Iztapalapa, Ciudad de M\u00e9xico"}, {"business_status": "OPERATIONAL", "geometry": {"location": {"lat": 19.3526062, "lng": -99.09983559999999}, "viewport": {"northeast": {"lat": 19.3539443802915, "lng": -99.0984579697085}, "southwest": {"lat": 19.3512464197085, "lng": -99.10115593029151}}}, "icon": "https://maps.gstatic.com/mapfiles/place_api/icons/v1/png_71/generic_business-71.png", "name": "U\u00d1AS", "opening_hours": {"open_now": false}, "place_id": "ChIJp8QZNf390YUROlBaF2v8ASs", "plus_code": {"compound_code": "9W32+23 Mexico City, CDMX, Mexico", "global_code": "76F29W32+23"}, "rating": 5, "reference": "ChIJp8QZNf390YUROlBaF2v8ASs", "scope": "GOOGLE", "types": ["beauty_salon", "point_of_interest", "establishment"], "user_ratings_total": 1, "vicinity": "Puentitla 83, Estrella del Sur, Ciudad de M\u00e9xico"}, {"business_status": "OPERATIONAL", "geometry": {"location": {"lat": 19.3528451, "lng": -99.0997261}, "viewport": {"northeast": {"lat": 19.3541877802915, "lng": -99.09835971970848}, "southwest": {"lat": 19.35148981970849, "lng": -99.1010576802915}}}, "icon": "https://maps.gstatic.com/mapfiles/place_api/icons/v1/png_71/generic_business-71.png", "name": "Estetica Mayra", "place_id": "ChIJF_O8y-L90YURN0C6ZjyptTA", "plus_code": {"compound_code": "9W32+44 Mexico City, CDMX, Mexico", "global_code": "76F29W32+44"}, "reference": "ChIJF_O8y-L90YURN0C6ZjyptTA", "scope": "GOOGLE", "types": ["beauty_salon", "point_of_interest", "establishment"], "vicinity": "Puentetitla 81, Ampliaci\u00f3n Ricardo Flores Mag\u00f3n, Ciudad de M\u00e9xico"}, {"business_status": "OPERATIONAL", "geometry": {"location": {"lat": 19.349904, "lng": -99.0994934}, "viewport": {"northeast": {"lat": 19.3512667802915, "lng": -99.09816646970849}, "southwest": {"lat": 19.3485688197085, "lng": -99.10086443029151}}}, "icon": "https://maps.gstatic.com/mapfiles/place_api/icons/v1/png_71/generic_business-71.png", "name": "Nails Devils by Alexa", "opening_hours": {"open_now": false}, "place_id": "ChIJ6akRCf390YUR_621Aqilv1w", "plus_code": {"compound_code": "8WX2+X6 Mexico City, CDMX, Mexico", "global_code": "76F28WX2+X6"}, "reference": "ChIJ6akRCf390YUR_621Aqilv1w", "scope": "GOOGLE", "types": ["beauty_salon", "point_of_interest", "establishment"], "vicinity": "Xochiquetzal Mz. 20, Estrella del Sur, Ciudad de M\u00e9xico"}, {"business_status": "OPERATIONAL", "geometry": {"location": {"lat": 19.3485261, "lng": -99.10073709999999}, "viewport": {"northeast": {"lat": 19.3499143802915, "lng": -99.09937076970847}, "southwest": {"lat": 19.3472164197085, "lng": -99.10206873029149}}}, "icon": "https://maps.gstatic.com/mapfiles/place_api/icons/v1/png_71/generic_business-71.png", "name": "Sal\u00f3n Seduction", "opening_hours": {"open_now": true}, "place_id": "ChIJ0Ypyjv390YUR90cjdNdcw90", "plus_code": {"compound_code": "8VXX+CP Mexico City, CDMX, Mexico", "global_code": "76F28VXX+CP"}, "rating": 4.2, "reference": "ChIJ0Ypyjv390YUR90cjdNdcw90", "scope": "GOOGLE", "types": ["beauty_salon", "hair_care", "point_of_interest", "establishment"], "user_ratings_total": 6, "vicinity": "Moctezuma 34, Estrella del Sur, Iztapalapa"}, {"business_status": "OPERATIONAL", "geometry": {"location": {"lat": 19.353531, "lng": -99.09963499999999}, "viewport": {"northeast": {"lat": 19.3549244802915, "lng": -99.09826476970848}, "southwest": {"lat": 19.3522265197085, "lng": -99.10096273029149}}}, "icon": "https://maps.gstatic.com/mapfiles/place_api/icons/v1/png_71/generic_business-71.png", "name": "Sal\u00f3nAngels", "opening_hours": {"open_now": false}, "photos": [{"height": 1600, "html_attributions": ["<a href=\"https://maps.google.com/maps/contrib/118073432090899369649\">Sal\u00f3nAngels</a>"], "photo_reference": "CmRaAAAAonwTRP7_rMMXtfX4bM-xsOwNmkWzaM9V23kAcj4diD0k4xd8vNt9YVmDZ9ZZHVM-uiwvd3mDcoETZrhIUXhRUIRQFi3jQ4DizHMSFIZ3yGgu3ONekjht_UJPk5FrNziiEhDi8noIZMeUbrTOKB4fpELuGhSoz_OKMZLSWmi2WlFVJA4IMTXD4A", "width": 900}], "place_id": "ChIJL9hjAo790YURYKRZvniKDmo", "plus_code": {"compound_code": "9W32+C4 Ampliaci\u00f3n Ricardo Flores Mag\u00f3n, Mexico City, CDMX, Mexico", "global_code": "76F29W32+C4"}, "reference": "ChIJL9hjAo790YURYKRZvniKDmo", "scope": "GOOGLE", "types": ["beauty_salon", "point_of_interest", "establishment"], "vicinity": "Tlascostituyal 18, Ampliaci\u00f3n Ricardo Flores Mag\u00f3n"}, {"business_status": "OPERATIONAL", "geometry": {"location": {"lat": 19.3526334, "lng": -99.09882309999999}, "viewport": {"northeast": {"lat": 19.3539956302915, "lng": -99.0974647697085}, "southwest": {"lat": 19.3512976697085, "lng": -99.10016273029152}}}, "icon": "https://maps.gstatic.com/mapfiles/place_api/icons/v1/png_71/generic_business-71.png", "name": "Cynthia Cabina Estetica", "opening_hours": {"open_now": true}, "photos": [{"height": 2752, "html_attributions": ["<a href=\"https://maps.google.com/maps/contrib/113299504802300199962\">Cynthia De La Rosa</a>"], "photo_reference": "CmRaAAAA4KK8KB60-lpAMBEy5SqkzGB3KT8EyaWvUP-Ig462XwXHVSG0aSNso6sRLoi4K6v6ptEbkIrHtPCspRC1EKpTi-czjFT_MaLWgWnpKmrfbOvmWnU8oj9lHXFv-Fbkw1g-EhCZfpRxr_oZnqK5Q1Fm1qdJGhSEPYbFzoucWxIotZTBQ-1XEZ74IA", "width": 2752}], "place_id": "ChIJMfQgEhH90YUR5bNbvmzWeVk", "plus_code": {"compound_code": "9W32+3F Mexico City, CDMX, Mexico", "global_code": "76F29W32+3F"}, "rating": 5, "reference": "ChIJMfQgEhH90YUR5bNbvmzWeVk", "scope": "GOOGLE", "types": ["beauty_salon", "spa", "point_of_interest", "establishment"], "user_ratings_total": 1, "vicinity": "Estrella del Sur, Ciudad de M\u00e9xico"}, {"business_status": "OPERATIONAL", "geometry": {"location": {"lat": 19.3526213, "lng": -99.09879579999999}, "viewport": {"northeast": {"lat": 19.3539799302915, "lng": -99.0974399697085}, "southwest": {"lat": 19.3512819697085, "lng": -99.10013793029151}}}, "icon": "https://maps.gstatic.com/mapfiles/place_api/icons/v1/png_71/generic_business-71.png", "name": "Est\u00e9tica Glamour", "opening_hours": {"open_now": true}, "place_id": "ChIJDR3g0uL90YURy6yDu7Oph0M", "plus_code": {"compound_code": "9W32+2F Mexico City, CDMX, Mexico", "global_code": "76F29W32+2F"}, "reference": "ChIJDR3g0uL90YURy6yDu7Oph0M", "scope": "GOOGLE", "types": ["beauty_salon", "point_of_interest", "establishment"], "vicinity": "Av.Estrella S/N Local 4, Ricardo Flores Mag\u00f3n, Iztapalapa"}, {"business_status": "OPERATIONAL", "geometry": {"location": {"lat": 19.3524707, "lng": -99.0986002}, "viewport": {"northeast": {"lat": 19.3538496302915, "lng": -99.0972327197085}, "southwest": {"lat": 19.3511516697085, "lng": -99.09993068029151}}}, "icon": "https://maps.gstatic.com/mapfiles/place_api/icons/v1/png_71/generic_business-71.png", "name": "Fashion Nails by Seph", "opening_hours": {"open_now": false}, "photos": [{"height": 2448, "html_attributions": ["<a href=\"https://maps.google.com/maps/contrib/115701268300971880760\">Fashion Nails by Seph</a>"], "photo_reference": "CmRaAAAAuPL9MuIXbRxOClPbGMrmpZwmCiAKkr-z5VTy6AJ47shPWeo3GBlvE3tF39gm-c7v_XZMvSFFX4bBCifuKf1beNRmSJKHgimV1E9DgpCoD6wRzUIgnIIBaT7wOfdAI5hDEhAmqjwVgbAgF6giwFFN9he8GhQbbZmKKlKmSfDPY1lHH1I2eRgOow", "width": 3264}], "place_id": "ChIJI4EJ1vz90YURfRquGZhb-VY", "plus_code": {"compound_code": "9W22+XH Mexico City, CDMX, Mexico", "global_code": "76F29W22+XH"}, "rating": 5, "reference": "ChIJI4EJ1vz90YURfRquGZhb-VY", "scope": "GOOGLE", "types": ["beauty_salon", "point_of_interest", "establishment"], "user_ratings_total": 2, "vicinity": "Avenida Estrella 18, Estrella del Sur, Ciudad de M\u00e9xico"}, {"business_status": "OPERATIONAL", "geometry": {"location": {"lat": 19.3538328, "lng": -99.0991332}, "viewport": {"northeast": {"lat": 19.3551995302915, "lng": -99.09783131970849}, "southwest": {"lat": 19.35250156970849, "lng": -99.1005292802915}}}, "icon": "https://maps.gstatic.com/mapfiles/place_api/icons/v1/png_71/generic_business-71.png", "name": "QUEEN NAIL'S", "place_id": "ChIJ34mVxOL90YURrSLsBqxQo08", "plus_code": {"compound_code": "9W32+G8 Mexico City, CDMX, Mexico", "global_code": "76F29W32+G8"}, "reference": "ChIJ34mVxOL90YURrSLsBqxQo08", "scope": "GOOGLE", "types": ["beauty_salon", "point_of_interest", "establishment"], "vicinity": "Puentetitla 42, Ricardo Flores Mag\u00f3n, Ciudad de M\u00e9xico"}, {"business_status": "OPERATIONAL", "geometry": {"location": {"lat": 19.348188, "lng": -99.09898720000001}, "viewport": {"northeast": {"lat": 19.3495395302915, "lng": -99.0976469197085}, "southwest": {"lat": 19.3468415697085, "lng": -99.10034488029152}}}, "icon": "https://maps.gstatic.com/mapfiles/place_api/icons/v1/png_71/generic_business-71.png", "name": "AGNUS DEI", "opening_hours": {"open_now": true}, "place_id": "ChIJB6ZfyP390YUR00-giazh46Y", "plus_code": {"compound_code": "8WX2+7C Mexico City, CDMX, Mexico", "global_code": "76F28WX2+7C"}, "reference": "ChIJB6ZfyP390YUR00-giazh46Y", "scope": "GOOGLE", "types": ["beauty_salon", "point_of_interest", "establishment"], "vicinity": "Moctezuma 38, Estrella del Sur, Ciudad de M\u00e9xico"}, {"business_status": "OPERATIONAL", "geometry": {"location": {"lat": 19.3553835, "lng": -99.102175}, "viewport": {"northeast": {"lat": 19.3567341302915, "lng": -99.10083826970849}, "southwest": {"lat": 19.3540361697085, "lng": -99.1035362302915}}}, "icon": "https://maps.gstatic.com/mapfiles/place_api/icons/v1/png_71/generic_business-71.png", "name": "Badillo Verde Diana Aidee", "place_id": "ChIJt2-Mf-L90YURhUax9FZhqJg", "plus_code": {"compound_code": "9V4X+54 Mexico City, CDMX, Mexico", "global_code": "76F29V4X+54"}, "reference": "ChIJt2-Mf-L90YURhUax9FZhqJg", "scope": "GOOGLE", "types": ["beauty_salon", "point_of_interest", "establishment"], "vicinity": "Privada Ermita Iztapalapa 941, El Santuario, Ciudad de M\u00e9xico"}, {"business_status": "OPERATIONAL", "geometry": {"location": {"lat": 19.3473985, "lng": -99.1033824}, "viewport": {"northeast": {"lat": 19.3487545302915, "lng": -99.10205876970849}, "southwest": {"lat": 19.3460565697085, "lng": -99.10475673029151}}}, "icon": "https://maps.gstatic.com/mapfiles/place_api/icons/v1/png_71/generic_business-71.png", "name": "EST\u00c9TICA UNISEX NATALIA", "opening_hours": {"open_now": true}, "place_id": "ChIJ6RHSOgf-0YUR96x68R3_cnw", "plus_code": {"compound_code": "8VWW+XJ Mexico City, CDMX, Mexico", "global_code": "76F28VWW+XJ"}, "reference": "ChIJ6RHSOgf-0YUR96x68R3_cnw", "scope": "GOOGLE", "types": ["beauty_salon", "hair_care", "point_of_interest", "establishment"], "vicinity": "Casi esquina con Calle Cacama, manzana 21, lote 3, Axayacatl 6, Zona Urbana Ejidal los Reyes Culhuacan, Ciudad de M\u00e9xico"}]