[{"business_status": "OPERATIONAL", "geometry": {"location": {"lat": 19.3474346, "lng": -99.1009413}, "viewport": {"northeast": {"lat": 19.3487809302915, "lng": -99.0995587697085}, "southwest": {"lat": 19.3460829697085, "lng": -99.1022567302915}}}, "icon": "https://maps.gstatic.com/mapfiles/place_api/icons/v1/png_71/generic_business-71.png", "name": "EST\u00c9TICA DE \" MARY \"", "place_id": "ChIJQYe98P390YUR1BEhmPd-Fz8", "plus_code": {"compound_code": "8VWX+XJ Mexico City, CDMX, Mexico", "global_code": "76F28VWX+XJ"}, "rating": 4, "reference": "ChIJQYe98P390YUR1BEhmPd-Fz8", "scope": "GOOGLE", "types": ["beauty_salon", "point_of_interest", "establishment"], "user_ratings_total": 1, "vicinity": "Por Tezozmoc, Mz-29, Lt-3, Xochipilli, Estrella del Sur, Iztapalapa, Ciudad de M\u00e9xico"}, {"business_status": "OPERATIONAL", "geometry": {"location": {"lat": 19.348188, "lng": -99.09898720000001}, "viewport": {"northeast": {"lat": 19.3495395302915, "lng": -99.0976469197085}, "southwest": {"lat": 19.3468415697085, "lng": -99.10034488029152}}}, "icon": "https://maps.gstatic.com/mapfiles/place_api/icons/v1/png_71/generic_business-71.png", "name": "AGNUS DEI", "opening_hours": {"open_now": false}, "place_id": "ChIJB6ZfyP390YUR00-giazh46Y", "plus_code": {"compound_code": "8WX2+7C Mexico City, CDMX, Mexico", "global_code": "76F28WX2+7C"}, "reference": "ChIJB6ZfyP390YUR00-giazh46Y", "scope": "GOOGLE", "types": ["beauty_salon", "point_of_interest", "establishment"], "vicinity": "Moctezuma 38, Estrella del Sur, Ciudad de M\u00e9xico"}, {"business_status": "OPERATIONAL", "geometry": {"location": {"lat": 19.3474824, "lng": -99.103065}, "viewport": {"northeast": {"lat": 19.3488391802915, "lng": -99.10171361970848}, "southwest": {"lat": 19.34614121970849, "lng": -99.1044115802915}}}, "icon": "https://maps.gstatic.com/mapfiles/place_api/icons/v1/png_71/generic_business-71.png", "name": "ESTETICA MELANY", "place_id": "ChIJOWt8OQf-0YURi6epR6xjpTw", "plus_code": {"compound_code": "8VWW+XQ Mexico City, CDMX, Mexico", "global_code": "76F28VWW+XQ"}, "reference": "ChIJOWt8OQf-0YURi6epR6xjpTw", "scope": "GOOGLE", "types": ["beauty_salon", "point_of_interest", "establishment"], "vicinity": "Cacama Mz-21, Zona Urbana Ejidal los Reyes Culhuacan, Ciudad de M\u00e9xico"}, {"business_status": "OPERATIONAL", "geometry": {"location": {"lat": 19.347479, "lng": -99.1031173}, "viewport": {"northeast": {"lat": 19.3488521302915, "lng": -99.1017607697085}, "southwest": {"lat": 19.34615416970849, "lng": -99.10445873029151}}}, "icon": "https://maps.gstatic.com/mapfiles/place_api/icons/v1/png_71/generic_business-71.png", "name": "Sal\u00f3n De Belleza M4", "place_id": "ChIJT0raOwf-0YURowVrjXyapOQ", "plus_code": {"compound_code": "8VWW+XQ Mexico City, CDMX, Mexico", "global_code": "76F28VWW+XQ"}, "reference": "ChIJT0raOwf-0YURowVrjXyapOQ", "scope": "GOOGLE", "types": ["beauty_salon", "point_of_interest", "establishment"], "vicinity": "Cacama, Estrella del Sur, Ciudad de M\u00e9xico"}, {"business_status": "OPERATIONAL", "geometry": {"location": {"lat": 19.3540601, "lng": -99.0984434}, "viewport": {"northeast": {"lat": 19.3554324802915, "lng": -99.09708221970848}, "southwest": {"lat": 19.35273451970849, "lng": -99.0997801802915}}}, "icon": "https://maps.gstatic.com/mapfiles/place_api/icons/v1/png_71/generic_business-71.png", "name": "ESTETICA NEW LOOK", "opening_hours": {"open_now": false}, "photos": [{"height": 2048, "html_attributions": ["<a href=\"https://maps.google.com/maps/contrib/114834095659986990910\">ESTETICA NEW LOOK</a>"], "photo_reference": "CmRaAAAAlo_D88nDXy097jbeUFOlFBPVNCEOuqYTi1qBsSEELOz9t--MaOXr_dnRF3tfqOVZfaM9WcIAlbU8Ry-gh6Agg04KF6Eu4P7WAVZD2_LIJna2Ugj5R8r-G-oif-F3vW4CEhAmhuNJkHLKw-kF6bkDt3XSGhQKVyZrM2rlqoKpfMb5RVJdmCuSHg", "width": 1536}], "place_id": "ChIJxVQ2IOP90YURZb48-VseU_s", "plus_code": {"compound_code": "9W32+JJ Mexico City, CDMX, Mexico", "global_code": "76F29W32+JJ"}, "reference": "ChIJxVQ2IOP90YURZb48-VseU_s", "scope": "GOOGLE", "types": ["beauty_salon", "point_of_interest", "establishment"], "vicinity": "Tlaxcanes No 19, Ricardo Flores Mag\u00f3n, Ciudad de M\u00e9xico"}, {"business_status": "OPERATIONAL", "geometry": {"location": {"lat": 19.3553835, "lng": -99.102175}, "viewport": {"northeast": {"lat": 19.3567341302915, "lng": -99.10083826970849}, "southwest": {"lat": 19.3540361697085, "lng": -99.1035362302915}}}, "icon": "https://maps.gstatic.com/mapfiles/place_api/icons/v1/png_71/generic_business-71.png", "name": "Badillo Verde Diana Aidee", "place_id": "ChIJt2-Mf-L90YURhUax9FZhqJg", "plus_code": {"compound_code": "9V4X+54 Mexico City, CDMX, Mexico", "global_code": "76F29V4X+54"}, "reference": "ChIJt2-Mf-L90YURhUax9FZhqJg", "scope": "GOOGLE", "types": ["beauty_salon", "point_of_interest", "establishment"], "vicinity": "Privada Ermita Iztapalapa 941, El Santuario, Ciudad de M\u00e9xico"}, {"business_status": "OPERATIONAL", "geometry": {"location": {"lat": 19.3544658, "lng": -99.0988649}, "viewport": {"northeast": {"lat": 19.3558339802915, "lng": -99.0975667197085}, "southwest": {"lat": 19.3531360197085, "lng": -99.1002646802915}}}, "icon": "https://maps.gstatic.com/mapfiles/place_api/icons/v1/png_71/generic_business-71.png", "name": "Sal\u00f3n XY", "opening_hours": {"open_now": false}, "place_id": "ChIJCY_y4-L90YURlyi8HgADMe8", "plus_code": {"compound_code": "9W32+QF Mexico City, CDMX, Mexico", "global_code": "76F29W32+QF"}, "rating": 5, "reference": "ChIJCY_y4-L90YURlyi8HgADMe8", "scope": "GOOGLE", "types": ["beauty_salon", "point_of_interest", "establishment"], "user_ratings_total": 3, "vicinity": "Puentetitla 26, Ampliaci\u00f3n Ricardo Flores Mag\u00f3n, Ciudad de M\u00e9xico"}, {"business_status": "OPERATIONAL", "geometry": {"location": {"lat": 19.3473985, "lng": -99.1033824}, "viewport": {"northeast": {"lat": 19.3487545302915, "lng": -99.10205876970849}, "southwest": {"lat": 19.3460565697085, "lng": -99.10475673029151}}}, "icon": "https://maps.gstatic.com/mapfiles/place_api/icons/v1/png_71/generic_business-71.png", "name": "EST\u00c9TICA UNISEX NATALIA", "opening_hours": {"open_now": false}, "place_id": "ChIJ6RHSOgf-0YUR96x68R3_cnw", "plus_code": {"compound_code": "8VWW+XJ Mexico City, CDMX, Mexico", "global_code": "76F28VWW+XJ"}, "reference": "ChIJ6RHSOgf-0YUR96x68R3_cnw", "scope": "GOOGLE", "types": ["beauty_salon", "hair_care", "point_of_interest", "establishment"], "vicinity": "Casi esquina con Calle Cacama, manzana 21, lote 3, Axayacatl 6, Zona Urbana Ejidal los Reyes Culhuacan, Ciudad de M\u00e9xico"}]