[{"business_status": "OPERATIONAL", "geometry": {"location": {"lat": 19.350528, "lng": -99.100539}, "viewport": {"northeast": {"lat": 19.3519175802915, "lng": -99.0991708697085}, "southwest": {"lat": 19.3492196197085, "lng": -99.10186883029151}}}, "icon": "https://maps.gstatic.com/mapfiles/place_api/icons/v1/png_71/restaurant-71.png", "name": "DF Six Ixmiquilpan", "opening_hours": {"open_now": true}, "photos": [{"height": 1600, "html_attributions": ["<a href=\"https://maps.google.com/maps/contrib/101812101743713728456\">America Abigail Briones Hernand\u00e8z</a>"], "photo_reference": "CmRaAAAAOYw1eglGsNTaeDPr8XaB3Vr4Exms4YvStTkoIRzDu4Z9K6dcYDG7WX_daYIzr5NCbFtd_ui3LgEpEEaNGFgUVofHr3e8Glq5_LdR02wKE2MVJs1epxvtFHBeYdObtPLqEhAbFxsoTkohL4ZdJVFaTEA-GhQ94wnM4LsX9Rl3FGyMImWtD2QtGw", "width": 1200}], "place_id": "ChIJc65Gb_390YUR7Q1QbVMP60k", "plus_code": {"compound_code": "9V2X+6Q Mexico City, CDMX, Mexico", "global_code": "76F29V2X+6Q"}, "rating": 4, "reference": "ChIJc65Gb_390YUR7Q1QbVMP60k", "scope": "GOOGLE", "types": ["bar", "liquor_store", "restaurant", "food", "point_of_interest", "store", "establishment"], "user_ratings_total": 11, "vicinity": "Ixmiquilpan S/N, Estrella del Sur, Ciudad de M\u00e9xico"}, {"business_status": "CLOSED_TEMPORARILY", "geometry": {"location": {"lat": 19.3495723, "lng": -99.0993043}, "viewport": {"northeast": {"lat": 19.3509377302915, "lng": -99.09794621970848}, "southwest": {"lat": 19.3482397697085, "lng": -99.1006441802915}}}, "icon": "https://maps.gstatic.com/mapfiles/place_api/icons/v1/png_71/bar-71.png", "name": "Casa Frog's", "permanently_closed": true, "photos": [{"height": 2080, "html_attributions": ["<a href=\"https://maps.google.com/maps/contrib/109583052742781279961\">Mirella Gallardo</a>"], "photo_reference": "CmRaAAAAMhBCMLx1bEOicW_2pgIB0UZwdacpq23YbhOQQu4rFqf95eWPQvANhRUOl8HHN2mQBMvK2mxTEawOyc804_FjmADGMY-XYg1uk1usyzpfR2tZVW6Io4_YJ51-QB7s-YwuEhB0dQAaiTwsxmRNYPxRGf9nGhTpOYm19cVb640eAij7QB8vU-64zQ", "width": 4160}], "place_id": "ChIJBwtBY8790YURtgpakaE4Ztk", "plus_code": {"compound_code": "8WX2+R7 Mexico City, CDMX, Mexico", "global_code": "76F28WX2+R7"}, "rating": 5, "reference": "ChIJBwtBY8790YURtgpakaE4Ztk", "scope": "GOOGLE", "types": ["bar", "point_of_interest", "establishment"], "user_ratings_total": 1, "vicinity": "Tizoc mz 23, Estrella del Sur, Ciudad de M\u00e9xico"}, {"business_status": "OPERATIONAL", "geometry": {"location": {"lat": 19.3513218, "lng": -99.09867849999999}, "viewport": {"northeast": {"lat": 19.3526795802915, "lng": -99.09735566970849}, "southwest": {"lat": 19.3499816197085, "lng": -99.1000536302915}}}, "icon": "https://maps.gstatic.com/mapfiles/place_api/icons/v1/png_71/bar-71.png", "name": "Hidalgo Blanco Pulqueria", "opening_hours": {"open_now": false}, "photos": [{"height": 3120, "html_attributions": ["<a href=\"https://maps.google.com/maps/contrib/117787319834425263005\">Hidalgo Blanco Pulqueria</a>"], "photo_reference": "CmRaAAAAnKl4WeYulFhoTiphojuyQC9kKL_RXvbPqDx-5RHjBgwnSc11OGhG4HOD1rwGZHLXh9MrPrulShqsrzjYZZ8DqZA3HCXxMv-MT9l7uAQQXwBpnIJoRVnA2EXD8d6neoGUEhDTT3Eis6EWLVCd2RP5R6hEGhStEiHSTCW4dgGb7FviavZixdyGHA", "width": 3120}], "place_id": "ChIJmRRpeSj90YURpM9ij8yf1CU", "plus_code": {"compound_code": "9W22+GG Estrella del Sur, Mexico City, CDMX, Mexico", "global_code": "76F29W22+GG"}, "rating": 4.8, "reference": "ChIJmRRpeSj90YURpM9ij8yf1CU", "scope": "GOOGLE", "types": ["bar", "point_of_interest", "establishment"], "user_ratings_total": 4, "vicinity": "Xochiquetzal Mz 6, Estrella del Sur"}, {"business_status": "CLOSED_TEMPORARILY", "geometry": {"location": {"lat": 19.3537836, "lng": -99.09823829999999}, "viewport": {"northeast": {"lat": 19.35514863029151, "lng": -99.0969307697085}, "southwest": {"lat": 19.3524506697085, "lng": -99.09962873029151}}}, "icon": "https://maps.gstatic.com/mapfiles/place_api/icons/v1/png_71/bar-71.png", "name": "Stripers platinum vip", "permanently_closed": true, "photos": [{"height": 2160, "html_attributions": ["<a href=\"https://maps.google.com/maps/contrib/104071001676307365446\">STRIPER PLATINUM VIP</a>"], "photo_reference": "CmRaAAAADx_ZhU3sljtXxqGiBJ58I9HppdXTWyJ1g-E0onWnyPJDdCWf027U3KY-uK4TASg6OZvFLJLcwwdTyiHqWT7st_hSo0cb-sy4NyaE57YBsUtXlbtZpEEODcBK02arAYzTEhDHaQ13bmllRHKXS9dYuhjfGhSWu5uSl14NNoJ0Vqhd0UothxH-Jg", "width": 2160}], "place_id": "ChIJ90dEQyr90YURaOgUJBALeAs", "plus_code": {"compound_code": "9W32+GP Mexico City, CDMX, Mexico", "global_code": "76F29W32+GP"}, "rating": 3.7, "reference": "ChIJ90dEQyr90YURaOgUJBALeAs", "scope": "GOOGLE", "types": ["bar", "point_of_interest", "establishment"], "user_ratings_total": 3, "vicinity": "Ricardo Flores Mag\u00f3n, Ciudad de M\u00e9xico"}]