[{"business_status": "OPERATIONAL", "geometry": {"location": {"lat": 19.350528, "lng": -99.100539}, "viewport": {"northeast": {"lat": 19.3519175802915, "lng": -99.0991708697085}, "southwest": {"lat": 19.3492196197085, "lng": -99.10186883029151}}}, "icon": "https://maps.gstatic.com/mapfiles/place_api/icons/v1/png_71/restaurant-71.png", "name": "DF Six Ixmiquilpan", "opening_hours": {"open_now": true}, "photos": [{"height": 1600, "html_attributions": ["<a href=\"https://maps.google.com/maps/contrib/101812101743713728456\">America Abigail Briones Hernand\u00e8z</a>"], "photo_reference": "CmRaAAAAPkMBYKuEprSN5NJ0vE6T7UXKjfTIjWi8JfzMhWkbvGoEc6uefKzIzIvxQZN7JxRpFUSqVo2OY98vKKETIVf7Wg3eoOuyxoC9Xy9qIjyZTrh35vczHlWqOvK-i9jrBxojEhBQ9NzqausbrBfv96IdUNlLGhR_kwpkDxEf0aNHSHMCcB0dvPb_gA", "width": 1200}], "place_id": "ChIJc65Gb_390YUR7Q1QbVMP60k", "plus_code": {"compound_code": "9V2X+6Q Mexico City, CDMX, Mexico", "global_code": "76F29V2X+6Q"}, "rating": 4, "reference": "ChIJc65Gb_390YUR7Q1QbVMP60k", "scope": "GOOGLE", "types": ["bar", "liquor_store", "restaurant", "food", "point_of_interest", "store", "establishment"], "user_ratings_total": 11, "vicinity": "Ixmiquilpan S/N, Estrella del Sur, Ciudad de M\u00e9xico"}, {"business_status": "CLOSED_TEMPORARILY", "geometry": {"location": {"lat": 19.3495723, "lng": -99.0993043}, "viewport": {"northeast": {"lat": 19.3509377302915, "lng": -99.09794621970848}, "southwest": {"lat": 19.3482397697085, "lng": -99.1006441802915}}}, "icon": "https://maps.gstatic.com/mapfiles/place_api/icons/v1/png_71/bar-71.png", "name": "Casa Frog's", "permanently_closed": true, "photos": [{"height": 2080, "html_attributions": ["<a href=\"https://maps.google.com/maps/contrib/109583052742781279961\">Mirella Gallardo</a>"], "photo_reference": "CmRaAAAAoQKrXFg_FohVeqJLT5UWWp1ORoI3FU3j_wpV1Amsy3oublk4yhzHm3fIr4jTtxuuuThFeTAAe_zXHVRNgP_eA-SjSPxpc-sx0I9XJbpLKOqSz-BA1n8lLplT8dtQKtPWEhBW17OSfxyy6B3WOBsOQkLCGhQvShH1pz39UgUkMvvbqa23JK7-hQ", "width": 4160}], "place_id": "ChIJBwtBY8790YURtgpakaE4Ztk", "plus_code": {"compound_code": "8WX2+R7 Mexico City, CDMX, Mexico", "global_code": "76F28WX2+R7"}, "rating": 5, "reference": "ChIJBwtBY8790YURtgpakaE4Ztk", "scope": "GOOGLE", "types": ["bar", "point_of_interest", "establishment"], "user_ratings_total": 1, "vicinity": "Tizoc mz 23, Estrella del Sur, Ciudad de M\u00e9xico"}, {"business_status": "OPERATIONAL", "geometry": {"location": {"lat": 19.3513218, "lng": -99.09867849999999}, "viewport": {"northeast": {"lat": 19.3526795802915, "lng": -99.09735566970849}, "southwest": {"lat": 19.3499816197085, "lng": -99.1000536302915}}}, "icon": "https://maps.gstatic.com/mapfiles/place_api/icons/v1/png_71/bar-71.png", "name": "Hidalgo Blanco Pulqueria", "opening_hours": {"open_now": true}, "photos": [{"height": 3120, "html_attributions": ["<a href=\"https://maps.google.com/maps/contrib/117787319834425263005\">Hidalgo Blanco Pulqueria</a>"], "photo_reference": "CmRaAAAAZJiBR5C49XXcKXzhWqrsmAYYiB1gPtGam8mB40RAsFsgWLsV607UqLOkpFHaBZ8x9CuYzOznNEh7ydzgDMsT2Kct0KRtW0P-XwOzv08oyzeuooU7j-uChuzmM9Do5e7qEhBI_Tx8eC8XdYk09-o-l34JGhT3wIxXtAljTdcoc1UWpuoLfEluug", "width": 3120}], "place_id": "ChIJmRRpeSj90YURpM9ij8yf1CU", "plus_code": {"compound_code": "9W22+GG Estrella del Sur, Mexico City, CDMX, Mexico", "global_code": "76F29W22+GG"}, "rating": 4.8, "reference": "ChIJmRRpeSj90YURpM9ij8yf1CU", "scope": "GOOGLE", "types": ["bar", "point_of_interest", "establishment"], "user_ratings_total": 4, "vicinity": "Xochiquetzal Mz 6, Estrella del Sur"}]