[{"business_status": "OPERATIONAL", "formatted_address": "Huitzilihuitl Mz 3, Zona Urbana Ejidal los Reyes Culhuacan, Iztapalapa, 09840 Ciudad de M\u00e9xico, CDMX", "geometry": {"location": {"lat": 19.3463299, "lng": -99.1072477}, "viewport": {"northeast": {"lat": 19.34765507989272, "lng": -99.10582032010728}, "southwest": {"lat": 19.34495542010728, "lng": -99.10851997989273}}}, "icon": "https://maps.gstatic.com/mapfiles/place_api/icons/v1/png_71/generic_business-71.png", "name": "AUTO LAVADO", "opening_hours": {"open_now": false}, "place_id": "ChIJa2kEqAb-0YURRreZDMMTqOM", "plus_code": {"compound_code": "8VWV+G4 Mexico City", "global_code": "76F28VWV+G4"}, "rating": 5, "reference": "ChIJa2kEqAb-0YURRreZDMMTqOM", "types": ["car_wash", "point_of_interest", "establishment"], "user_ratings_total": 2}, {"business_status": "OPERATIONAL", "formatted_address": "Fco. Pascual Garcia 12, San Lucas, Iztapalapa, 09000 Ciudad de M\u00e9xico, CDMX", "geometry": {"location": {"lat": 19.3563, "lng": -99.096054}, "viewport": {"northeast": {"lat": 19.35763987989272, "lng": -99.09458012010727}, "southwest": {"lat": 19.35494022010728, "lng": -99.09727977989272}}}, "icon": "https://maps.gstatic.com/mapfiles/place_api/icons/v1/png_71/generic_business-71.png", "name": "Auto Lavado Vane", "opening_hours": {"open_now": false}, "photos": [{"height": 1200, "html_attributions": ["<a href=\"https://maps.google.com/maps/contrib/112625069448625314712\">A Google User</a>"], "photo_reference": "CmRaAAAAJnr3TSZau_KtMYT5z-YjPZ07JxtwrZLcf4a7MpYl3MKH9yXMgx4Ou-rQUGHm3ZOK1zyf73ebN9Y5X7PeJtvcIS53P0y9cyJFikwqk4cTPSJ-O2wMdiVACKM2tqa-uRrUEhBO5D4CtaMjqcDOTneuc5ikGhSmI8YVRva924z1keYDF64IzySqQQ", "width": 1600}], "place_id": "ChIJvSTGoTP90YURkaxbgSm5XXI", "plus_code": {"compound_code": "9W43+GH Mexico City", "global_code": "76F29W43+GH"}, "rating": 0, "reference": "ChIJvSTGoTP90YURkaxbgSm5XXI", "types": ["car_wash", "point_of_interest", "establishment"], "user_ratings_total": 0}, {"business_status": "OPERATIONAL", "formatted_address": "Av. Tlahuac 328, Los Reyes Culhuacan, Iztapalapa, 09840 Ciudad de M\u00e9xico, CDMX", "geometry": {"location": {"lat": 19.3471819, "lng": -99.1071027}, "viewport": {"northeast": {"lat": 19.34853747989272, "lng": -99.10578847010729}, "southwest": {"lat": 19.34583782010727, "lng": -99.10848812989273}}}, "icon": "https://maps.gstatic.com/mapfiles/place_api/icons/v1/png_71/generic_business-71.png", "name": "El Lavadero De Los Reyes", "opening_hours": {"open_now": false}, "photos": [{"height": 4032, "html_attributions": ["<a href=\"https://maps.google.com/maps/contrib/102894817559299402346\">A Google User</a>"], "photo_reference": "CmRaAAAAvAPge74qseFufaZZc4JuuOMkx1Cj9_M8Ovf2LOnPKUYP6pKqpSBme2QBR5813mUefzGGbqtb5dtj5HST8UZqXyczwhVQL6SWSjFUwGC7A2TifA_ZcUeYpcInJne_mp4hEhCbvOYFv6x8bSGJZjTrkl9yGhSwBt4QoCerBE9I435MxPcrhayPaw", "width": 3024}], "place_id": "ChIJr20xBRb_0YURZ3Sb25vmwHw", "plus_code": {"compound_code": "8VWV+V5 Mexico City", "global_code": "76F28VWV+V5"}, "rating": 0, "reference": "ChIJr20xBRb_0YURZ3Sb25vmwHw", "types": ["car_wash", "point_of_interest", "establishment"], "user_ratings_total": 0}, {"business_status": "OPERATIONAL", "formatted_address": "Fco. Pascual Garcia numero 12, San Lucas, Iztapalapa, 09000 Ciudad de M\u00e9xico, CDMX", "geometry": {"location": {"lat": 19.356235, "lng": -99.09583699999999}, "viewport": {"northeast": {"lat": 19.35758537989272, "lng": -99.09449362010727}, "southwest": {"lat": 19.35488572010728, "lng": -99.09719327989272}}}, "icon": "https://maps.gstatic.com/mapfiles/place_api/icons/v1/png_71/generic_business-71.png", "name": "Car Wash \"Vane\"", "opening_hours": {"open_now": false}, "photos": [{"height": 1080, "html_attributions": ["<a href=\"https://maps.google.com/maps/contrib/106957391242888419851\">Angel Osorio</a>"], "photo_reference": "CmRaAAAAWzmyCWH2rdu1oy3ZM9CyrGjFKjshySe_szgG4FpSBW4MIzh0WtjyIitxfdPT_1wQN1w5DbMWtaWHHelOtePcPnjOpg3qUtY5vJwj5MVYGj7BX3wAUWWNg-JJ141ijAbCEhBeY8vF2qFleAXOH3ulPolMGhQpVcM8YgZpXM68hKJAnO6pDzAvkA", "width": 1920}], "place_id": "ChIJEdQYvNP90YURGTUzdpVZHNc", "plus_code": {"compound_code": "9W43+FM Mexico City", "global_code": "76F29W43+FM"}, "rating": 5, "reference": "ChIJEdQYvNP90YURGTUzdpVZHNc", "types": ["car_wash", "point_of_interest", "establishment"], "user_ratings_total": 2}, {"business_status": "OPERATIONAL", "formatted_address": "Los Reyes Culhuacan, 09840 Mexico City, CDMX", "geometry": {"location": {"lat": 19.346526, "lng": -99.1074474}, "viewport": {"northeast": {"lat": 19.34787882989272, "lng": -99.10611657010728}, "southwest": {"lat": 19.34517917010728, "lng": -99.10881622989272}}}, "icon": "https://maps.gstatic.com/mapfiles/place_api/icons/v1/png_71/generic_business-71.png", "name": "Autolavado Los Reyes Estetica Automotriz", "place_id": "ChIJZ5NNBgT-0YUR5NzVV8wllfc", "plus_code": {"compound_code": "8VWV+J2 Mexico City", "global_code": "76F28VWV+J2"}, "rating": 0, "reference": "ChIJZ5NNBgT-0YUR5NzVV8wllfc", "types": ["car_wash", "point_of_interest", "establishment"], "user_ratings_total": 0}, {"business_status": "OPERATIONAL", "formatted_address": "Arneses 4, Minerva, Iztapalapa, 09810 Ciudad de M\u00e9xico, CDMX", "geometry": {"location": {"lat": 19.356335, "lng": -99.11010379999999}, "viewport": {"northeast": {"lat": 19.35768812989272, "lng": -99.10878952010727}, "southwest": {"lat": 19.35498847010728, "lng": -99.11148917989271}}}, "icon": "https://maps.gstatic.com/mapfiles/place_api/icons/v1/png_71/generic_business-71.png", "name": "Auto Lavado Expres QUICKLY CAR WASH", "photos": [{"height": 3472, "html_attributions": ["<a href=\"https://maps.google.com/maps/contrib/110507996501409451044\">Josue Cervantes</a>"], "photo_reference": "CmRaAAAAPKVWZnCcc4MQkMVQcOxeKZZS0JgCE9ZIcrN4x0q7CWQ2t7Dxnl9LHc95QElDZro_S4-vImDhB_gy1PQfRSHUhK-xj0Axb7n4Z0pMwtagMZRx5OcP6_ZDLVAobO23yDTHEhBomGldIldnVWe1u3BSFhxZGhTTytd_BUzXNHWlnnFywU7vryxFQw", "width": 4640}], "place_id": "ChIJ79t42Lj_0YURO0q-hZ9vmlY", "plus_code": {"compound_code": "9V4Q+GX Mexico City", "global_code": "76F29V4Q+GX"}, "rating": 5, "reference": "ChIJ79t42Lj_0YURO0q-hZ9vmlY", "types": ["car_wash", "point_of_interest", "establishment"], "user_ratings_total": 5}, {"business_status": "OPERATIONAL", "formatted_address": "5 de Mayo 106, San Lucas, Iztapalapa, 09000 Ciudad de M\u00e9xico, CDMX", "geometry": {"location": {"lat": 19.361947, "lng": -99.0968}, "viewport": {"northeast": {"lat": 19.36334437989272, "lng": -99.09543512010728}, "southwest": {"lat": 19.36064472010728, "lng": -99.09813477989273}}}, "icon": "https://maps.gstatic.com/mapfiles/place_api/icons/v1/png_71/generic_business-71.png", "name": "Autolavado Vallort", "opening_hours": {"open_now": false}, "photos": [{"height": 4160, "html_attributions": ["<a href=\"https://maps.google.com/maps/contrib/102517006521792939096\">Isma Pe\u00f1a</a>"], "photo_reference": "CmRaAAAA_kxlJsU4QWPLvzB29tAVfH8Fs6hPdMREtPNytRIlyBZXgf0vLhBE1U-sOQdYProHp5N6pmTLsAq1TyDzEwxwyTYUHPmP1wxVtOYx8LtsJ18Vc_QLEqpytkQQNg3RdRrqEhCfO9IhfR4pr7F8zpAoH2ASGhRBLlS2XlOWQ3ipEdoyoNb3_3Guqw", "width": 3120}], "place_id": "ChIJ_azZ2-D90YURQKNY7Uz1nAc", "plus_code": {"compound_code": "9W63+Q7 Mexico City", "global_code": "76F29W63+Q7"}, "rating": 3.8, "reference": "ChIJ_azZ2-D90YURQKNY7Uz1nAc", "types": ["car_wash", "point_of_interest", "establishment"], "user_ratings_total": 93}, {"business_status": "OPERATIONAL", "formatted_address": "Jose Ma. Morels Manzana 4 Lote 14, Valle de Luces 1ra Secc, Iztapalapa, 09800 Ciudad de M\u00e9xico, CDMX", "geometry": {"location": {"lat": 19.3379571, "lng": -99.1007211}, "viewport": {"northeast": {"lat": 19.33927302989272, "lng": -99.09938047010729}, "southwest": {"lat": 19.33657337010728, "lng": -99.10208012989273}}}, "icon": "https://maps.gstatic.com/mapfiles/place_api/icons/v1/png_71/generic_business-71.png", "name": "CAR WASH", "opening_hours": {"open_now": false}, "place_id": "ChIJfw5uLQACzoUR_x71DHVc8Xg", "plus_code": {"compound_code": "8VQX+5P Mexico City", "global_code": "76F28VQX+5P"}, "rating": 0, "reference": "ChIJfw5uLQACzoUR_x71DHVc8Xg", "types": ["car_wash", "point_of_interest", "establishment"], "user_ratings_total": 0}, {"business_status": "OPERATIONAL", "formatted_address": "Esquina Francisco I. Madero, Av. Arneses S/N, Valle del Sur, Iztapalapa, 09819 Ciudad de M\u00e9xico, CDMX", "geometry": {"location": {"lat": 19.3458146, "lng": -99.1120363}, "viewport": {"northeast": {"lat": 19.34715592989272, "lng": -99.11064102010727}, "southwest": {"lat": 19.34445627010728, "lng": -99.11334067989272}}}, "icon": "https://maps.gstatic.com/mapfiles/place_api/icons/v1/png_71/generic_business-71.png", "name": "El Padrino: lavado a Presi\u00f3n", "opening_hours": {"open_now": false}, "photos": [{"height": 3264, "html_attributions": ["<a href=\"https://maps.google.com/maps/contrib/108097050589654776415\">Iv\u00e1n P\u00e9rez</a>"], "photo_reference": "CmRaAAAAkXzCJYZerFnoEwxpWGj1adi1fVKa0Xx2i-_23GPcDMI7W3CYKaMTN4WQ-CWj_DhaJKpVP8dhwtuoW2q-vNPpEYuRfUqJ01J7DVN-eZlfoB_zr3yiygXotyg_SW--3em9EhCNQokHWGaFN4Yut25XCCarGhR9CCXtHzd-uHM25iaqO7F5S2gTuw", "width": 1568}], "place_id": "ChIJLWKiVgP-0YURMR734f1YL2E", "plus_code": {"compound_code": "8VWQ+85 Mexico City", "global_code": "76F28VWQ+85"}, "rating": 4.4, "reference": "ChIJLWKiVgP-0YURMR734f1YL2E", "types": ["car_wash", "point_of_interest", "establishment"], "user_ratings_total": 31}, {"business_status": "OPERATIONAL", "formatted_address": "Eje 3 Oriente (Av. 5), Granjas San Antonio, Iztapalapa, 09070 Ciudad de M\u00e9xico, CDMX", "geometry": {"location": {"lat": 19.3633748, "lng": -99.10961239999999}, "viewport": {"northeast": {"lat": 19.36467542989272, "lng": -99.10827417010728}, "southwest": {"lat": 19.36197577010728, "lng": -99.11097382989271}}}, "icon": "https://maps.gstatic.com/mapfiles/place_api/icons/v1/png_71/generic_business-71.png", "name": "AUTO LAVADO A PRESION", "opening_hours": {"open_now": true}, "place_id": "ChIJee7TKQ3-0YURF9SoJFV1GVg", "plus_code": {"compound_code": "9V7R+85 Mexico City", "global_code": "76F29V7R+85"}, "rating": 4, "reference": "ChIJee7TKQ3-0YURF9SoJFV1GVg", "types": ["car_wash", "point_of_interest", "establishment"], "user_ratings_total": 13}, {"business_status": "OPERATIONAL", "formatted_address": "Atanasio G. Sarabia 1669, H\u00e9roes de Churubusco, Iztapalapa, 09060 Ciudad de M\u00e9xico, CDMX", "geometry": {"location": {"lat": 19.360786, "lng": -99.11453329999999}, "viewport": {"northeast": {"lat": 19.36225522989272, "lng": -99.11316912010727}, "southwest": {"lat": 19.35955557010728, "lng": -99.11586877989272}}}, "icon": "https://maps.gstatic.com/mapfiles/place_api/icons/v1/png_71/generic_business-71.png", "name": "Lavado de autos", "opening_hours": {"open_now": false}, "place_id": "ChIJ1aX7uGX_0YUR8ZMyJxf10_w", "plus_code": {"compound_code": "9V6P+85 Mexico City", "global_code": "76F29V6P+85"}, "rating": 0, "reference": "ChIJ1aX7uGX_0YUR8ZMyJxf10_w", "types": ["car_wash", "point_of_interest", "establishment"], "user_ratings_total": 0}, {"business_status": "OPERATIONAL", "formatted_address": "5 de Mayo 267, Sta B\u00e1rbara, Iztapalapa, 09000 Ciudad de M\u00e9xico, CDMX", "geometry": {"location": {"lat": 19.3632224, "lng": -99.10056850000001}, "viewport": {"northeast": {"lat": 19.36452022989272, "lng": -99.09923477010727}, "southwest": {"lat": 19.36182057010727, "lng": -99.10193442989272}}}, "icon": "https://maps.gstatic.com/mapfiles/place_api/icons/v1/png_71/generic_business-71.png", "name": "LAVADO Y ENGRASADO", "opening_hours": {"open_now": false}, "photos": [{"height": 3072, "html_attributions": ["<a href=\"https://maps.google.com/maps/contrib/113802000917676876238\">A Google User</a>"], "photo_reference": "CmRaAAAAt-G-MBgNWHLbBd6ui2aq7LsW0yfP0pYrHTmo7d4v5Fk8mp4eDPeERKKd627-pXtY4rFE2EHl8EaVfws2QL8CFAznd0kqhzyHutG92d9gTa3Dtyecpxw_-TWFtTGbQQu2EhAcNBAsDH7ChedX6YI8XvBZGhSo0NctfaEZZiOeto8eCUpcev6ddA", "width": 4608}], "place_id": "ChIJQfY5F-D90YURNooR0Iy57mg", "plus_code": {"compound_code": "9V7X+7Q Mexico City", "global_code": "76F29V7X+7Q"}, "rating": 4.3, "reference": "ChIJQfY5F-D90YURNooR0Iy57mg", "types": ["car_wash", "point_of_interest", "establishment"], "user_ratings_total": 83}, {"business_status": "OPERATIONAL", "formatted_address": "Arneses, Los Reyes Culhuacan, Iztapalapa, 09840 Ciudad de M\u00e9xico, CDMX", "geometry": {"location": {"lat": 19.344139, "lng": -99.11197399999999}, "viewport": {"northeast": {"lat": 19.34552947989272, "lng": -99.11061417010727}, "southwest": {"lat": 19.34282982010728, "lng": -99.1133138298927}}}, "icon": "https://maps.gstatic.com/mapfiles/place_api/icons/v1/png_71/generic_business-71.png", "name": "AutoLavado Los Pericos", "opening_hours": {"open_now": false}, "photos": [{"height": 3104, "html_attributions": ["<a href=\"https://maps.google.com/maps/contrib/117488830055679521522\">jacinto barradas</a>"], "photo_reference": "CmRaAAAAyfq6aS8dutP-ZNMnXoYoCjhxmtDjABauNpZwZksjL8yYXZ2vfNBlVlRJhdOlQ3oqD7yAlD1Sy79NJJqfdM3yZkMDyK7ddFnwUWkWH3LduRx4pSTmn7G4SJgeT0Z34iy9EhBa8jYEYq7BaTjLTULg0Z-CGhQOjLwDvzdkerObriQ1IA7apbp03w", "width": 3104}], "place_id": "ChIJb2UTMQP-0YURwLhblTn2vbo", "plus_code": {"compound_code": "8VVQ+M6 Mexico City", "global_code": "76F28VVQ+M6"}, "rating": 4.2, "reference": "ChIJb2UTMQP-0YURwLhblTn2vbo", "types": ["car_wash", "point_of_interest", "establishment"], "user_ratings_total": 21}, {"business_status": "OPERATIONAL", "formatted_address": "09060 de, Atanasio G. Sarabia 1765, Escuadr\u00f3n 201, Iztapalapa, Ciudad de M\u00e9xico, CDMX", "geometry": {"location": {"lat": 19.360553, "lng": -99.11256979999999}, "viewport": {"northeast": {"lat": 19.36203917989272, "lng": -99.11120557010727}, "southwest": {"lat": 19.35933952010728, "lng": -99.11390522989272}}}, "icon": "https://maps.gstatic.com/mapfiles/place_api/icons/v1/png_71/generic_business-71.png", "name": "autolavado", "opening_hours": {"open_now": true}, "photos": [{"height": 12000, "html_attributions": ["<a href=\"https://maps.google.com/maps/contrib/106970683039229310164\">Alan Colunga</a>"], "photo_reference": "CmRaAAAAanTXCU-3V9FjeXVHkA090Avzob-D6aF_r6CFlnOT19dyB7CIYLJg_rhTAU6GP3iE0piRupY9clQPkdSXxOwJYln2-R1E1W1ccu8XRmWbY-DVzs5VPAVCAwsVUMFjAJpfEhDAFoljz14DVaFYfPkarJ-aGhSK2Kj6eirQUKqA67MCFIvqcA9f5A", "width": 9000}], "place_id": "ChIJbf64fxL-0YURjn0nqnwt6hc", "plus_code": {"compound_code": "9V6P+6X Mexico City", "global_code": "76F29V6P+6X"}, "rating": 4.1, "reference": "ChIJbf64fxL-0YURjn0nqnwt6hc", "types": ["car_wash", "point_of_interest", "establishment"], "user_ratings_total": 27}, {"business_status": "OPERATIONAL", "formatted_address": "5 de Mayo 359, Sta B\u00e1rbara, Iztapalapa, 09000 Ciudad de M\u00e9xico, CDMX", "geometry": {"location": {"lat": 19.3642386, "lng": -99.104205}, "viewport": {"northeast": {"lat": 19.36553767989273, "lng": -99.10287167010728}, "southwest": {"lat": 19.36283802010728, "lng": -99.10557132989271}}}, "icon": "https://maps.gstatic.com/mapfiles/place_api/icons/v1/png_71/generic_business-71.png", "name": "TORNEL AUTO LAVADO", "place_id": "ChIJs3RO1XT-0YURvnsHT2h5-_k", "plus_code": {"compound_code": "9V7W+M8 Mexico City", "global_code": "76F29V7W+M8"}, "rating": 4.1, "reference": "ChIJs3RO1XT-0YURvnsHT2h5-_k", "types": ["car_wash", "point_of_interest", "establishment"], "user_ratings_total": 9}, {"business_status": "OPERATIONAL", "formatted_address": "Aztecas 18, La Asunci\u00f3n, Iztapalapa, 09000 Ciudad de M\u00e9xico, CDMX", "geometry": {"location": {"lat": 19.361457, "lng": -99.092699}, "viewport": {"northeast": {"lat": 19.36279557989272, "lng": -99.09131842010729}, "southwest": {"lat": 19.36009592010728, "lng": -99.09401807989272}}}, "icon": "https://maps.gstatic.com/mapfiles/place_api/icons/v1/png_71/generic_business-71.png", "name": "Super Cars Wash Los Primos", "opening_hours": {"open_now": false}, "photos": [{"height": 4096, "html_attributions": ["<a href=\"https://maps.google.com/maps/contrib/113764616750501932229\">A Google User</a>"], "photo_reference": "CmRaAAAAtlfjTG_PRnJFWP6m6t56-1dSaIv_1hV0cX93IhGqIzROWHAahBRvWZ46YDxiLM76nh9-UWFc7Z-erteZ402y3Z_6ZN6v5EOfHTiAmd3nLe2LbKGeC7G8f0GfKz4sg6m_EhC5SK5TAxLnZGtaF1jqOsQaGhT6h51ul-iiGKkvQN1lAWazrHWKfQ", "width": 2304}], "place_id": "ChIJVe_4U-b90YUR6YB5HhjRKe4", "plus_code": {"compound_code": "9W64+HW Mexico City", "global_code": "76F29W64+HW"}, "rating": 4.2, "reference": "ChIJVe_4U-b90YUR6YB5HhjRKe4", "types": ["car_wash", "point_of_interest", "establishment"], "user_ratings_total": 14}, {"business_status": "OPERATIONAL", "formatted_address": "Calle Cuauht\u00e9moc, Los Reyes Culhuacan, Iztapalapa, 09840 Ciudad de M\u00e9xico, CDMX", "geometry": {"location": {"lat": 19.3444877, "lng": -99.1121373}, "viewport": {"northeast": {"lat": 19.34584057989272, "lng": -99.11080552010728}, "southwest": {"lat": 19.34314092010728, "lng": -99.11350517989271}}}, "icon": "https://maps.gstatic.com/mapfiles/place_api/icons/v1/png_71/generic_business-71.png", "name": "Super Wash", "photos": [{"height": 4224, "html_attributions": ["<a href=\"https://maps.google.com/maps/contrib/111167323537451202872\">Hugo Mendoza Santillan</a>"], "photo_reference": "CmRaAAAAGXw-E5nmtvSf85Gxyh5RCc_yUsZ7mUQH7taZu0Hqo450T3HDfAacZq-HOnhffMbNKonLKIY30FqUjjPtijfzJv4zOZToQikT1nRXACUDODsgKbuU3FJ-Czx1t6gVHMMiEhBvjezKJZdBLd6ZKkOKVStpGhTntGyMRoXgcrjTlo9jrGDAjcLHjw", "width": 5632}], "place_id": "ChIJF2bGNQP-0YURw2JNcpuB68I", "plus_code": {"compound_code": "8VVQ+Q4 Mexico City", "global_code": "76F28VVQ+Q4"}, "rating": 0, "reference": "ChIJF2bGNQP-0YURw2JNcpuB68I", "types": ["car_wash", "point_of_interest", "establishment"], "user_ratings_total": 0}, {"business_status": "OPERATIONAL", "formatted_address": "Calle 8 215B, Granjas San Antonio, Iztapalapa, 09070 Ciudad de M\u00e9xico, CDMX", "geometry": {"location": {"lat": 19.3652953, "lng": -99.10519}, "viewport": {"northeast": {"lat": 19.36664512989272, "lng": -99.10384017010728}, "southwest": {"lat": 19.36394547010728, "lng": -99.10653982989271}}}, "icon": "https://maps.gstatic.com/mapfiles/place_api/icons/v1/png_71/generic_business-71.png", "name": "Auto lavado a Presion LA 8", "opening_hours": {"open_now": true}, "photos": [{"height": 4656, "html_attributions": ["<a href=\"https://maps.google.com/maps/contrib/102582929238426189301\">sock106</a>"], "photo_reference": "CmRaAAAAZ1ij1uB6HfsKnHZDlncuuPwxjmUgZG0QgeIqwqjkhBNPPrmDgSYvMvxCUyCYcmkHW_0esQJP80MluaYJu1O2_SMlV77bmxuTTLrD6uCEUvCVBYmlflf1nKxWHrFDa5nREhDWI5fU5de1l3utUWpXMT5fGhSVTlOp7QiGhXFrYrcwq76QMF5Keg", "width": 3492}], "place_id": "ChIJWeKFl4r_0YURJopHLMX3iOc", "plus_code": {"compound_code": "9V8V+4W Mexico City", "global_code": "76F29V8V+4W"}, "rating": 5, "reference": "ChIJWeKFl4r_0YURJopHLMX3iOc", "types": ["car_wash", "point_of_interest", "establishment"], "user_ratings_total": 1}, {"business_status": "OPERATIONAL", "formatted_address": "09830, Espuela 37, Los \u00c1ngeles, Iztapalapa, Ciudad de M\u00e9xico, CDMX", "geometry": {"location": {"lat": 19.3453319, "lng": -99.0716319}, "viewport": {"northeast": {"lat": 19.34667962989272, "lng": -99.07027307010729}, "southwest": {"lat": 19.34397997010728, "lng": -99.07297272989274}}}, "icon": "https://maps.gstatic.com/mapfiles/place_api/icons/v1/png_71/generic_business-71.png", "name": "Lavado de Autos en Seco", "opening_hours": {"open_now": false}, "photos": [{"height": 2988, "html_attributions": ["<a href=\"https://maps.google.com/maps/contrib/111724889729966410643\">jav pingo</a>"], "photo_reference": "CmRaAAAASBe1tN_Ip7qMjnx_aQ-3lE1hiHf94dXn0l0QAjdVX90VX1DhTKN00-yok1Grmhgl35quXJ9ck8NccFZ8kVsyCQnHMF609MtOVVZA3lBGgeAEW3rZOXvefODoRg5au32lEhBhOS_pmQayg92bWXPNs7wUGhR4ATq-NE-iYF6UnEOEbYJOp8Ye2w", "width": 3984}], "place_id": "ChIJayx_CIn90YUR1gYed7Xt1tw", "plus_code": {"compound_code": "8WWH+48 Mexico City", "global_code": "76F28WWH+48"}, "rating": 5, "reference": "ChIJayx_CIn90YUR1gYed7Xt1tw", "types": ["car_wash", "point_of_interest", "establishment"], "user_ratings_total": 4}, {"business_status": "OPERATIONAL", "formatted_address": "Av. Tlahuac 3563, San Antonio Culhuacan, Iztapalapa, 09800 Ciudad de M\u00e9xico, CDMX", "geometry": {"location": {"lat": 19.3404474, "lng": -99.1087913}, "viewport": {"northeast": {"lat": 19.34178662989272, "lng": -99.10740157010727}, "southwest": {"lat": 19.33908697010727, "lng": -99.11010122989272}}}, "icon": "https://maps.gstatic.com/mapfiles/place_api/icons/v1/png_71/generic_business-71.png", "name": "Hi-Tech Car Care Center", "opening_hours": {"open_now": false}, "photos": [{"height": 3000, "html_attributions": ["<a href=\"https://maps.google.com/maps/contrib/112611804121578280348\">Luisro Guerrero</a>"], "photo_reference": "CmRaAAAAl3xRjutCDNDGTO0HAumqoJwfTPXFasvPvH_XtHQzSs4RklxY9SA7msDoI_Zf8-nkzAUrLoAeK9z_nVb74PWuUoSWnoYlfVSXtgL0053Y0iYLSNnYeCNqorKbCdKzJPAsEhBOMRcqgU_q6dK7PcLZDRtEGhT5Pyi0SvmwQaFmnClzB_eXpTh9pg", "width": 4000}], "place_id": "ChIJYyFmOZj_0YUR5XsyS75RX10", "plus_code": {"compound_code": "8VRR+5F Mexico City", "global_code": "76F28VRR+5F"}, "rating": 3.9, "reference": "ChIJYyFmOZj_0YUR5XsyS75RX10", "types": ["car_wash", "car_repair", "point_of_interest", "establishment"], "user_ratings_total": 46}]