[{"business_status": "OPERATIONAL", "geometry": {"location": {"lat": 19.3508154, "lng": -99.10056569999999}, "viewport": {"northeast": {"lat": 19.3521604302915, "lng": -99.09920561970848}, "southwest": {"lat": 19.3494624697085, "lng": -99.1019035802915}}}, "icon": "https://maps.gstatic.com/mapfiles/place_api/icons/v1/png_71/shopping-71.png", "name": "ABARROTES VINOS Y LICORES EL TREBOL", "opening_hours": {"open_now": true}, "place_id": "ChIJYxvqaP390YUR2dUhbYi0oTY", "plus_code": {"compound_code": "9V2X+8Q Mexico City, CDMX, Mexico", "global_code": "76F29V2X+8Q"}, "rating": 5, "reference": "ChIJYxvqaP390YUR2dUhbYi0oTY", "scope": "GOOGLE", "types": ["convenience_store", "liquor_store", "food", "point_of_interest", "store", "establishment"], "user_ratings_total": 3, "vicinity": "Por Arroyo Tlaloc, Puentetitla 117, Estrella del Sur, Ciudad de M\u00e9xico"}, {"business_status": "OPERATIONAL", "geometry": {"location": {"lat": 19.3489373, "lng": -99.0998929}, "viewport": {"northeast": {"lat": 19.3502951802915, "lng": -99.0985706697085}, "southwest": {"lat": 19.3475972197085, "lng": -99.10126863029151}}}, "icon": "https://maps.gstatic.com/mapfiles/place_api/icons/v1/png_71/shopping-71.png", "name": "ABARROTES, VINOS Y LICORES LOS COMPAS", "opening_hours": {"open_now": true}, "place_id": "ChIJcXmxov390YURu7C3eDk8rbc", "plus_code": {"compound_code": "8WX2+H2 Mexico City, CDMX, Mexico", "global_code": "76F28WX2+H2"}, "reference": "ChIJcXmxov390YURu7C3eDk8rbc", "scope": "GOOGLE", "types": ["convenience_store", "food", "point_of_interest", "store", "establishment"], "vicinity": "Entre Calle Moctezuma y Calle Tizoc, Xochiquetzal, Estrella del Sur, Iztapalapa, Ciudad de M\u00e9xico"}, {"business_status": "OPERATIONAL", "geometry": {"location": {"lat": 19.3482267, "lng": -99.10128379999999}, "viewport": {"northeast": {"lat": 19.3495632802915, "lng": -99.09986926970849}, "southwest": {"lat": 19.3468653197085, "lng": -99.1025672302915}}}, "icon": "https://maps.gstatic.com/mapfiles/place_api/icons/v1/png_71/shopping-71.png", "name": "Tienda La Jarocha", "opening_hours": {"open_now": true}, "place_id": "ChIJg5Tbiv390YURN3kBnqV2kj8", "plus_code": {"compound_code": "8VXX+7F Mexico City, CDMX, Mexico", "global_code": "76F28VXX+7F"}, "reference": "ChIJg5Tbiv390YURN3kBnqV2kj8", "scope": "GOOGLE", "types": ["convenience_store", "food", "point_of_interest", "store", "establishment"], "vicinity": "Netzahualpilli 105, Estrella del Sur, Ciudad de M\u00e9xico"}, {"business_status": "OPERATIONAL", "geometry": {"location": {"lat": 19.3505599, "lng": -99.1006731}, "viewport": {"northeast": {"lat": 19.3519036302915, "lng": -99.09930971970849}, "southwest": {"lat": 19.3492056697085, "lng": -99.1020076802915}}}, "icon": "https://maps.gstatic.com/mapfiles/place_api/icons/v1/png_71/shopping-71.png", "name": "Abarrotes Damian", "opening_hours": {"open_now": true}, "place_id": "ChIJQc5ib_390YURjdOdfIhKCWg", "plus_code": {"compound_code": "9V2X+6P Mexico City, CDMX, Mexico", "global_code": "76F29V2X+6P"}, "reference": "ChIJQc5ib_390YURjdOdfIhKCWg", "scope": "GOOGLE", "types": ["convenience_store", "food", "point_of_interest", "store", "establishment"], "vicinity": "Mz 4, Lt 1, esquina con Calle Ixmiquilpan, Puentetitla S/N, Iztapalapa, Ciudad de M\u00e9xico"}, {"business_status": "OPERATIONAL", "geometry": {"location": {"lat": 19.3496556, "lng": -99.1017799}, "viewport": {"northeast": {"lat": 19.3510170802915, "lng": -99.10041956970848}, "southwest": {"lat": 19.3483191197085, "lng": -99.1031175302915}}}, "icon": "https://maps.gstatic.com/mapfiles/place_api/icons/v1/png_71/shopping-71.png", "name": "Tienda", "opening_hours": {"open_now": true}, "place_id": "ChIJnY8_ggf-0YURLyfdUUe_wMI", "plus_code": {"compound_code": "8VXX+V7 Mexico City, CDMX, Mexico", "global_code": "76F28VXX+V7"}, "rating": 5, "reference": "ChIJnY8_ggf-0YURLyfdUUe_wMI", "scope": "GOOGLE", "types": ["convenience_store", "food", "point_of_interest", "store", "establishment"], "user_ratings_total": 1, "vicinity": "Mz 1, Lt 1, Esquina con Calle Quetzalcoatl, Tonatiuh 15, Iztapalapa, Ciudad de M\u00e9xico"}, {"business_status": "OPERATIONAL", "geometry": {"location": {"lat": 19.35316599999999, "lng": -99.1004823}, "viewport": {"northeast": {"lat": 19.3545049302915, "lng": -99.09910176970848}, "southwest": {"lat": 19.35180696970849, "lng": -99.10179973029149}}}, "icon": "https://maps.gstatic.com/mapfiles/place_api/icons/v1/png_71/shopping-71.png", "name": "ABARROTES LA ESPERANZA", "opening_hours": {"open_now": true}, "photos": [{"height": 1032, "html_attributions": ["<a href=\"https://maps.google.com/maps/contrib/110089662526757857599\">ABARROTES LA ESPERANZA</a>"], "photo_reference": "CmRaAAAA5QWgtfnyDBY9fEa8OXIFjppnA1WVTckO2Gs8i3BSW_ZvxlKGAWtQg6C-lcyLPciaITaITmLVyty09DcYIYVKN8ArUE7tKAsuT3svpfQojKKtnocdisptW8qznwCgc-UCEhCKNaT6GG_LUW63P6sJqlqwGhQmOorby3lNtNfcY20XfuCOunNJxA", "width": 581}], "place_id": "ChIJ6bD8sOL90YURVEAq4702_9k", "plus_code": {"compound_code": "9V3X+7R Mexico City, CDMX, Mexico", "global_code": "76F29V3X+7R"}, "reference": "ChIJ6bD8sOL90YURVEAq4702_9k", "scope": "GOOGLE", "types": ["supermarket", "convenience_store", "grocery_or_supermarket", "food", "point_of_interest", "store", "establishment"], "vicinity": "Esquina Pastores, Privada Ermita Iztapalapa, Ampliaci\u00f3n Ricardo Flores Mag\u00f3n, Ciudad de M\u00e9xico"}, {"business_status": "OPERATIONAL", "geometry": {"location": {"lat": 19.3534165, "lng": -99.1008354}, "viewport": {"northeast": {"lat": 19.3547493302915, "lng": -99.09949081970849}, "southwest": {"lat": 19.35205136970849, "lng": -99.1021887802915}}}, "icon": "https://maps.gstatic.com/mapfiles/place_api/icons/v1/png_71/shopping-71.png", "name": "ABARROTES EL GORDO", "place_id": "ChIJBRanpeL90YUR5IfsewDuMpw", "plus_code": {"compound_code": "9V3X+9M Mexico City, CDMX, Mexico", "global_code": "76F29V3X+9M"}, "reference": "ChIJBRanpeL90YUR5IfsewDuMpw", "scope": "GOOGLE", "types": ["convenience_store", "food", "point_of_interest", "store", "establishment"], "vicinity": "Pastores, Santa Isabel Industrial, Ciudad de M\u00e9xico"}, {"business_status": "OPERATIONAL", "geometry": {"location": {"lat": 19.3491772, "lng": -99.1005935}, "viewport": {"northeast": {"lat": 19.3505472302915, "lng": -99.0992953197085}, "southwest": {"lat": 19.3478492697085, "lng": -99.10199328029151}}}, "icon": "https://maps.gstatic.com/mapfiles/place_api/icons/v1/png_71/shopping-71.png", "name": "ABARROTES HANA", "opening_hours": {"open_now": true}, "place_id": "ChIJf99Sm_390YUR43ljs9yYo8s", "plus_code": {"compound_code": "8VXX+MQ Mexico City, CDMX, Mexico", "global_code": "76F28VXX+MQ"}, "rating": 5, "reference": "ChIJf99Sm_390YUR43ljs9yYo8s", "scope": "GOOGLE", "types": ["convenience_store", "food", "point_of_interest", "store", "establishment"], "user_ratings_total": 1, "vicinity": "Netzahualpilli 75, Estrella del Sur, Ciudad de M\u00e9xico"}, {"business_status": "OPERATIONAL", "geometry": {"location": {"lat": 19.3498341, "lng": -99.09969970000002}, "viewport": {"northeast": {"lat": 19.3511655302915, "lng": -99.09831451970851}, "southwest": {"lat": 19.3484675697085, "lng": -99.10101248029152}}}, "icon": "https://maps.gstatic.com/mapfiles/place_api/icons/v1/png_71/shopping-71.png", "name": "EL MAGO DE OZ", "opening_hours": {"open_now": true}, "place_id": "ChIJWTQvCv390YURP8tLH8ufZ4E", "plus_code": {"compound_code": "8WX2+W4 Mexico City, CDMX, Mexico", "global_code": "76F28WX2+W4"}, "rating": 4, "reference": "ChIJWTQvCv390YURP8tLH8ufZ4E", "scope": "GOOGLE", "types": ["convenience_store", "food", "point_of_interest", "store", "establishment"], "user_ratings_total": 4, "vicinity": "Por Tizoc, Mz-19, Lt-10, Xochiquetzal, Estrella del Sur, Ciudad de M\u00e9xico"}, {"business_status": "OPERATIONAL", "geometry": {"location": {"lat": 19.35278079999999, "lng": -99.0997165}, "viewport": {"northeast": {"lat": 19.3541346802915, "lng": -99.09838111970849}, "southwest": {"lat": 19.3514367197085, "lng": -99.1010790802915}}}, "icon": "https://maps.gstatic.com/mapfiles/place_api/icons/v1/png_71/shopping-71.png", "name": "Miscel\u00e1nea Corona", "opening_hours": {"open_now": true}, "place_id": "ChIJvTqHxeL90YURIvepqYhzVaI", "plus_code": {"compound_code": "9W32+44 Mexico City, CDMX, Mexico", "global_code": "76F29W32+44"}, "reference": "ChIJvTqHxeL90YURIvepqYhzVaI", "scope": "GOOGLE", "types": ["convenience_store", "food", "point_of_interest", "store", "establishment"], "vicinity": "Puentetitla 66, Ampliaci\u00f3n Ricardo Flores Mag\u00f3n, Ciudad de M\u00e9xico"}, {"business_status": "OPERATIONAL", "geometry": {"location": {"lat": 19.350459, "lng": -99.09920260000001}, "viewport": {"northeast": {"lat": 19.3524019302915, "lng": -99.09752851970849}, "southwest": {"lat": 19.3497039697085, "lng": -99.1002264802915}}}, "icon": "https://maps.gstatic.com/mapfiles/place_api/icons/v1/png_71/shopping-71.png", "name": "Abarrotes Sarai", "opening_hours": {"open_now": false}, "place_id": "ChIJew512Pz90YURoKLCLi9ZLkg", "plus_code": {"compound_code": "9W22+58 Mexico City, CDMX, Mexico", "global_code": "76F29W22+58"}, "rating": 5, "reference": "ChIJew512Pz90YURoKLCLi9ZLkg", "scope": "GOOGLE", "types": ["convenience_store", "food", "point_of_interest", "store", "establishment"], "user_ratings_total": 1, "vicinity": "Xochiquetzal 12, Estrella del Sur, Ciudad de M\u00e9xico"}, {"business_status": "OPERATIONAL", "geometry": {"location": {"lat": 19.3491319, "lng": -99.1003652}, "viewport": {"northeast": {"lat": 19.3504735302915, "lng": -99.09899731970849}, "southwest": {"lat": 19.3477755697085, "lng": -99.1016952802915}}}, "icon": "https://maps.gstatic.com/mapfiles/place_api/icons/v1/png_71/shopping-71.png", "name": "ABARROTES SAMY", "opening_hours": {"open_now": true}, "place_id": "ChIJbQvam_390YURmr28LdkKRlE", "plus_code": {"compound_code": "8VXX+MV Mexico City, CDMX, Mexico", "global_code": "76F28VXX+MV"}, "reference": "ChIJbQvam_390YURmr28LdkKRlE", "scope": "GOOGLE", "types": ["convenience_store", "food", "point_of_interest", "store", "establishment"], "vicinity": "Mz 18 Lt 9, Xochipilli, Estrella del Sur, Iztapalapa, Ciudad de M\u00e9xico"}, {"business_status": "OPERATIONAL", "geometry": {"location": {"lat": 19.3487558, "lng": -99.1012495}, "viewport": {"northeast": {"lat": 19.3501334802915, "lng": -99.09989141970848}, "southwest": {"lat": 19.3474355197085, "lng": -99.10258938029149}}}, "icon": "https://maps.gstatic.com/mapfiles/place_api/icons/v1/png_71/shopping-71.png", "name": "ABARROTES Y CREMERIA LA ESTRELLA", "opening_hours": {"open_now": true}, "place_id": "ChIJHVppiP390YURjlwzhstubvQ", "plus_code": {"compound_code": "8VXX+GG Mexico City, CDMX, Mexico", "global_code": "76F28VXX+GG"}, "rating": 5, "reference": "ChIJHVppiP390YURjlwzhstubvQ", "scope": "GOOGLE", "types": ["convenience_store", "food", "point_of_interest", "store", "establishment"], "user_ratings_total": 5, "vicinity": "Callej\u00f3n Moctezuma Mz-2/Lt-6, Estrella del Sur, Ciudad de M\u00e9xico"}, {"business_status": "OPERATIONAL", "geometry": {"location": {"lat": 19.3538209, "lng": -99.1022715}, "viewport": {"northeast": {"lat": 19.3551700302915, "lng": -99.10092251970849}, "southwest": {"lat": 19.3524720697085, "lng": -99.1036204802915}}}, "icon": "https://maps.gstatic.com/mapfiles/place_api/icons/v1/png_71/shopping-71.png", "name": "JUGOS Y LICUADOS MONSE", "opening_hours": {"open_now": false}, "place_id": "ChIJhbhEFgj-0YURZ-_CxklPjWU", "plus_code": {"compound_code": "9V3X+G3 Mexico City, CDMX, Mexico", "global_code": "76F29V3X+G3"}, "reference": "ChIJhbhEFgj-0YURZ-_CxklPjWU", "scope": "GOOGLE", "types": ["convenience_store", "food", "point_of_interest", "store", "establishment"], "vicinity": "Pastores 64, Ampliaci\u00f3n Ricardo Flores Mag\u00f3n, Ciudad de M\u00e9xico"}, {"business_status": "OPERATIONAL", "geometry": {"location": {"lat": 19.354009, "lng": -99.10182569999999}, "viewport": {"northeast": {"lat": 19.3553631302915, "lng": -99.1004936697085}, "southwest": {"lat": 19.3526651697085, "lng": -99.1031916302915}}}, "icon": "https://maps.gstatic.com/mapfiles/place_api/icons/v1/png_71/shopping-71.png", "name": "Abarrotes Casa Sol", "place_id": "ChIJfTcArmb_0YURBGY1bEDN8Ck", "plus_code": {"compound_code": "9V3X+J7 Mexico City, CDMX, Mexico", "global_code": "76F29V3X+J7"}, "reference": "ChIJfTcArmb_0YURBGY1bEDN8Ck", "scope": "GOOGLE", "types": ["convenience_store", "food", "point_of_interest", "store", "establishment"], "vicinity": "Geranio, Los Reyes mz 13, Ciudad de M\u00e9xico"}, {"business_status": "OPERATIONAL", "geometry": {"location": {"lat": 19.3539075, "lng": -99.1007646}, "viewport": {"northeast": {"lat": 19.3552687302915, "lng": -99.09941216970849}, "southwest": {"lat": 19.3525707697085, "lng": -99.1021101302915}}}, "icon": "https://maps.gstatic.com/mapfiles/place_api/icons/v1/png_71/shopping-71.png", "name": "ABARROTES buyu", "opening_hours": {"open_now": true}, "place_id": "ChIJv-7rouL90YURh0lnMb8GOfU", "plus_code": {"compound_code": "9V3X+HM Mexico City, CDMX, Mexico", "global_code": "76F29V3X+HM"}, "rating": 5, "reference": "ChIJv-7rouL90YURh0lnMb8GOfU", "scope": "GOOGLE", "types": ["convenience_store", "food", "point_of_interest", "store", "establishment"], "user_ratings_total": 1, "vicinity": "esq. Pastores, Manzana 4 Lote 14, Tlacositiluyac, Ampliaci\u00f3n Ricardo Flores Mag\u00f3n, Iztapalapa, Ciudad de M\u00e9xico"}, {"business_status": "OPERATIONAL", "geometry": {"location": {"lat": 19.3484678, "lng": -99.1018557}, "viewport": {"northeast": {"lat": 19.3498430302915, "lng": -99.10058401970848}, "southwest": {"lat": 19.3471450697085, "lng": -99.1032819802915}}}, "icon": "https://maps.gstatic.com/mapfiles/place_api/icons/v1/png_71/shopping-71.png", "name": "TIENDA LA GUANAJUATENSE", "opening_hours": {"open_now": true}, "place_id": "ChIJNTJfbwf-0YUREhAEkbecDvM", "plus_code": {"compound_code": "8VXX+97 Mexico City, CDMX, Mexico", "global_code": "76F28VXX+97"}, "reference": "ChIJNTJfbwf-0YUREhAEkbecDvM", "scope": "GOOGLE", "types": ["convenience_store", "food", "point_of_interest", "store", "establishment"], "vicinity": "Mz. 5 Lt. 6, Quetzalcoatl S/N, Iztapalapa, Ciudad de M\u00e9xico"}, {"business_status": "OPERATIONAL", "geometry": {"location": {"lat": 19.3486214, "lng": -99.1006039}, "viewport": {"northeast": {"lat": 19.34995213029151, "lng": -99.09926286970851}, "southwest": {"lat": 19.3472541697085, "lng": -99.10196083029152}}}, "icon": "https://maps.gstatic.com/mapfiles/place_api/icons/v1/png_71/shopping-71.png", "name": "Tienda OXXO ESTRELLA DEL SUR", "photos": [{"height": 1920, "html_attributions": ["<a href=\"https://maps.google.com/maps/contrib/107445376234090693569\">Cris Lopez</a>"], "photo_reference": "CmRaAAAA-EyqlQ_V0LxusSoHhS-AS84G3OtOGXjlXKOExZXZr1QWdnt_MWCPSRQk7rFJrgwXFYNW9tQQCH0iLoGkJbynVUswR-twDTBforKMF1vrMOHokOTsZII5eQdQDWAVA8tIEhDwdwSsHimXpJ7BojRBLDqfGhTDohaXHTl39HF4ZnpZovUVFos4Ug", "width": 1080}], "place_id": "ChIJZRinynz90YUR53oUso19Y4E", "plus_code": {"compound_code": "8VXX+CQ Mexico City, CDMX, Mexico", "global_code": "76F28VXX+CQ"}, "rating": 4, "reference": "ChIJZRinynz90YUR53oUso19Y4E", "scope": "GOOGLE", "types": ["convenience_store", "food", "point_of_interest", "store", "establishment"], "user_ratings_total": 8, "vicinity": "Loc D esquina Xochipilli, Callej\u00f3n Moctezuma 8, Estrella del Sur, Ciudad de M\u00e9xico"}, {"business_status": "OPERATIONAL", "geometry": {"location": {"lat": 19.3533993, "lng": -99.09958089999999}, "viewport": {"northeast": {"lat": 19.3547227302915, "lng": -99.0981666197085}, "southwest": {"lat": 19.35202476970849, "lng": -99.1008645802915}}}, "icon": "https://maps.gstatic.com/mapfiles/place_api/icons/v1/png_71/shopping-71.png", "name": "Abarrotes Hola Corona", "opening_hours": {"open_now": true}, "place_id": "ChIJO0txHPr90YURbS62DsrqsVM", "plus_code": {"compound_code": "9W32+95 Mexico City, CDMX, Mexico", "global_code": "76F29W32+95"}, "reference": "ChIJO0txHPr90YURbS62DsrqsVM", "scope": "GOOGLE", "types": ["convenience_store", "food", "point_of_interest", "store", "establishment"], "vicinity": "Puentetitla 56, Ampliaci\u00f3n Ricardo Flores Mag\u00f3n, Ciudad de M\u00e9xico"}, {"business_status": "OPERATIONAL", "geometry": {"location": {"lat": 19.3492659, "lng": -99.0993843}, "viewport": {"northeast": {"lat": 19.3506114302915, "lng": -99.09802816970848}, "southwest": {"lat": 19.3479134697085, "lng": -99.1007261302915}}}, "icon": "https://maps.gstatic.com/mapfiles/place_api/icons/v1/png_71/shopping-71.png", "name": "LOS PEKES", "place_id": "ChIJV17bpf390YUR0-yfRI_ykqQ", "plus_code": {"compound_code": "8WX2+P6 Mexico City, CDMX, Mexico", "global_code": "76F28WX2+P6"}, "reference": "ChIJV17bpf390YUR0-yfRI_ykqQ", "scope": "GOOGLE", "types": ["convenience_store", "food", "point_of_interest", "store", "establishment"], "vicinity": "Netzahualc\u00f3yotl Mz.23 Lt.5, Estrella del Sur, Ciudad de M\u00e9xico"}]