[{"business_status": "OPERATIONAL", "formatted_address": "Av Canal de Apatlaco & Calle Canal R\u00edo Churubusco, \u00c1rea Federal Central de Abastos, 09340 Ciudad de M\u00e9xico, CDMX", "geometry": {"location": {"lat": 19.3754583, "lng": -99.0964168}, "viewport": {"northeast": {"lat": 19.37676827989272, "lng": -99.09524162010729}, "southwest": {"lat": 19.37406862010727, "lng": -99.09794127989274}}}, "icon": "https://maps.gstatic.com/mapfiles/place_api/icons/v1/png_71/generic_business-71.png", "name": "Yak Central Plaza", "opening_hours": {"open_now": true}, "photos": [{"height": 600, "html_attributions": ["<a href=\"https://maps.google.com/maps/contrib/116169704659918913542\">YAK</a>"], "photo_reference": "CmRaAAAABVlCVSK_r1qXIzDddoNj7IFUQrMsa1fDXZ_G5suyJ7mGwPH0fPYVFkwYN3OhF6tXUkCGRZ5y6CTxWEAuMZQ_kEpXh8RpRRUr4MHDWmAWwE66-nHrBW_xkFK96q9JU0TkEhBWAXrdryYiQef6r4vVPYgYGhTAWq6-IP8HSAVnCLiUATeUc5GiWA", "width": 1137}], "place_id": "ChIJg7HNW9f90YURGmaI_-dWQqY", "plus_code": {"compound_code": "9WG3+5C Mexico City", "global_code": "76F29WG3+5C"}, "rating": 3.9, "reference": "ChIJg7HNW9f90YURGmaI_-dWQqY", "types": ["casino", "point_of_interest", "establishment"], "user_ratings_total": 392}, {"business_status": "OPERATIONAL", "formatted_address": "Plaza Paseo Acoxpa, Av Acoxpa 430 Col, Coapa, Ex-Hacienda Coapa, Tlalpan, 14300 Ciudad de M\u00e9xico, CDMX", "geometry": {"location": {"lat": 19.2988728, "lng": -99.13695369999999}, "viewport": {"northeast": {"lat": 19.30085832989272, "lng": -99.13607742010728}, "southwest": {"lat": 19.29815867010727, "lng": -99.13877707989272}}}, "icon": "https://maps.gstatic.com/mapfiles/place_api/icons/v1/png_71/generic_business-71.png", "name": "PlayCity Casino", "opening_hours": {"open_now": true}, "photos": [{"height": 1905, "html_attributions": ["<a href=\"https://maps.google.com/maps/contrib/115222421152887846037\">PlayCity Casino</a>"], "photo_reference": "CmRaAAAAoWJYaYDiy3AaU8JBBcdTqJ-yZ48IuAHXkoi8_yO2W9e3JstuFTLC1d3865r6-rAJFa3t1D4Z30ereuvv3DSOCmLbIjbepaRdskoaBTcvBvXLHETjNxB5AeuFGkl3UCaQEhACglv6GnYHd08O6fC6VSJqGhSBw2K_dxyoRRaqeoxljD4UuQ3xJA", "width": 3172}], "place_id": "ChIJ_3KHBa8BzoURmF3pK8w32Ag", "plus_code": {"compound_code": "7VX7+G6 Mexico City", "global_code": "76F27VX7+G6"}, "rating": 4.1, "reference": "ChIJ_3KHBa8BzoURmF3pK8w32Ag", "types": ["casino", "point_of_interest", "establishment"], "user_ratings_total": 616}, {"business_status": "OPERATIONAL", "formatted_address": "Local 12 Col delegaci\u00f3n, Calz. de la Viga 1150, Apatlaco, Iztapalapa, 09430 Ciudad de M\u00e9xico, CDMX", "geometry": {"location": {"lat": 19.3807718, "lng": -99.1223339}, "viewport": {"northeast": {"lat": 19.38212452989272, "lng": -99.12104662010728}, "southwest": {"lat": 19.37942487010728, "lng": -99.12374627989273}}}, "icon": "https://maps.gstatic.com/mapfiles/place_api/icons/v1/png_71/generic_business-71.png", "name": "Yak Super Plaza La Viga", "opening_hours": {"open_now": true}, "photos": [{"height": 533, "html_attributions": ["<a href=\"https://maps.google.com/maps/contrib/101371826650583837252\">Yak La Viga</a>"], "photo_reference": "CmRaAAAAO25uko2qNc6C3Bz0QReg3TYkaAfALq-_ppnuOlrg3TOujfcICyO8GHUeV3XjG1mng7RWSeUN218l-fIYUdQbtwDMSMdZH2Fu57M2uR2j91VB9sC_VVSYhXKVeNxLdlqwEhAOoN19CAV3354GcdaBP1FOGhRjlMJJO41tr3x4ZY51A3jU9ldzXQ", "width": 1054}], "place_id": "ChIJj7kdymD-0YURH14rWVyHvD0", "plus_code": {"compound_code": "9VJH+83 Mexico City", "global_code": "76F29VJH+83"}, "rating": 3.8, "reference": "ChIJj7kdymD-0YURH14rWVyHvD0", "types": ["casino", "point_of_interest", "establishment"], "user_ratings_total": 393}, {"business_status": "CLOSED_TEMPORARILY", "formatted_address": "Av. Circunvalacion 1007, Santa Mar\u00eda Aztahuacan, Iztapalapa, 06020 Ciudad de M\u00e9xico, CDMX", "geometry": {"location": {"lat": 19.3526005, "lng": -99.02958269999999}, "viewport": {"northeast": {"lat": 19.35393147989272, "lng": -99.02822467010729}, "southwest": {"lat": 19.35123182010728, "lng": -99.03092432989273}}}, "icon": "https://maps.gstatic.com/mapfiles/place_api/icons/v1/png_71/generic_business-71.png", "name": "Jackpot Sonora", "permanently_closed": true, "photos": [{"height": 4160, "html_attributions": ["<a href=\"https://maps.google.com/maps/contrib/105846386823427987764\">A Google User</a>"], "photo_reference": "CmRaAAAA4t5SSCB19rjkWRx7yZQrAiK4axcqspdyUxCfyzC5oU5Fj_IyQGiJknbz0EA4T6XLDRcKZOhgvUcuZUCLpBlkm9uptzup-Jz6g0jID_UHu8ICCv5JF6BQozZDvBlkcq0dEhALQz3Xfjx4RC2V-PRA9RIoGhSLMXHz_gWoyEJ_CFe2wNoNGZLAww", "width": 2340}], "place_id": "ChIJg7tYeFz90YURYqWrtniQWEg", "plus_code": {"compound_code": "9X3C+25 Mexico City", "global_code": "76F29X3C+25"}, "rating": 3.7, "reference": "ChIJg7tYeFz90YURYqWrtniQWEg", "types": ["casino", "point_of_interest", "establishment"], "user_ratings_total": 52}, {"business_status": "OPERATIONAL", "formatted_address": "San Ignacio, Iztapalapa, 09000 Mexico City", "geometry": {"location": {"lat": 19.363548, "lng": -99.0982049}, "viewport": {"northeast": {"lat": 19.36492442989272, "lng": -99.09688362010729}, "southwest": {"lat": 19.36222477010728, "lng": -99.09958327989273}}}, "icon": "https://maps.gstatic.com/mapfiles/place_api/icons/v1/png_71/generic_business-71.png", "name": "Yaks", "place_id": "ChIJ65QLlX790YURFzSxqGnubd0", "plus_code": {"compound_code": "9W72+CP Mexico City", "global_code": "76F29W72+CP"}, "rating": 0, "reference": "ChIJ65QLlX790YURFzSxqGnubd0", "types": ["casino", "point_of_interest", "establishment"], "user_ratings_total": 0}, {"business_status": "OPERATIONAL", "formatted_address": "Av de los Insurgentes Sur 1288, Tlacoquemecatl del Valle, Benito Ju\u00e1rez, 03100 Ciudad de M\u00e9xico, CDMX", "geometry": {"location": {"lat": 19.3743725, "lng": -99.1785278}, "viewport": {"northeast": {"lat": 19.37577812989273, "lng": -99.17698587010729}, "southwest": {"lat": 19.37307847010728, "lng": -99.17968552989272}}}, "icon": "https://maps.gstatic.com/mapfiles/place_api/icons/v1/png_71/generic_business-71.png", "name": "Casino Life", "opening_hours": {"open_now": true}, "photos": [{"height": 3024, "html_attributions": ["<a href=\"https://maps.google.com/maps/contrib/104778746554948059189\">Erick Macias</a>"], "photo_reference": "CmRaAAAAqYEDonN0NQYX-YosuVMz9wDLHS52W70AIY41U3E_BqnqeYEMCeMPSN_CY70J4RNpWVZ7p4Lj4jNbVnqMpLlAP1uf2HhRlxWTJh4HkXWkcwBCCs_1gNdYKISbEl4MXaRIEhC995ArEYe6yTcqGiz7izgSGhRY3WheezlG_i_lRlkDyYeRUGsyXQ", "width": 3024}], "place_id": "ChIJO2kM0pr_0YURrkluI9jv5-I", "plus_code": {"compound_code": "9RFC+PH Mexico City", "global_code": "76F29RFC+PH"}, "rating": 4.3, "reference": "ChIJO2kM0pr_0YURrkluI9jv5-I", "types": ["casino", "tourist_attraction", "point_of_interest", "establishment"], "user_ratings_total": 3675}, {"business_status": "OPERATIONAL", "formatted_address": "Calle Liverpool 110, Ju\u00e1rez, Cuauht\u00e9moc, 06600 Ciudad de M\u00e9xico, CDMX", "geometry": {"location": {"lat": 19.4247004, "lng": -99.16297709999999}, "viewport": {"northeast": {"lat": 19.42608037989272, "lng": -99.16171617010727}, "southwest": {"lat": 19.42338072010728, "lng": -99.1644158298927}}}, "icon": "https://maps.gstatic.com/mapfiles/place_api/icons/v1/png_71/generic_business-71.png", "name": "KING'S CASINO", "opening_hours": {"open_now": true}, "photos": [{"height": 1440, "html_attributions": ["<a href=\"https://maps.google.com/maps/contrib/116158184664488456202\">Hector Espino</a>"], "photo_reference": "CmRaAAAAI4Sfi7W03yplMy9d-zBYXEZPps_i8WvNtbbxlg7E9XzPcESYNUD9fa4FhNULrOZCy5LGeMyb4Z4FqqfwKdhAqKGnT14am_3qSAEYnLZIJ33zqq2vvGrZJDSXBTKTAZ1iEhAIJPw8vUf_Kvb7Rxt6LEnMGhR56XKpmANtzh8z8Nfp_Q9jHuxRSA", "width": 2560}], "place_id": "ChIJJS3_uDb_0YURZT5kMsSp7p4", "plus_code": {"compound_code": "CRFP+VR Mexico City", "global_code": "76F2CRFP+VR"}, "rating": 3.9, "reference": "ChIJJS3_uDb_0YURZT5kMsSp7p4", "types": ["casino", "point_of_interest", "establishment"], "user_ratings_total": 515}, {"business_status": "OPERATIONAL", "formatted_address": "Calle Nueva York 315, N\u00e1poles, Benito Ju\u00e1rez, 03810 Ciudad de M\u00e9xico, CDMX", "geometry": {"location": {"lat": 19.3865887, "lng": -99.175477}, "viewport": {"northeast": {"lat": 19.38799227989272, "lng": -99.17398542010727}, "southwest": {"lat": 19.38529262010728, "lng": -99.17668507989272}}}, "icon": "https://maps.gstatic.com/mapfiles/place_api/icons/v1/png_71/generic_business-71.png", "name": "Casino codere", "opening_hours": {"open_now": true}, "photos": [{"height": 3264, "html_attributions": ["<a href=\"https://maps.google.com/maps/contrib/100518770504280361678\">Casino Caliente Meneo</a>"], "photo_reference": "CmRaAAAAeecn2Toq5wnHGfYZ0-UhSSyvuDvAb1Bcrrew_H6bRQE0UiXmBH7xSQykHlGx42IZzkycg441DWJXgKJ6FV1IcKTUxzGRLAkF1Szb63yXXfRIK6ppbigT6I3kE-E2exRPEhBISJxfaWPjCWTkQXqiRzYOGhQSM6vyYyOOVwX6JJljGRr9212s4Q", "width": 2448}], "place_id": "ChIJG4haWnb_0YURTCyUqb3AdRM", "plus_code": {"compound_code": "9RPF+JR Mexico City", "global_code": "76F29RPF+JR"}, "rating": 3.9, "reference": "ChIJG4haWnb_0YURTCyUqb3AdRM", "types": ["casino", "point_of_interest", "establishment"], "user_ratings_total": 504}, {"business_status": "OPERATIONAL", "formatted_address": "Entre Miramontes y, Calz. del Hueso #519, Acoxpa, Tlalpan, 14300 Ciudad de M\u00e9xico, CDMX", "geometry": {"location": {"lat": 19.3027711, "lng": -99.1232706}, "viewport": {"northeast": {"lat": 19.30421557989272, "lng": -99.12158142010728}, "southwest": {"lat": 19.30151592010728, "lng": -99.12428107989273}}}, "icon": "https://maps.gstatic.com/mapfiles/place_api/icons/v1/png_71/generic_business-71.png", "name": "Galerias Coapa yak", "opening_hours": {"open_now": true}, "photos": [{"height": 480, "html_attributions": ["<a href=\"https://maps.google.com/maps/contrib/113157402405667944576\">Yak Plaza Galer\u00edas Coapa</a>"], "photo_reference": "CmRaAAAAdEj3vQMw_vsf0gjGGa6i76AHz8zc9PCZRYagFs38Sq36R1Z9oe7fgw7M9kP6V4dNpW0D54Ye9HSuL_81Nr1RUNsfjpyhfFCN1cxT_JtU1nyAFuc2hOGBSPRfDrb6YDMtEhCWgjQTe0loECv5qVHyVe8gGhReQYY2kDygswHa7YcETZxzyXfzAg", "width": 640}], "place_id": "ChIJI2vGCpgBzoURYyl6EiIHTmU", "plus_code": {"compound_code": "8V3G+4M Mexico City", "global_code": "76F28V3G+4M"}, "rating": 4, "reference": "ChIJI2vGCpgBzoURYyl6EiIHTmU", "types": ["casino", "point_of_interest", "establishment"], "user_ratings_total": 658}, {"business_status": "OPERATIONAL", "formatted_address": "Delegaci\u00f3n, Av. Insurgentes Sur 878, Col del Valle Centro, Benito Ju\u00e1rez, 03100 Ciudad de M\u00e9xico, CDMX", "geometry": {"location": {"lat": 19.3872209, "lng": -99.1742297}, "viewport": {"northeast": {"lat": 19.38860772989272, "lng": -99.17301232010728}, "southwest": {"lat": 19.38590807010728, "lng": -99.17571197989271}}}, "icon": "https://maps.gstatic.com/mapfiles/place_api/icons/v1/png_71/generic_business-71.png", "name": "Palace Bingo & Sport Bets Casino\u00ae Insurgentes", "opening_hours": {"open_now": true}, "photos": [{"height": 3456, "html_attributions": ["<a href=\"https://maps.google.com/maps/contrib/107289739470219379767\">Jos\u00e9 Antonio Cortina Guti\u00e9rrez</a>"], "photo_reference": "CmRaAAAAomElxPI4NBDkoomGNQZVqQZyHqPMICgUUN7dBmx-dkD_t1VnIivkhIRFpn4Lrzvskk-YEqGEvkpxPfTGVQrof8tqDUESv9mNx6anXEzDk3f_LPw12POrOskv7g0x0V06EhADpkIX5E8TjIbOOfiuj291GhTddVLksCYT87YYHG9_ejW8uk9zWw", "width": 4608}], "place_id": "ChIJJ8PDiXb_0YURiOpRQq_Kgc8", "plus_code": {"compound_code": "9RPG+V8 Mexico City", "global_code": "76F29RPG+V8"}, "rating": 3.9, "reference": "ChIJJ8PDiXb_0YURiOpRQq_Kgc8", "types": ["casino", "point_of_interest", "establishment"], "user_ratings_total": 940}, {"business_status": "OPERATIONAL", "formatted_address": "Av. Universidad 1000, Sta Cruz Atoyac, Benito Ju\u00e1rez, 03310 Ciudad de M\u00e9xico, CDMX", "geometry": {"location": {"lat": 19.3672191, "lng": -99.1658763}, "viewport": {"northeast": {"lat": 19.36879392989272, "lng": -99.16492137010728}, "southwest": {"lat": 19.36609427010728, "lng": -99.16762102989271}}}, "icon": "https://maps.gstatic.com/mapfiles/place_api/icons/v1/png_71/generic_business-71.png", "name": "Yak Plaza Universidad", "opening_hours": {"open_now": true}, "photos": [{"height": 640, "html_attributions": ["<a href=\"https://maps.google.com/maps/contrib/115386905280385432410\">Yak Sport</a>"], "photo_reference": "CmRZAAAANbdLQM97sc_KAN-8Z_oFuZHAAF0mYZwgQnnzoUsyiBEF6N7DNwjdrQIGQYckKxym9Umq9kqoYrHRe9i7hPJnMelh1KUNYeklttZXp7OvvbQvyPUdhZZVP_P24LpfePDFEhCkyg5UdgBjjJu5sd1c2_E_GhR8QnifjpSs3tH-S7U3C0juAmR8mA", "width": 480}], "place_id": "ChIJud6hS6P_0YURhQJ5AaqyrQg", "plus_code": {"compound_code": "9R8M+VJ Mexico City", "global_code": "76F29R8M+VJ"}, "rating": 3.9, "reference": "ChIJud6hS6P_0YURhQJ5AaqyrQg", "types": ["casino", "point_of_interest", "establishment"], "user_ratings_total": 444}, {"business_status": "OPERATIONAL", "formatted_address": "Av Miguel \u00c1ngel de Quevedo 227, Oxtopulco, Coyoac\u00e1n, 04360 Ciudad de M\u00e9xico, CDMX", "geometry": {"location": {"lat": 19.3452821, "lng": -99.1794805}, "viewport": {"northeast": {"lat": 19.34722927989272, "lng": -99.17795792010727}, "southwest": {"lat": 19.34452962010728, "lng": -99.18065757989271}}}, "icon": "https://maps.gstatic.com/mapfiles/place_api/icons/v1/png_71/generic_business-71.png", "name": "PlayCity Casino Oasis Coyoc\u00e1n", "opening_hours": {"open_now": true}, "photos": [{"height": 4608, "html_attributions": ["<a href=\"https://maps.google.com/maps/contrib/110460610133742370060\">Germna Cantillo</a>"], "photo_reference": "CmRaAAAAyBxOsxMloUKg0YlF0IQCZd0d3cWL0fGeCTvZMoh-xfLg03K1bx77LUQuPbRg8jjqg2fD01xLAsLk1rQZx7_9zR7n6Y5IZ3zP1FiXMieUhQDe9ZNFnXN-m6nLqATeH-mSEhD9c4IO2hpn5r-ctdDjdz3RGhQyoSkJ9chWqgwSDAEqU3n0Q1j2bQ", "width": 3456}], "place_id": "ChIJLZPnIDH_0YUR_hijpzSkHC0", "plus_code": {"compound_code": "8RWC+46 Mexico City", "global_code": "76F28RWC+46"}, "rating": 4.2, "reference": "ChIJLZPnIDH_0YUR_hijpzSkHC0", "types": ["casino", "point_of_interest", "establishment"], "user_ratings_total": 70}, {"business_status": "OPERATIONAL", "formatted_address": "Calz. Ignacio Zaragoza 270, Santa Cruz Aviaci\u00f3n, Venustiano Carranza, 15540 Ciudad de M\u00e9xico, CDMX", "geometry": {"location": {"lat": 19.4211022, "lng": -99.09640650000001}, "viewport": {"northeast": {"lat": 19.42238562989272, "lng": -99.09509572010728}, "southwest": {"lat": 19.41968597010728, "lng": -99.09779537989273}}}, "icon": "https://maps.gstatic.com/mapfiles/place_api/icons/v1/png_71/generic_business-71.png", "name": "Jackpot Plaza Aeropuerto", "opening_hours": {"open_now": true}, "photos": [{"height": 960, "html_attributions": ["<a href=\"https://maps.google.com/maps/contrib/100850236482935344928\">Jackpot Plaza Aeropuerto</a>"], "photo_reference": "CmRaAAAAnSr3jmVT8LDaTTkiDUthLLqcwvt2XmgMc9XFBZKpyun_q5UQS25qrcfb-f_rHyh51CLM5Dj0PV2o4HiMyIDQQhNjP9pVhXCVGScCNcr8k5aDkTs6mgHf8hrUO3Mpt_2jEhASk7GEMBYWpS17-znn6cKCGhRey83QodoiNm1Hzzopld8st57Q6Q", "width": 1280}], "place_id": "ChIJT1BCfRz80YURD4lFIPe0N_k", "plus_code": {"compound_code": "CWC3+CC Mexico City", "global_code": "76F2CWC3+CC"}, "rating": 3.8, "reference": "ChIJT1BCfRz80YURD4lFIPe0N_k", "types": ["casino", "point_of_interest", "establishment"], "user_ratings_total": 1103}, {"business_status": "CLOSED_TEMPORARILY", "formatted_address": "Capirote 14, Huipulco, Tlalpan, 14370 Ciudad de M\u00e9xico, CDMX", "geometry": {"location": {"lat": 19.2935562, "lng": -99.1498871}, "viewport": {"northeast": {"lat": 19.29481352989272, "lng": -99.14858302010728}, "southwest": {"lat": 19.29211387010728, "lng": -99.15128267989273}}}, "icon": "https://maps.gstatic.com/mapfiles/place_api/icons/v1/png_71/generic_business-71.png", "name": "Salon Casino", "permanently_closed": true, "photos": [{"height": 960, "html_attributions": ["<a href=\"https://maps.google.com/maps/contrib/109299780772050852338\">Jose Luis Gutierrez</a>"], "photo_reference": "CmRaAAAANPWzk1Qvt3ZF-jDDlg5df_0b6wQU3Bo581kbTxQj5gC70hWdbK6NMkhu3yd8YPxOwYIpxinUuhKedN4NRsDLi2wLMw8NRmyAvi6WWKu83XnpnfYsT_c__Cwi6K8Q3OsDEhDhDnqjrFjv0AvKC1-Yb9EJGhT4Gr5nnh8rdnAD4xPpvFNxMVlvlQ", "width": 1280}], "place_id": "ChIJH4PmvFUAzoURnTiWiJewEVE", "plus_code": {"compound_code": "7VV2+C2 Mexico City", "global_code": "76F27VV2+C2"}, "rating": 3.1, "reference": "ChIJH4PmvFUAzoURnTiWiJewEVE", "types": ["casino", "point_of_interest", "establishment"], "user_ratings_total": 12}, {"business_status": "OPERATIONAL", "formatted_address": "Blvd. Gransur 5550, Pedregal de Carrasco, Coyoac\u00e1n, 04700 Ciudad de M\u00e9xico, CDMX", "geometry": {"location": {"lat": 19.3041075, "lng": -99.1655827}, "viewport": {"northeast": {"lat": 19.30543482989272, "lng": -99.16407202010727}, "southwest": {"lat": 19.30273517010728, "lng": -99.16677167989272}}}, "icon": "https://maps.gstatic.com/mapfiles/place_api/icons/v1/png_71/generic_business-71.png", "name": "Yak", "opening_hours": {"open_now": true}, "photos": [{"height": 3264, "html_attributions": ["<a href=\"https://maps.google.com/maps/contrib/108403570071974606394\">Enrique Mendoza Mendoza</a>"], "photo_reference": "CmRaAAAAA45QxWaCUH35tULHIvLL3CArv_YoJvvYBcECs8nx5lIJnm4FNuQ9lAR6aH7UlGrSMe2EIRxQNgfX8N_9Uo7AD-BcohiPiVhqA0eoHU7PzeTlRQrbDDswMHGTy7jPtjgUEhBO0eJP7vHbnW5icoq9metKGhTtEcoLojJB5pexkFkJ4EBWIVUGhA", "width": 2448}], "place_id": "ChIJR70lyUMAzoURUB2s8qNIzeI", "plus_code": {"compound_code": "8R3M+JQ Mexico City", "global_code": "76F28R3M+JQ"}, "rating": 3.8, "reference": "ChIJR70lyUMAzoURUB2s8qNIzeI", "types": ["casino", "point_of_interest", "establishment"], "user_ratings_total": 713}, {"business_status": "CLOSED_TEMPORARILY", "formatted_address": "Hamburgo 151, Ju\u00e1rez, Cuauht\u00e9moc, 06600 Ju\u00e1rez, CDMX", "geometry": {"location": {"lat": 19.4257377, "lng": -99.16614609999999}, "viewport": {"northeast": {"lat": 19.42701537989272, "lng": -99.16475787010728}, "southwest": {"lat": 19.42431572010728, "lng": -99.16745752989272}}}, "icon": "https://maps.gstatic.com/mapfiles/place_api/icons/v1/png_71/generic_business-71.png", "name": "Casino Hamburgo", "permanently_closed": true, "photos": [{"height": 3120, "html_attributions": ["<a href=\"https://maps.google.com/maps/contrib/109868048352285359272\">Mari\u00e9e Monz\u00f3n</a>"], "photo_reference": "CmRaAAAArj15PoCsPuPEJNQBUQEB_yxc9GooSkU7ottN6ARqrtkfeWcHCKl-ypROPpx4eIeRjumcxRuskcE0jWzxT-awJ7yFM7aGiE4lYs-gwrRhuwynNPbRJ7RE73yqypVQyJ9hEhD1cT89V4u3IrR7i5MlIgpxGhTOEPWS7tmdWm0_PdzSJ2lIGXPcfQ", "width": 4160}], "place_id": "ChIJAQC7dTb_0YUR9AZRLQTzfoQ", "plus_code": {"compound_code": "CRGM+7G Ju\u00e1rez, Mexico City", "global_code": "76F2CRGM+7G"}, "rating": 4.4, "reference": "ChIJAQC7dTb_0YUR9AZRLQTzfoQ", "types": ["casino", "point_of_interest", "establishment"], "user_ratings_total": 28}, {"business_status": "OPERATIONAL", "formatted_address": "De Minas 5, Xalpa, Iztapalapa, 09640 Ciudad de M\u00e9xico, CDMX", "geometry": {"location": {"lat": 19.3438408, "lng": -99.0186921}, "viewport": {"northeast": {"lat": 19.34523177989272, "lng": -99.01735412010729}, "southwest": {"lat": 19.34253212010728, "lng": -99.02005377989272}}}, "icon": "https://maps.gstatic.com/mapfiles/place_api/icons/v1/png_71/generic_business-71.png", "name": "CASINOS PARA FIESTAS", "place_id": "ChIJL2-_9qkCzoURb6NAsbNv49c", "plus_code": {"compound_code": "8XVJ+GG Mexico City", "global_code": "76F28XVJ+GG"}, "rating": 0, "reference": "ChIJL2-_9qkCzoURb6NAsbNv49c", "types": ["casino", "point_of_interest", "establishment"], "user_ratings_total": 0}, {"business_status": "CLOSED_TEMPORARILY", "formatted_address": "Calz. de las Bombas 72, Coapa, Culhuacan CTM VII, Coyoac\u00e1n, 04980 Ciudad de M\u00e9xico, CDMX", "geometry": {"location": {"lat": 19.3091354, "lng": -99.1326227}, "viewport": {"northeast": {"lat": 19.31036837989272, "lng": -99.13123547010727}, "southwest": {"lat": 19.30766872010728, "lng": -99.1339351298927}}}, "icon": "https://maps.gstatic.com/mapfiles/place_api/icons/v1/png_71/generic_business-71.png", "name": "Casino Bend Oregon", "permanently_closed": true, "place_id": "ChIJAQAEJboBzoURcUHbs2BHAog", "plus_code": {"compound_code": "8V58+MX Mexico City", "global_code": "76F28V58+MX"}, "rating": 0, "reference": "ChIJAQAEJboBzoURcUHbs2BHAog", "types": ["casino", "point_of_interest", "establishment"], "user_ratings_total": 0}, {"business_status": "OPERATIONAL", "formatted_address": "Antonio Manzano #20 Locales 9e al 14e, Av. Cuauht\u00e9moc, Roma Sur, 06700 Ciudad de M\u00e9xico", "geometry": {"location": {"lat": 19.4115974, "lng": -99.1558238}, "viewport": {"northeast": {"lat": 19.41304402989272, "lng": -99.15446322010727}, "southwest": {"lat": 19.41034437010727, "lng": -99.15716287989272}}}, "icon": "https://maps.gstatic.com/mapfiles/place_api/icons/v1/png_71/generic_business-71.png", "name": "Yak", "opening_hours": {"open_now": true}, "photos": [{"height": 1152, "html_attributions": ["<a href=\"https://maps.google.com/maps/contrib/115717043928992281955\">Yak Cuauhtemoc</a>"], "photo_reference": "CmRaAAAAi7B_fvtH1fPd-1_MPxtqZdg-xEWTRtqY79VuTDNAOuUL-sGQ5vDyprWsK15MvO41co6RI6P2ZPkiH_tuwNI0Sfs5IWvND_Nrr-rISdlc3W3DWhSd4TQ0jCuJXH3QCDuxEhAYUZnmGeeRbfirAVgsRBJEGhQrNGLXH22z-f0Wcu9OlNmz0svJsQ", "width": 2048}], "place_id": "ChIJH--R1SL_0YURMx8AjlSeXpI", "plus_code": {"compound_code": "CR6V+JM Mexico City", "global_code": "76F2CR6V+JM"}, "rating": 3.9, "reference": "ChIJH--R1SL_0YURMx8AjlSeXpI", "types": ["casino", "tourist_attraction", "point_of_interest", "establishment"], "user_ratings_total": 1193}, {"business_status": "OPERATIONAL", "formatted_address": "Hamburgo 151, Ju\u00e1rez, Cuauht\u00e9moc, 06600 Ciudad de M\u00e9xico, CDMX", "geometry": {"location": {"lat": 19.4256962, "lng": -99.1661429}, "viewport": {"northeast": {"lat": 19.42699107989272, "lng": -99.16476377010727}, "southwest": {"lat": 19.42429142010728, "lng": -99.1674634298927}}}, "icon": "https://maps.gstatic.com/mapfiles/place_api/icons/v1/png_71/generic_business-71.png", "name": "emoti\u00f3n cassino", "opening_hours": {}, "photos": [{"height": 3072, "html_attributions": ["<a href=\"https://maps.google.com/maps/contrib/103589851388931187481\">carmen alvarez</a>"], "photo_reference": "CmRaAAAAzrlCsotIcRhpQe6lGRkJfDTW0ngB800Hau5J2dldH6yhPDO8tZBOLbwOgl9teS_0A35NcSdP0hxB-U6uTVDy2_SwfRp6rsYAVuDni5HalunNFfPNMJdSjjABLCxgE4vtEhDKDZr-Ok3tF7S7hyZsQ3xLGhTdgAm5l5hbS5OHQx3aB6oz5LV6pw", "width": 4096}], "place_id": "ChIJVdh3ffX_0YURWgpPmNdH9yw", "plus_code": {"compound_code": "CRGM+7G Mexico City", "global_code": "76F2CRGM+7G"}, "rating": 4, "reference": "ChIJVdh3ffX_0YURWgpPmNdH9yw", "types": ["casino", "point_of_interest", "establishment"], "user_ratings_total": 575}]