[{"business_status": "OPERATIONAL", "geometry": {"location": {"lat": 19.35370499999999, "lng": -99.09936599999999}, "viewport": {"northeast": {"lat": 19.3550430302915, "lng": -99.0979880197085}, "southwest": {"lat": 19.3523450697085, "lng": -99.10068598029152}}}, "icon": "https://maps.gstatic.com/mapfiles/place_api/icons/v1/png_71/shopping-71.png", "name": "FlavorCup Iztapalapa", "opening_hours": {"open_now": true}, "photos": [{"height": 3456, "html_attributions": ["<a href=\"https://maps.google.com/maps/contrib/103192964286047952723\">Herbert Maldonado</a>"], "photo_reference": "CmRaAAAAsAVE_hH6q-ww6siPYvGfwOEjZdOgT37qemup7Lxy1NUsOJ0DpRfm8qfEenGLU8I9l7lzmo-RiCGHgL1BOkMKtNZJjyiZ8xKNqku8uKQ2W3infvOaahyl_rMi7LYn0c-UEhCIcd5TfR6V76Y_B2O7U-igGhT8bsjuar_igm-XJ0DgP-vBF2Oqaw", "width": 5184}], "place_id": "ChIJO_y7xOL90YURM8avLLGZJkM", "plus_code": {"compound_code": "9W32+F7 Mexico City, CDMX, Mexico", "global_code": "76F29W32+F7"}, "price_level": 2, "rating": 4.2, "reference": "ChIJO_y7xOL90YURM8avLLGZJkM", "scope": "GOOGLE", "types": ["cafe", "food", "point_of_interest", "store", "establishment"], "user_ratings_total": 120, "vicinity": "Puente Titla, Ampliaci\u00f3n Ricardo Flores Mag\u00f3n, Iztapalapa"}, {"business_status": "OPERATIONAL", "geometry": {"location": {"lat": 19.3507276, "lng": -99.1005954}, "viewport": {"northeast": {"lat": 19.3520742802915, "lng": -99.09924006970849}, "southwest": {"lat": 19.3493763197085, "lng": -99.10193803029149}}}, "icon": "https://maps.gstatic.com/mapfiles/place_api/icons/v1/png_71/cafe-71.png", "name": "Cafe Gourmet COA", "opening_hours": {"open_now": true}, "place_id": "ChIJ7520aP390YURrx-BH57a5jw", "plus_code": {"compound_code": "9V2X+7Q Mexico City, CDMX, Mexico", "global_code": "76F29V2X+7Q"}, "rating": 3.3, "reference": "ChIJ7520aP390YURrx-BH57a5jw", "scope": "GOOGLE", "types": ["cafe", "food", "point_of_interest", "store", "establishment"], "user_ratings_total": 3, "vicinity": "Puentetitla 17, Estrella del Sur, Ciudad de M\u00e9xico"}, {"business_status": "OPERATIONAL", "geometry": {"location": {"lat": 19.3518607, "lng": -99.10016619999999}, "viewport": {"northeast": {"lat": 19.3531960802915, "lng": -99.0987813197085}, "southwest": {"lat": 19.3504981197085, "lng": -99.1014792802915}}}, "icon": "https://maps.gstatic.com/mapfiles/place_api/icons/v1/png_71/restaurant-71.png", "name": "Coffee Time G.", "opening_hours": {"open_now": true}, "photos": [{"height": 3456, "html_attributions": ["<a href=\"https://maps.google.com/maps/contrib/107046830369207793859\">Coffee Time</a>"], "photo_reference": "CmRaAAAApClJ3jBlaCdzsL1tB_1MXQbDk2Nw1KfWb4PBcSwxTsmGoYmR8JSxdV0vg9xsKX8Y_zUM-rLZnSkfhB9qeE0L86nPDvNkFklzt6uEKXtWHVMWUjIlkWCWsQaG70zqwjahEhDOVAYSYSNVtr_jW6VboWKUGhRUIn5rKYp5nc6brY6QntUckK7n4Q", "width": 5184}], "place_id": "ChIJhTO59dX90YUR_SpzS2eU1JQ", "plus_code": {"compound_code": "9V2X+PW Mexico City, CDMX, Mexico", "global_code": "76F29V2X+PW"}, "price_level": 1, "rating": 4.5, "reference": "ChIJhTO59dX90YUR_SpzS2eU1JQ", "scope": "GOOGLE", "types": ["restaurant", "cafe", "food", "point_of_interest", "establishment"], "user_ratings_total": 30, "vicinity": "Puentetitla 103, Estrella del Sur, Ciudad de M\u00e9xico"}, {"business_status": "OPERATIONAL", "geometry": {"location": {"lat": 19.3542714, "lng": -99.0989953}, "viewport": {"northeast": {"lat": 19.3556437802915, "lng": -99.09763631970849}, "southwest": {"lat": 19.35294581970849, "lng": -99.1003342802915}}}, "icon": "https://maps.gstatic.com/mapfiles/place_api/icons/v1/png_71/cafe-71.png", "name": "Dulce Creaci\u00f3n", "opening_hours": {"open_now": true}, "photos": [{"height": 3096, "html_attributions": ["<a href=\"https://maps.google.com/maps/contrib/115269747581822912943\">Mariela Garc\u00eda</a>"], "photo_reference": "CmRaAAAAQ6nRGDL7tmDNu3VX7eCtKO7K8NSIJBoYPT1iRaC9fhgLBdlFg_gGPXHrEAAbM8083RTagLFPedeMCimk2_MdMeS2bAKNrXn3A5ibtG8dJgskFPdomyGx4GxgTSFmVY0kEhCCdvN1dwnYownlm5XuBo1rGhScONEt5MUCjeSWfEWyt75s_fkFBQ", "width": 4128}], "place_id": "ChIJcTvvVTz90YURsNLRt5fIMTo", "plus_code": {"compound_code": "9W32+PC Mexico City, CDMX, Mexico", "global_code": "76F29W32+PC"}, "reference": "ChIJcTvvVTz90YURsNLRt5fIMTo", "scope": "GOOGLE", "types": ["cafe", "food", "point_of_interest", "establishment"], "vicinity": "Tlaxcanes 3, Ricardo Flores Mag\u00f3n, Ciudad de M\u00e9xico"}]