[{"business_status": "OPERATIONAL", "formatted_address": "Puente Titla, Ampliaci\u00f3n Ricardo Flores Mag\u00f3n, 09828 Iztapalapa, CDMX", "geometry": {"location": {"lat": 19.353705, "lng": -99.09936599999999}, "viewport": {"northeast": {"lat": 19.35504387989272, "lng": -99.09798717010729}, "southwest": {"lat": 19.35234422010728, "lng": -99.10068682989272}}}, "icon": "https://maps.gstatic.com/mapfiles/place_api/icons/v1/png_71/shopping-71.png", "name": "FlavorCup Iztapalapa", "opening_hours": {"open_now": true}, "photos": [{"height": 3456, "html_attributions": ["<a href=\"https://maps.google.com/maps/contrib/103192964286047952723\">Herbert Maldonado</a>"], "photo_reference": "CmRaAAAAKhFONzqTmdeowzQ87AqtMSwCUfLLjAvC5G4kcxXyb4MpIVVmj7WeyRPLSBSU_ApWdJhhRfvqZ4OjxOnb36QAiLJZofxjmk-MQYwoupJbmrVeXpAwQOtVgid1Fed1mVHKEhCOMVQaztp43uC-AtCekQ2CGhS0hA9UL_x_Uxu0yA94OJOY1Yqguw", "width": 5184}], "place_id": "ChIJO_y7xOL90YURM8avLLGZJkM", "plus_code": {"compound_code": "9W32+F7 Mexico City", "global_code": "76F29W32+F7"}, "price_level": 2, "rating": 4.2, "reference": "ChIJO_y7xOL90YURM8avLLGZJkM", "types": ["cafe", "food", "point_of_interest", "store", "establishment"], "user_ratings_total": 120}, {"business_status": "OPERATIONAL", "formatted_address": "Puentetitla 17, Estrella del Sur, Iztapalapa, 09820 Ciudad de M\u00e9xico, CDMX", "geometry": {"location": {"lat": 19.3507276, "lng": -99.1005954}, "viewport": {"northeast": {"lat": 19.35207512989272, "lng": -99.09923922010726}, "southwest": {"lat": 19.34937547010728, "lng": -99.10193887989271}}}, "icon": "https://maps.gstatic.com/mapfiles/place_api/icons/v1/png_71/cafe-71.png", "name": "Cafe Gourmet COA", "opening_hours": {"open_now": true}, "place_id": "ChIJ7520aP390YURrx-BH57a5jw", "plus_code": {"compound_code": "9V2X+7Q Mexico City", "global_code": "76F29V2X+7Q"}, "rating": 3.3, "reference": "ChIJ7520aP390YURrx-BH57a5jw", "types": ["cafe", "food", "point_of_interest", "store", "establishment"], "user_ratings_total": 3}, {"business_status": "OPERATIONAL", "formatted_address": "Tlaxcanes 3, Ricardo Flores Mag\u00f3n, Iztapalapa, 09820 Ciudad de M\u00e9xico, CDMX", "geometry": {"location": {"lat": 19.3542714, "lng": -99.0989953}, "viewport": {"northeast": {"lat": 19.35564462989272, "lng": -99.09763547010728}, "southwest": {"lat": 19.35294497010728, "lng": -99.10033512989271}}}, "icon": "https://maps.gstatic.com/mapfiles/place_api/icons/v1/png_71/cafe-71.png", "name": "Dulce Creaci\u00f3n", "opening_hours": {"open_now": true}, "photos": [{"height": 3096, "html_attributions": ["<a href=\"https://maps.google.com/maps/contrib/115269747581822912943\">A Google User</a>"], "photo_reference": "CmRaAAAAhEcmla2zi4fngaI4otVJW8nQw-N349FFpA4vMe12OXDDiGih9I5ZvUzZIw1XYElFlod3qrbOA0ZWkPJWQnIl8TiFCn0I-DgqCb3e-sP2e78ntqEG5DsxbVUDAzRlazdEEhAG-_fffcv_aacBFOuRtfZQGhQE-8kfBkKSj5Fr4CNtbAvjSpwtMg", "width": 4128}], "place_id": "ChIJcTvvVTz90YURsNLRt5fIMTo", "plus_code": {"compound_code": "9W32+PC Mexico City", "global_code": "76F29W32+PC"}, "rating": 0, "reference": "ChIJcTvvVTz90YURsNLRt5fIMTo", "types": ["cafe", "food", "point_of_interest", "establishment"], "user_ratings_total": 0}, {"business_status": "OPERATIONAL", "formatted_address": "Av, Ermita Iztapalapa 190, Ricardo Flores Mag\u00f3n, Iztapalapa, 09200 CDMX", "geometry": {"location": {"lat": 19.3557008, "lng": -99.098323}, "viewport": {"northeast": {"lat": 19.35693757989272, "lng": -99.09697317010726}, "southwest": {"lat": 19.35423792010728, "lng": -99.09967282989271}}}, "icon": "https://maps.gstatic.com/mapfiles/place_api/icons/v1/png_71/restaurant-71.png", "name": "El Globo Iztapalapa", "opening_hours": {"open_now": true}, "photos": [{"height": 3464, "html_attributions": ["<a href=\"https://maps.google.com/maps/contrib/105993309410233698807\">Arturo morales torres</a>"], "photo_reference": "CmRaAAAAx2AZfxYu-LlczwNMAKgqNNYnkijfymoHTZu5irJiyiU3pNDLcz8D8EXs3zZ56BfNyNHjrRQeqxWXLWyuGSesWts786Aucfy-eLHB85anbNyErsjp-2Dh67MTb-bJGUVbEhB8qDwwUSZxmhu9nTaz7dxpGhQud1AbBcBAYlN5k6C5lbeYcShEjQ", "width": 4618}], "place_id": "ChIJfxo4Czf-0YUR-FiKlxOyF6o", "plus_code": {"compound_code": "9W42+7M Ricardo Flores Mag\u00f3n, Mexico City", "global_code": "76F29W42+7M"}, "price_level": 2, "rating": 4.1, "reference": "ChIJfxo4Czf-0YUR-FiKlxOyF6o", "types": ["bakery", "cafe", "food", "point_of_interest", "store", "establishment"], "user_ratings_total": 1505}, {"business_status": "OPERATIONAL", "formatted_address": "Ilhuicamina & Tizoc, Zona Urbana Ejidal los Reyes Culhuacan, Iztapalapa, 09820 Ciudad de M\u00e9xico, CDMX", "geometry": {"location": {"lat": 19.3460694, "lng": -99.10238199999999}, "viewport": {"northeast": {"lat": 19.34738672989272, "lng": -99.10104097010729}, "southwest": {"lat": 19.34468707010728, "lng": -99.10374062989274}}}, "icon": "https://maps.gstatic.com/mapfiles/place_api/icons/v1/png_71/cafe-71.png", "name": "Cafeter\u00eda Dubai", "opening_hours": {"open_now": true}, "photos": [{"height": 4160, "html_attributions": ["<a href=\"https://maps.google.com/maps/contrib/111253931170940823278\">A Google User</a>"], "photo_reference": "CmRaAAAAVvdnG_Yvr8k6SVVeNnF8gjhySikIc5_cZ_2E-qNJOFlYq6-Mgzt_AnQTIJLfYlAkjZvPuv-sTObVC33jURHwC0vJklctBC5tAUXqUCWBF_g80OH0aq2pDucnejDEpkdCEhA1CCeORsLvYqKRwFUWrTr_GhSYDTaFhHVptWumlXbF-t3tRbzDoA", "width": 3120}], "place_id": "ChIJt7rMtgD-0YURPGTnN60JCSY", "plus_code": {"compound_code": "8VWX+C2 Mexico City", "global_code": "76F28VWX+C2"}, "rating": 4.1, "reference": "ChIJt7rMtgD-0YURPGTnN60JCSY", "types": ["cafe", "food", "point_of_interest", "store", "establishment"], "user_ratings_total": 21}, {"business_status": "OPERATIONAL", "formatted_address": "Tlaxcanes 35, Ricardo Flores Mag\u00f3n, Iztapalapa, 09820 Ciudad de M\u00e9xico, CDMX", "geometry": {"location": {"lat": 19.3537749, "lng": -99.0977006}, "viewport": {"northeast": {"lat": 19.35515102989272, "lng": -99.09633957010728}, "southwest": {"lat": 19.35245137010728, "lng": -99.09903922989271}}}, "icon": "https://maps.gstatic.com/mapfiles/place_api/icons/v1/png_71/cafe-71.png", "name": "Cafeteria Del 37", "place_id": "ChIJ63mDO-P90YURb7hpf646RJ8", "plus_code": {"compound_code": "9W32+GW Mexico City", "global_code": "76F29W32+GW"}, "rating": 4.9, "reference": "ChIJ63mDO-P90YURb7hpf646RJ8", "types": ["cafe", "food", "point_of_interest", "store", "establishment"], "user_ratings_total": 15}, {"business_status": "OPERATIONAL", "formatted_address": "Av. Toltecas 100, Sta B\u00e1rbara, Iztapalapa, 09000 Ciudad de M\u00e9xico, CDMX", "geometry": {"location": {"lat": 19.3591182, "lng": -99.1044681}, "viewport": {"northeast": {"lat": 19.36047522989272, "lng": -99.10313932010727}, "southwest": {"lat": 19.35777557010728, "lng": -99.10583897989271}}}, "icon": "https://maps.gstatic.com/mapfiles/place_api/icons/v1/png_71/cafe-71.png", "name": "CAFETER\u00cdA LA BUENA VIBRA", "opening_hours": {"open_now": true}, "photos": [{"height": 4032, "html_attributions": ["<a href=\"https://maps.google.com/maps/contrib/109410871523193285950\">Ivon Ruiz</a>"], "photo_reference": "CmRaAAAABO2D6SF_1WeAN1z0njI023QEzXiSnm5hDhh4w7e-1LD76I1VROObeKuqX4Bij8XHuErxpWWPXkK2xN8uL0iw1ju4tpFO6UHJ2CV6gO0EIGkQHGka78tC79vM6HLAL6pEEhCkynz6dB1R5SkA7sHh9sVdGhR-Ge9iiRJRJ-hxjZqgvU_297Rfew", "width": 3024}], "place_id": "ChIJDbpnzgv-0YURz4lsz5FiCiw", "plus_code": {"compound_code": "9V5W+J6 Mexico City", "global_code": "76F29V5W+J6"}, "rating": 5, "reference": "ChIJDbpnzgv-0YURz4lsz5FiCiw", "types": ["cafe", "food", "point_of_interest", "store", "establishment"], "user_ratings_total": 1}, {"business_status": "OPERATIONAL", "formatted_address": "Ermita Iztapalapa 528, H\u00e9roes de Churubusco, Iztapalapa, 09090 Ciudad de M\u00e9xico, CDMX", "geometry": {"location": {"lat": 19.355575, "lng": -99.10014319999999}, "viewport": {"northeast": {"lat": 19.35691892989272, "lng": -99.09879402010728}, "southwest": {"lat": 19.35421927010728, "lng": -99.10149367989271}}}, "icon": "https://maps.gstatic.com/mapfiles/place_api/icons/v1/png_71/cafe-71.png", "name": "El Gorila Caf\u00e9", "place_id": "ChIJgafSYeL90YUR-G4eRuX2Xgs", "plus_code": {"compound_code": "9V4X+6W Mexico City", "global_code": "76F29V4X+6W"}, "rating": 5, "reference": "ChIJgafSYeL90YUR-G4eRuX2Xgs", "types": ["cafe", "food", "point_of_interest", "establishment"], "user_ratings_total": 3}, {"business_status": "OPERATIONAL", "formatted_address": "San Pedro, Santa Mar\u00eda del Monte, Iztapalapa, 09850 Ciudad de M\u00e9xico, CDMX", "geometry": {"location": {"lat": 19.3520721, "lng": -99.0891146}, "viewport": {"northeast": {"lat": 19.35342652989272, "lng": -99.08779202010727}, "southwest": {"lat": 19.35072687010728, "lng": -99.09049167989272}}}, "icon": "https://maps.gstatic.com/mapfiles/place_api/icons/v1/png_71/cafe-71.png", "name": "T\u00fa cafeter\u00eda", "opening_hours": {"open_now": true}, "photos": [{"height": 3024, "html_attributions": ["<a href=\"https://maps.google.com/maps/contrib/118391688336619369915\">Itandehui Linares Teodocio</a>"], "photo_reference": "CmRaAAAARYW2r9wjVsmw7aFVyfkoYclEYIRby5hBicuRDvdQAHufhNUMnD653bWi3-TMR3Hl4vEsn65IPwSUM9CAlzwwtwSEM3ZRSyxydeqgAAqOr8MwB0ZFPlv_se6R0OPfLLf7EhAKPky6f2uk4qeW3FQgjtWrGhTrlA9LoPtq4jp36jlMiDPQ1HJzpw", "width": 4032}], "place_id": "ChIJkYMheqn90YURedR_rbL6Sk8", "plus_code": {"compound_code": "9W26+R9 Mexico City", "global_code": "76F29W26+R9"}, "rating": 4.6, "reference": "ChIJkYMheqn90YURedR_rbL6Sk8", "types": ["cafe", "food", "point_of_interest", "store", "establishment"], "user_ratings_total": 14}, {"business_status": "OPERATIONAL", "formatted_address": "Ignacio Comonfort 80, San Lucas, Iztapalapa, 09000 Ciudad de M\u00e9xico, CDMX", "geometry": {"location": {"lat": 19.3591981, "lng": -99.0958347}, "viewport": {"northeast": {"lat": 19.36058277989273, "lng": -99.09447447010727}, "southwest": {"lat": 19.35788312010728, "lng": -99.09717412989272}}}, "icon": "https://maps.gstatic.com/mapfiles/place_api/icons/v1/png_71/cafe-71.png", "name": "Kafetsin", "opening_hours": {"open_now": true}, "place_id": "ChIJqQoyU-H90YUR_WZDbY_u4V8", "plus_code": {"compound_code": "9W53+MM Mexico City", "global_code": "76F29W53+MM"}, "rating": 4.4, "reference": "ChIJqQoyU-H90YUR_WZDbY_u4V8", "types": ["cafe", "food", "point_of_interest", "store", "establishment"], "user_ratings_total": 9}, {"business_status": "OPERATIONAL", "formatted_address": "Av. A\u00f1o de Ju\u00e1rez 32, Granjas San Antonio, Iztapalapa, 09070 Ciudad de M\u00e9xico, CDMX", "geometry": {"location": {"lat": 19.3575777, "lng": -99.10936079999999}, "viewport": {"northeast": {"lat": 19.35891062989272, "lng": -99.10794362010728}, "southwest": {"lat": 19.35621097010728, "lng": -99.11064327989273}}}, "icon": "https://maps.gstatic.com/mapfiles/place_api/icons/v1/png_71/cafe-71.png", "name": "Caff\u00e8to", "opening_hours": {"open_now": true}, "place_id": "ChIJ2_MdhA7-0YURihmZbQkKoqI", "plus_code": {"compound_code": "9V5R+27 Mexico City", "global_code": "76F29V5R+27"}, "rating": 4.5, "reference": "ChIJ2_MdhA7-0YURihmZbQkKoqI", "types": ["cafe", "food", "point_of_interest", "establishment"], "user_ratings_total": 2}, {"business_status": "OPERATIONAL", "formatted_address": "Campesinos 269, Progreso del Sur, Iztapalapa, 09810 Ciudad de M\u00e9xico, CDMX", "geometry": {"location": {"lat": 19.3529195, "lng": -99.11236439999999}, "viewport": {"northeast": {"lat": 19.35437117989272, "lng": -99.11100317010728}, "southwest": {"lat": 19.35167152010728, "lng": -99.11370282989273}}}, "icon": "https://maps.gstatic.com/mapfiles/place_api/icons/v1/png_71/generic_business-71.png", "name": "La Coincidencia Caf\u00e9", "opening_hours": {"open_now": true}, "photos": [{"height": 4160, "html_attributions": ["<a href=\"https://maps.google.com/maps/contrib/107683320247814384147\">monica duran</a>"], "photo_reference": "CmRaAAAA9Bxf0tRE5oTb0uO4Z4f9QjNxzgOiD2JH-yw3meodbtRLgc8yhwt36DzisGpI-bW_Oz1iN7uwSn6MqTym6wuDsvYlN1Lpj0H6HWI7TNdsh_moP_HuHqSsOfNUexWGybm6EhDwypkH5H-d424enHP_ajNFGhTOl_IUmsV9A_HN-V0kIWHIe2SW5A", "width": 2336}], "place_id": "ChIJUZRk4g_-0YURTxELHYPfkZ8", "plus_code": {"compound_code": "9V3Q+53 Mexico City", "global_code": "76F29V3Q+53"}, "rating": 4.3, "reference": "ChIJUZRk4g_-0YURTxELHYPfkZ8", "types": ["cafe", "food", "point_of_interest", "store", "establishment"], "user_ratings_total": 62}, {"business_status": "OPERATIONAL", "formatted_address": "Rayo 13, Valle de Luces 1ra Secc, Iztapalapa, 09800 Ciudad de M\u00e9xico, CDMX", "geometry": {"location": {"lat": 19.3409036, "lng": -99.09996029999999}, "viewport": {"northeast": {"lat": 19.34225762989272, "lng": -99.09862557010727}, "southwest": {"lat": 19.33955797010728, "lng": -99.10132522989272}}}, "icon": "https://maps.gstatic.com/mapfiles/place_api/icons/v1/png_71/cafe-71.png", "name": "Cafeteria Sarava", "opening_hours": {"open_now": true}, "photos": [{"height": 3120, "html_attributions": ["<a href=\"https://maps.google.com/maps/contrib/105716790268190186272\">Daz li</a>"], "photo_reference": "CmRaAAAAfRNA0L7cwFZ2idjJb9Y3b3DcO30UJLh2wQQmP6CgwF-QJzcHRVUHjQ1qYvwgZmiVMQhgNn-ATkMi-lA01ZGllWEWAskusBAYoHQ-xfbP_ZKWC9N2-RBCKFpZIl7nOvD2EhD8WItJ6jM4C2Ian9nlUg_LGhTuhGB8liWbq0t0VESzjDnGZr_ZIg", "width": 4160}], "place_id": "ChIJt5bKiv_90YURjqE3Lr06YDY", "plus_code": {"compound_code": "8WR2+92 Mexico City", "global_code": "76F28WR2+92"}, "rating": 4.7, "reference": "ChIJt5bKiv_90YURjqE3Lr06YDY", "types": ["cafe", "food", "point_of_interest", "store", "establishment"], "user_ratings_total": 12}, {"business_status": "OPERATIONAL", "formatted_address": "Av. Toltecas 160, Sta B\u00e1rbara, Iztapalapa, 09000 Ciudad de M\u00e9xico, CDMX", "geometry": {"location": {"lat": 19.3609698, "lng": -99.10389599999999}, "viewport": {"northeast": {"lat": 19.36230562989272, "lng": -99.10251287010728}, "southwest": {"lat": 19.35960597010727, "lng": -99.10521252989271}}}, "icon": "https://maps.gstatic.com/mapfiles/place_api/icons/v1/png_71/cafe-71.png", "name": "Caffe De'l Barrio", "opening_hours": {"open_now": true}, "photos": [{"height": 2448, "html_attributions": ["<a href=\"https://maps.google.com/maps/contrib/111459823024172637257\">Aries Uriel Gomez Lopez</a>"], "photo_reference": "CmRaAAAAydWQc_DCEvczqXL7dCnN6paGTDnpVpT42bX1s6e5CdVROqcBo5Jvg9TDwFjtUf6YHx9yNNvjotSvlOViLytnITwpBlf4QVxP4YbZpTHXmhGUFu0ttoLB53st6bSbxNijEhDYHfrNctQFZeEgfEFrSZfRGhSGyxzBGjx57y1-dzcJRzSSwhiyTQ", "width": 3264}], "place_id": "ChIJDaFqVAr-0YURfLkjgqhDy38", "plus_code": {"compound_code": "9V6W+9C Mexico City", "global_code": "76F29V6W+9C"}, "rating": 4.1, "reference": "ChIJDaFqVAr-0YURfLkjgqhDy38", "types": ["cafe", "food", "point_of_interest", "store", "establishment"], "user_ratings_total": 14}, {"business_status": "OPERATIONAL", "formatted_address": "Cereales 332, Valle del Sur, Iztapalapa, 09819 Ciudad de M\u00e9xico, CDMX", "geometry": {"location": {"lat": 19.3481954, "lng": -99.11404809999999}, "viewport": {"northeast": {"lat": 19.34954947989272, "lng": -99.11274282010729}, "southwest": {"lat": 19.34684982010728, "lng": -99.11544247989272}}}, "icon": "https://maps.gstatic.com/mapfiles/place_api/icons/v1/png_71/cafe-71.png", "name": "Cafeter\u00eda Naranja Mec\u00e1nica", "opening_hours": {"open_now": true}, "place_id": "ChIJGQ9sFxv-0YURMyDkOH-MIM8", "plus_code": {"compound_code": "8VXP+79 Valle del Sur, Mexico City", "global_code": "76F28VXP+79"}, "rating": 3.3, "reference": "ChIJGQ9sFxv-0YURMyDkOH-MIM8", "types": ["cafe", "food", "point_of_interest", "store", "establishment"], "user_ratings_total": 7}, {"business_status": "OPERATIONAL", "formatted_address": "09000 de, Gral. Anaya 69, Sta B\u00e1rbara, Iztapalapa, Ciudad de M\u00e9xico, CDMX", "geometry": {"location": {"lat": 19.3605881, "lng": -99.100134}, "viewport": {"northeast": {"lat": 19.36192842989272, "lng": -99.09876102010728}, "southwest": {"lat": 19.35922877010728, "lng": -99.10146067989272}}}, "icon": "https://maps.gstatic.com/mapfiles/place_api/icons/v1/png_71/cafe-71.png", "name": "Caff\u00e9 Eiffel", "opening_hours": {"open_now": true}, "photos": [{"height": 5312, "html_attributions": ["<a href=\"https://maps.google.com/maps/contrib/115346762122027916049\">Esperanza Villalobos</a>"], "photo_reference": "CmRaAAAAL0nx9QUyfQT2dlB9RAv_rPv4hqJLkAmEUkSwhb037Hlx285ghalBOJt4FR7zBavmPw2b-yaF1fuabsZOIj3OYUFJG_Qo3IEd819FEIS9ohqjZj8qYmkl6EEF0E9cDDI0EhBrQfU2p1V0SaAl9NMNVMJ8GhR3q71XWMcguy2I1RUuiie7jfYZ7Q", "width": 2988}], "place_id": "ChIJQ_6tx-H90YURDu0BCunAQjQ", "plus_code": {"compound_code": "9V6X+6W Mexico City", "global_code": "76F29V6X+6W"}, "rating": 0, "reference": "ChIJQ_6tx-H90YURDu0BCunAQjQ", "types": ["cafe", "food", "point_of_interest", "store", "establishment"], "user_ratings_total": 0}, {"business_status": "OPERATIONAL", "formatted_address": "Entre Calle Ignacio Comonfort y Calle Aldama, Porfirio D\u00edaz 126, San Lucas, Iztapalapa, 09000 Ciudad de M\u00e9xico, CDMX", "geometry": {"location": {"lat": 19.3592292, "lng": -99.0944657}, "viewport": {"northeast": {"lat": 19.36052212989272, "lng": -99.09306367010728}, "southwest": {"lat": 19.35782247010728, "lng": -99.09576332989272}}}, "icon": "https://maps.gstatic.com/mapfiles/place_api/icons/v1/png_71/cafe-71.png", "name": "\u2022Don Santy\u2022", "opening_hours": {"open_now": true}, "photos": [{"height": 4208, "html_attributions": ["<a href=\"https://maps.google.com/maps/contrib/107684010133913965511\">Laura Aime Ramirez Aguilar</a>"], "photo_reference": "CmRaAAAA-zv6_0lZHoOx-IQYOo-qx5VRYCegdCNBk3YLYaPZwv14OtkAbV19in_-kSzRZOJ2nvFXoR7VmPdJOgRCMJZ5w2EJ3i-W3pVWMkreV51IfeviOArwGxEbzR6UF-gRaSyuEhA27-z8oYnIQlv6j7pl9WuIGhTNg2ZQupAdiaBSKYk_xBwjiLr6Ow", "width": 2368}], "place_id": "ChIJoZvEmOb90YURWFLECvE3LYo", "plus_code": {"compound_code": "9W54+M6 Mexico City", "global_code": "76F29W54+M6"}, "price_level": 2, "rating": 4.3, "reference": "ChIJoZvEmOb90YURWFLECvE3LYo", "types": ["cafe", "restaurant", "food", "point_of_interest", "establishment"], "user_ratings_total": 24}, {"business_status": "OPERATIONAL", "formatted_address": "Tula, Iztapalapa, 09800 Mexico City", "geometry": {"location": {"lat": 19.3368214, "lng": -99.11272439999999}, "viewport": {"northeast": {"lat": 19.33817457989272, "lng": -99.11143397010729}, "southwest": {"lat": 19.33547492010728, "lng": -99.11413362989272}}}, "icon": "https://maps.gstatic.com/mapfiles/place_api/icons/v1/png_71/restaurant-71.png", "name": "Cafeter\u00eda Nacional", "opening_hours": {"open_now": true}, "photos": [{"height": 1080, "html_attributions": ["<a href=\"https://maps.google.com/maps/contrib/112503362698041439568\">Andr\u00e9s Olvera</a>"], "photo_reference": "CmRaAAAAHmoedz1hgqwM113m6nd3Pk9CZab0mRByzCue4ps8ji3L-LjIv865nrzwyj37ytepku47aNlXCY5t7RUF9CLG4mBcBw24J3BSPI0tKAVJ6Dg82ybScP85lJJ2Dc4rsBL6EhCmv7fTCAX216QZcsk-jY77GhRbbgMZSos3XCa9B1K5D4oYw6Kftw", "width": 1440}], "place_id": "ChIJ8Uf3MeMBzoURSvCoN3TGlU4", "plus_code": {"compound_code": "8VPP+PW Mexico City", "global_code": "76F28VPP+PW"}, "price_level": 2, "rating": 4.3, "reference": "ChIJ8Uf3MeMBzoURSvCoN3TGlU4", "types": ["restaurant", "cafe", "food", "point_of_interest", "store", "establishment"], "user_ratings_total": 1056}, {"business_status": "OPERATIONAL", "formatted_address": "Lerdo de Tejada, San Pablo, Iztapalapa, 09000 Iztapalapa, CDMX", "geometry": {"location": {"lat": 19.3610357, "lng": -99.09200489999999}, "viewport": {"northeast": {"lat": 19.36235717989272, "lng": -99.09066392010729}, "southwest": {"lat": 19.35965752010728, "lng": -99.09336357989274}}}, "icon": "https://maps.gstatic.com/mapfiles/place_api/icons/v1/png_71/cafe-71.png", "name": "Ki'bok Caf\u00e9", "opening_hours": {"open_now": true}, "photos": [{"height": 550, "html_attributions": ["<a href=\"https://maps.google.com/maps/contrib/103597890689616470309\">Antonio Flores Pe\u00f1a</a>"], "photo_reference": "CmRaAAAAEcJOF8NNBIvYBoBGlVaNr7XI4qfRku2awB8MnPBznPhZxC1UEvx7XAV9V2t5bqvKUczhgxt_l6oBPQAApUPn495JzeByOdD5AMgzTeViqd2MThehrhqx8Ext3Uw-2o1YEhCpuy140KmptcqrWJwKdWxeGhRs3-jbEeT4fhp4r3Yozp9wAX0q9A", "width": 683}], "place_id": "ChIJwc0ORub90YURo3CrWJK1UF8", "plus_code": {"compound_code": "9W65+C5 Iztapalapa de Cuitl\u00e1huac, Mexico City", "global_code": "76F29W65+C5"}, "rating": 4.1, "reference": "ChIJwc0ORub90YURo3CrWJK1UF8", "types": ["cafe", "book_store", "electronics_store", "food", "point_of_interest", "store", "establishment"], "user_ratings_total": 258}, {"business_status": "OPERATIONAL", "formatted_address": "Av. Rojo G\u00f3mez & Artemio Alpizar Ruz, San Miguel, Iztapalapa, 09360 Ciudad de M\u00e9xico, CDMX", "geometry": {"location": {"lat": 19.3602779, "lng": -99.08440159999999}, "viewport": {"northeast": {"lat": 19.36164827989272, "lng": -99.08309577010728}, "southwest": {"lat": 19.35894862010728, "lng": -99.08579542989273}}}, "icon": "https://maps.gstatic.com/mapfiles/place_api/icons/v1/png_71/cafe-71.png", "name": "Cafeter\u00eda nochebuena", "opening_hours": {"open_now": true}, "place_id": "ChIJDa8W4-v90YUR8xDVRJiEFO8", "plus_code": {"compound_code": "9W68+46 Mexico City", "global_code": "76F29W68+46"}, "rating": 3, "reference": "ChIJDa8W4-v90YUR8xDVRJiEFO8", "types": ["convenience_store", "cafe", "food", "point_of_interest", "store", "establishment"], "user_ratings_total": 2}]