[{"business_status": "OPERATIONAL", "formatted_address": "virgen del perpetuo socorro #197, Virgencitas, 57300 Nezahualc\u00f3yotl, M\u00e9x.", "geometry": {"location": {"lat": 19.4232502, "lng": -99.0295529}, "viewport": {"northeast": {"lat": 19.42461337989272, "lng": -99.02825047010728}, "southwest": {"lat": 19.42191372010728, "lng": -99.03095012989272}}}, "icon": "https://maps.gstatic.com/mapfiles/place_api/icons/v1/png_71/shopping-71.png", "name": "Great Camping", "opening_hours": {"open_now": true}, "photos": [{"height": 673, "html_attributions": ["<a href=\"https://maps.google.com/maps/contrib/106698127606201869883\">A Google User</a>"], "photo_reference": "CmRaAAAA4wYpvOYtocVl94qo66-LjYXrZa73Y96o2EV4NscgOILtSAyEj3luZzOxfm-uoG17q3yRDDRnFknzJYyj8mrP0raFQvUThys3c-RDa-LSyw5J1bYT7BJ7__l-vMfYub1sEhDJgq3TGFb4V0z3Mty2TK9vGhRvM0dpftWWOPEkJ8Ixk9QcFqtffw", "width": 1200}], "place_id": "ChIJYcZUf7z80YUR8oKbF2CDUf8", "plus_code": {"compound_code": "CXFC+85 Ciudad Nezahualc\u00f3yotl, State of Mexico", "global_code": "76F2CXFC+85"}, "rating": 3.9, "reference": "ChIJYcZUf7z80YUR8oKbF2CDUf8", "types": ["campground", "lodging", "park", "point_of_interest", "store", "establishment"], "user_ratings_total": 32}, {"business_status": "OPERATIONAL", "formatted_address": "Av. R\u00edo Fr\u00edo 375 esq, Ote. 247-C, Agr\u00edcola Oriental, 08500 Ciudad de M\u00e9xico", "geometry": {"location": {"lat": 19.3857864, "lng": -99.0704581}, "viewport": {"northeast": {"lat": 19.38713687989272, "lng": -99.06911147010729}, "southwest": {"lat": 19.38443722010728, "lng": -99.07181112989272}}}, "icon": "https://maps.gstatic.com/mapfiles/place_api/icons/v1/png_71/camping-71.png", "name": "Coleman Mexico", "opening_hours": {"open_now": false}, "photos": [{"height": 500, "html_attributions": ["<a href=\"https://maps.google.com/maps/contrib/117641126448647778930\">A Google User</a>"], "photo_reference": "CmRaAAAAdwwJwGM5VzbdwFgcWrG8SH5w6apFuqV9NRgPqPKLpfo8ytpuc7qYgsv62rVzv5pRFaV1dpmjmBpMnpZwRVgP9-uBQnetwV4hUNUslT7bR6rkbg-S3qq67fNQ9YMGJnwcEhDDTTC9tP6dItAOxWC98L_2GhT0rsJLoLYyjNz2J246VIvaNuKmLg", "width": 1024}], "place_id": "ChIJbzpAcS790YUR68czq959wQg", "plus_code": {"compound_code": "9WPH+8R Mexico City", "global_code": "76F29WPH+8R"}, "rating": 3.7, "reference": "ChIJbzpAcS790YUR68czq959wQg", "types": ["campground", "lodging", "park", "point_of_interest", "establishment"], "user_ratings_total": 3}, {"business_status": "OPERATIONAL", "formatted_address": "Heriberto Enr\u00edquez #210, M\u00e9xico Segunda Secci\u00f3n, 57620 Nezahualc\u00f3yotl, M\u00e9x.", "geometry": {"location": {"lat": 19.4077456, "lng": -99.0438501}, "viewport": {"northeast": {"lat": 19.40906162989272, "lng": -99.04242357010729}, "southwest": {"lat": 19.40636197010728, "lng": -99.04512322989274}}}, "icon": "https://maps.gstatic.com/mapfiles/place_api/icons/v1/png_71/camping-71.png", "name": "Campingadventur", "opening_hours": {"open_now": false}, "place_id": "ChIJnxtMacv90YURFS-NwwwCWF4", "plus_code": {"compound_code": "CX54+3F Ciudad Nezahualc\u00f3yotl, State of Mexico", "global_code": "76F2CX54+3F"}, "rating": 1, "reference": "ChIJnxtMacv90YURFS-NwwwCWF4", "types": ["campground", "car_repair", "lodging", "park", "point_of_interest", "store", "establishment"], "user_ratings_total": 1}, {"business_status": "OPERATIONAL", "formatted_address": "Letran Valle, Benito Juarez, 03650 Mexico City", "geometry": {"location": {"lat": 19.3750344, "lng": -99.15555649999999}, "viewport": {"northeast": {"lat": 19.37638232989272, "lng": -99.15419577010728}, "southwest": {"lat": 19.37368267010728, "lng": -99.15689542989273}}}, "icon": "https://maps.gstatic.com/mapfiles/place_api/icons/v1/png_71/camping-71.png", "name": "Canastas para PIC NIC Let's be FREE", "opening_hours": {"open_now": false}, "photos": [{"height": 1002, "html_attributions": ["<a href=\"https://maps.google.com/maps/contrib/116590936933460769105\">A Google User</a>"], "photo_reference": "CmRaAAAAg_nOlrjFhnsBzHn3tR1vTlxGuvvPmwpYvlrfS7ftcQ28F0NkF6RBr9sDMTEz13CN_wLqU5jA7gzh7dADjtYD9j-PP967cPV-CPFJJTKcpvT_RtvYo2JRJA8DdfafhI6lEhB7RcVlmEX1xkvSdSP4MMJIGhRxGGCCTd70dBNB3sPDG5SGYp99hA", "width": 802}], "place_id": "ChIJ3-h5bdX90YURpzh266iIXPk", "plus_code": {"compound_code": "9RGV+2Q Mexico City", "global_code": "76F29RGV+2Q"}, "rating": 0, "reference": "ChIJ3-h5bdX90YURpzh266iIXPk", "types": ["campground", "lodging", "park", "point_of_interest", "establishment"], "user_ratings_total": 0}, {"business_status": "OPERATIONAL", "formatted_address": "Los Echave, Mixcoac, Benito Ju\u00e1rez, 03910 Ciudad de M\u00e9xico, CDMX", "geometry": {"location": {"lat": 19.375257, "lng": -99.188676}, "viewport": {"northeast": {"lat": 19.37661292989272, "lng": -99.1873453701073}, "southwest": {"lat": 19.37391327010728, "lng": -99.19004502989273}}}, "icon": "https://maps.gstatic.com/mapfiles/place_api/icons/v1/png_71/camping-71.png", "name": "Aquatec SteriPEN", "place_id": "ChIJQbn2cof_0YURNd-FMUniCrk", "plus_code": {"compound_code": "9RG6+4G Mexico City", "global_code": "76F29RG6+4G"}, "rating": 0, "reference": "ChIJQbn2cof_0YURNd-FMUniCrk", "types": ["campground", "lodging", "park", "point_of_interest", "establishment"], "user_ratings_total": 0}, {"business_status": "OPERATIONAL", "formatted_address": "Porvenir, Las Arboledas, Tl\u00e1huac, 13457 Ciudad de M\u00e9xico, CDMX", "geometry": {"location": {"lat": 19.3089538, "lng": -99.05127829999999}, "viewport": {"northeast": {"lat": 19.31032272989272, "lng": -99.04995497010728}, "southwest": {"lat": 19.30762307010728, "lng": -99.05265462989273}}}, "icon": "https://maps.gstatic.com/mapfiles/place_api/icons/v1/png_71/camping-71.png", "name": "Peleteria", "place_id": "ChIJCwqN4v8DzoUR0kNz7ZkoXXc", "plus_code": {"compound_code": "8W5X+HF Mexico City", "global_code": "76F28W5X+HF"}, "rating": 0, "reference": "ChIJCwqN4v8DzoUR0kNz7ZkoXXc", "types": ["campground", "lodging", "park", "point_of_interest", "establishment"], "user_ratings_total": 0}, {"business_status": "OPERATIONAL", "formatted_address": "06700, Sinaloa 23, Cuauht\u00e9moc, 06700 CDMX", "geometry": {"location": {"lat": 19.4214861, "lng": -99.16446429999999}, "viewport": {"northeast": {"lat": 19.42278747989272, "lng": -99.16310287010727}, "southwest": {"lat": 19.42008782010728, "lng": -99.1658025298927}}}, "icon": "https://maps.gstatic.com/mapfiles/place_api/icons/v1/png_71/camping-71.png", "name": "campingmx", "place_id": "ChIJFfYhPNf_0YURwkIBCasdKzQ", "plus_code": {"compound_code": "CRCP+H6 Mexico City", "global_code": "76F2CRCP+H6"}, "rating": 0, "reference": "ChIJFfYhPNf_0YURwkIBCasdKzQ", "types": ["campground", "lodging", "park", "point_of_interest", "establishment"], "user_ratings_total": 0}, {"business_status": "OPERATIONAL", "formatted_address": "Mat\u00edas Romero 413, Col del Valle Centro, Benito Ju\u00e1rez, 03100 Ciudad de M\u00e9xico, CDMX", "geometry": {"location": {"lat": 19.3799834, "lng": -99.1653655}, "viewport": {"northeast": {"lat": 19.38142957989272, "lng": -99.16399097010728}, "southwest": {"lat": 19.37872992010728, "lng": -99.16669062989273}}}, "icon": "https://maps.gstatic.com/mapfiles/place_api/icons/v1/png_71/camping-71.png", "name": "Blender Recreaci\u00f3n", "opening_hours": {"open_now": false}, "place_id": "ChIJLdI2maH_0YURKs0ql7CrINg", "plus_code": {"compound_code": "9RHM+XV Mexico City", "global_code": "76F29RHM+XV"}, "rating": 3, "reference": "ChIJLdI2maH_0YURKs0ql7CrINg", "types": ["campground", "travel_agency", "lodging", "park", "point_of_interest", "establishment"], "user_ratings_total": 2}, {"business_status": "OPERATIONAL", "formatted_address": "Dakota 69, N\u00e1poles, Benito Ju\u00e1rez, 03810 Ciudad de M\u00e9xico, CDMX", "geometry": {"location": {"lat": 19.3970467, "lng": -99.17360579999999}, "viewport": {"northeast": {"lat": 19.39837107989272, "lng": -99.17221117010727}, "southwest": {"lat": 19.39567142010728, "lng": -99.17491082989272}}}, "icon": "https://maps.gstatic.com/mapfiles/place_api/icons/v1/png_71/camping-71.png", "name": "Operadora Time", "opening_hours": {"open_now": false}, "place_id": "ChIJh1FICW7_0YURkMYGoojb8TY", "plus_code": {"compound_code": "9RWG+RH Mexico City", "global_code": "76F29RWG+RH"}, "rating": 0, "reference": "ChIJh1FICW7_0YURkMYGoojb8TY", "types": ["campground", "lodging", "park", "point_of_interest", "establishment"], "user_ratings_total": 0}, {"business_status": "OPERATIONAL", "formatted_address": "Av. Morelos 20, Colonia Centro, Centro, Cuauht\u00e9moc, 09750 Ciudad de M\u00e9xico, CDMX", "geometry": {"location": {"lat": 19.4319583, "lng": -99.14896639999999}, "viewport": {"northeast": {"lat": 19.43350397989272, "lng": -99.14758327010729}, "southwest": {"lat": 19.43080432010728, "lng": -99.15028292989273}}}, "icon": "https://maps.gstatic.com/mapfiles/place_api/icons/v1/png_71/camping-71.png", "name": "Hieleras y Termos Coleman", "place_id": "ChIJVVWRLyv_0YURWLv8a48uuQ8", "plus_code": {"compound_code": "CVJ2+QC Mexico City", "global_code": "76F2CVJ2+QC"}, "rating": 1, "reference": "ChIJVVWRLyv_0YURWLv8a48uuQ8", "types": ["campground", "lodging", "park", "point_of_interest", "establishment"], "user_ratings_total": 1}, {"business_status": "OPERATIONAL", "formatted_address": "C. San Jos\u00e9 3, San Isidro Ixhuatepec, 54197 Tlalnepantla de Baz, M\u00e9x.", "geometry": {"location": {"lat": 19.5293277, "lng": -99.09959669999999}, "viewport": {"northeast": {"lat": 19.53077547989272, "lng": -99.09837357010727}, "southwest": {"lat": 19.52807582010728, "lng": -99.10107322989272}}}, "icon": "https://maps.gstatic.com/mapfiles/place_api/icons/v1/png_71/camping-71.png", "name": "NAJ-KIN", "opening_hours": {"open_now": false}, "photos": [{"height": 2340, "html_attributions": ["<a href=\"https://maps.google.com/maps/contrib/113581098713113016464\">A Google User</a>"], "photo_reference": "CmRaAAAAi4cNh29jAGZsiYvYlfN8d0olCF3Vwmw1JEr9lKwWagKKEYuh14VRaT03oMw8EGvUiVwcW80cc_e8ucGrAahklaBEgeX-N32iLAXbgqNFcPoABzvJ5LcQCjL7hs3mN6g0EhAMACMpt0qjT2dVOMpP--aFGhTHYDJ2vfnDFMA3Z6aD1Jpv8QKDow", "width": 4160}], "place_id": "ChIJZ01zdgD60YUR1CqmGcRapPw", "plus_code": {"compound_code": "GWH2+P5 Tlalnepantla de Baz, State of Mexico", "global_code": "76F2GWH2+P5"}, "rating": 3.6, "reference": "ChIJZ01zdgD60YUR1CqmGcRapPw", "types": ["campground", "lodging", "park", "point_of_interest", "establishment"], "user_ratings_total": 21}, {"business_status": "OPERATIONAL", "formatted_address": "Av, Valle de Las Monjas S/N, San Mateo Tlaltenango, Cuajimalpa de Morelos, 05600 Ciudad de M\u00e9xico, CDMX", "geometry": {"location": {"lat": 19.3314934, "lng": -99.30163399999999}, "viewport": {"northeast": {"lat": 19.33280137989272, "lng": -99.30023807010727}, "southwest": {"lat": 19.33010172010728, "lng": -99.30293772989272}}}, "icon": "https://maps.gstatic.com/mapfiles/place_api/icons/v1/png_71/camping-71.png", "name": "Rancho Los Laureles", "photos": [{"height": 3120, "html_attributions": ["<a href=\"https://maps.google.com/maps/contrib/112302520040606381321\">Sand Anzutl</a>"], "photo_reference": "CmRaAAAAARqRbGTQ73uvu7l5gRRnygQGaIIGvA7-H5fP41_e-GGtjs02Ye6Pj_-b_qcmpEF2PkvthovLPd8ZFHIJvIvlAamppegyiVU9DosBbrc3wQ9plHfsxuwJCTMsXUZMLLheEhCUm-64eVcydySbAe2viN-NGhTu32Vea7DmQ6IUKaGR23PfI9yV_g", "width": 4160}], "place_id": "ChIJAyli7lsH0oURJ1xFMx-FJmw", "plus_code": {"compound_code": "8MJX+H8 Mexico City", "global_code": "76F28MJX+H8"}, "rating": 4.5, "reference": "ChIJAyli7lsH0oURJ1xFMx-FJmw", "types": ["campground", "lodging", "park", "point_of_interest", "establishment"], "user_ratings_total": 76}, {"business_status": "OPERATIONAL", "formatted_address": "Melchor Ocampo #193 Modulo, Ver\u00f3nica Anz\u00fares, Miguel Hidalgo, 11300 CDMX", "geometry": {"location": {"lat": 19.4353234, "lng": -99.1711742}, "viewport": {"northeast": {"lat": 19.43658232989272, "lng": -99.17004177010729}, "southwest": {"lat": 19.43388267010728, "lng": -99.17274142989272}}}, "icon": "https://maps.gstatic.com/mapfiles/place_api/icons/v1/png_71/camping-71.png", "name": "Toolcamping Galerias Estrellas", "place_id": "ChIJrR6qfUz50YUREYJA1z2MKo4", "plus_code": {"compound_code": "CRPH+4G Ver\u00f3nica Anz\u00fares, Mexico City", "global_code": "76F2CRPH+4G"}, "rating": 0, "reference": "ChIJrR6qfUz50YUREYJA1z2MKo4", "types": ["campground", "lodging", "park", "point_of_interest", "establishment"], "user_ratings_total": 0}, {"business_status": "OPERATIONAL", "formatted_address": "Eje 1 Nte. 259 Modulo 9, Primer Nivel, Buenavista, Cuauht\u00e9moc, 06350 CDMX", "geometry": {"location": {"lat": 19.4493321, "lng": -99.15178379999999}, "viewport": {"northeast": {"lat": 19.45073272989272, "lng": -99.15076962010728}, "southwest": {"lat": 19.44803307010728, "lng": -99.15346927989272}}}, "icon": "https://maps.gstatic.com/mapfiles/place_api/icons/v1/png_71/camping-71.png", "name": "Toolcamping Forum Buenavista", "place_id": "ChIJDYeAkmb50YUREYeNRTBPvj0", "plus_code": {"compound_code": "CRXX+P7 Colonia Buenavista, Mexico City", "global_code": "76F2CRXX+P7"}, "rating": 0, "reference": "ChIJDYeAkmb50YUREYeNRTBPvj0", "types": ["campground", "lodging", "park", "point_of_interest", "establishment"], "user_ratings_total": 0}, {"business_status": "OPERATIONAL", "formatted_address": "AVENIDA DE LOS GALLOS NUM. 8 CARRETERA PANORAMICA, Carr. Picacho-Ajusco KM. 36.5, Ampliacion San Miguel Ajusco, Tlalpan, 14710 Ciudad de M\u00e9xico, CDMX", "geometry": {"location": {"lat": 19.2104961, "lng": -99.2270752}, "viewport": {"northeast": {"lat": 19.21184127989272, "lng": -99.22573962010728}, "southwest": {"lat": 19.20914162010728, "lng": -99.22843927989273}}}, "icon": "https://maps.gstatic.com/mapfiles/place_api/icons/v1/png_71/camping-71.png", "name": "ECOCAMP AJUSCO", "opening_hours": {"open_now": true}, "photos": [{"height": 1656, "html_attributions": ["<a href=\"https://maps.google.com/maps/contrib/105363224097897999480\">ECOCAMP AJUSCO</a>"], "photo_reference": "CmRaAAAAAEBfUqOwlZep6HqCdtm4DUyYa6Ujjxw0G6KkQsD4_ISBgEYMsXurZIn4PlkuSJAMM-LxDcwwXwNZoITCh1RWezHt48NcmCxDPWFi2eiHtRJzjV9sJwL9XUIxtkucPEQhEhBPLqL67i0QogHuCjkG-ExFGhQfsT4nq5ndJmM1Dv1_hNjmPS0bcQ", "width": 2500}], "place_id": "ChIJ-5w7SrH9zYUROXbaqf3TNn0", "plus_code": {"compound_code": "6Q6F+55 Mexico City", "global_code": "76F26Q6F+55"}, "rating": 4.7, "reference": "ChIJ-5w7SrH9zYUROXbaqf3TNn0", "types": ["campground", "lodging", "park", "point_of_interest", "establishment"], "user_ratings_total": 123}, {"business_status": "OPERATIONAL", "formatted_address": "Av. Hidalgo 31, Luis Echeverria, 54753 Cuautitl\u00e1n Izcalli, M\u00e9x.", "geometry": {"location": {"lat": 19.6177765, "lng": -99.19627679999999}, "viewport": {"northeast": {"lat": 19.61915367989272, "lng": -99.19492017010728}, "southwest": {"lat": 19.61645402010728, "lng": -99.19761982989272}}}, "icon": "https://maps.gstatic.com/mapfiles/place_api/icons/v1/png_71/camping-71.png", "name": "Farmacia Ocampo", "opening_hours": {"open_now": true}, "photos": [{"height": 1600, "html_attributions": ["<a href=\"https://maps.google.com/maps/contrib/106511581845579308743\">A Google User</a>"], "photo_reference": "CmRaAAAAhQ4qfiAV_ZE7BrIUDM_me2tOICnMdVkROZ6Vud4EXslPtQOWSxhKprWxhg5xmxH4baqIQdulLzhRc9gks3UGVM2mYUTXOwzGGqY53ydYR0MnFeQobWMSASVZVy2z4BHTEhCruNuYfnrq0Kd5eMa2LBsRGhQIYWc3jrBZzYwrMD6qDG-GVuftLg", "width": 1200}], "place_id": "ChIJ8ebHDpkd0oUR30eqNbUXmF8", "plus_code": {"compound_code": "JR93+4F Cuautitl\u00e1n Izcalli, State of Mexico", "global_code": "76F2JR93+4F"}, "rating": 0, "reference": "ChIJ8ebHDpkd0oUR30eqNbUXmF8", "types": ["campground", "lodging", "park", "point_of_interest", "establishment"], "user_ratings_total": 0}, {"business_status": "OPERATIONAL", "formatted_address": "Hocaba, Pedregal de San Nicol\u00e1s 4ta Secc, Tlalpan, 14100 Ciudad de M\u00e9xico, CDMX", "geometry": {"location": {"lat": 19.281135, "lng": -99.2350417}, "viewport": {"northeast": {"lat": 19.28245352989272, "lng": -99.23368812010727}, "southwest": {"lat": 19.27975387010728, "lng": -99.23638777989272}}}, "icon": "https://maps.gstatic.com/mapfiles/place_api/icons/v1/png_71/camping-71.png", "name": "Logo", "place_id": "ChIJ_ZarI1X_zYURN3EJLeuomWQ", "plus_code": {"compound_code": "7QJ7+FX Mexico City", "global_code": "76F27QJ7+FX"}, "rating": 0, "reference": "ChIJ_ZarI1X_zYURN3EJLeuomWQ", "types": ["campground", "lodging", "park", "point_of_interest", "establishment"], "user_ratings_total": 0}, {"business_status": "OPERATIONAL", "formatted_address": "San fernando, Huixquilucan, de degoyado, 52765 M\u00e9x.", "geometry": {"location": {"lat": 19.3865855, "lng": -99.2819297}, "viewport": {"northeast": {"lat": 19.38790387989272, "lng": -99.28057822010727}, "southwest": {"lat": 19.38520422010728, "lng": -99.28327787989272}}}, "icon": "https://maps.gstatic.com/mapfiles/place_api/icons/v1/png_71/camping-71.png", "name": "La ventanita de Pacoa", "photos": [{"height": 2560, "html_attributions": ["<a href=\"https://maps.google.com/maps/contrib/103082755658910813113\">A Google User</a>"], "photo_reference": "CmRaAAAAq9l0NuKZpUYkWNsgP7Q4nAGpbaDkLFEEm-kyM9DkPdepyJsGnov_teO9PLmQhF6M8tqKOiSIc7aMzoO3iBrO4zRa6aWqoSo0W1gN396cRwuhHoKIIEj4Q7ntwkOHzqdiEhAnthAJY6ioTOjLB4lg4b3EGhSXz7jh6BXjB5K7h_VExw_CpjxQ1A", "width": 1920}], "place_id": "ChIJd7op15UH0oURRRXfPT_LD4I", "plus_code": {"compound_code": "9PP9+J6 Naucalpan de Ju\u00e1rez, State of Mexico", "global_code": "76F29PP9+J6"}, "rating": 0, "reference": "ChIJd7op15UH0oURRRXfPT_LD4I", "types": ["campground", "lodging", "park", "point_of_interest", "establishment"], "user_ratings_total": 0}, {"business_status": "OPERATIONAL", "formatted_address": "Emilio Carranza, La Carbonera, La Magdalena, La Magdalena Contreras, 10640 Ciudad de M\u00e9xico, CDMX", "geometry": {"location": {"lat": 19.2983027, "lng": -99.2522726}, "viewport": {"northeast": {"lat": 19.29929252989272, "lng": -99.25067337010728}, "southwest": {"lat": 19.29659287010728, "lng": -99.25337302989273}}}, "icon": "https://maps.gstatic.com/mapfiles/place_api/icons/v1/png_71/camping-71.png", "name": "Estacionamiento Dinamos", "opening_hours": {"open_now": false}, "photos": [{"height": 4000, "html_attributions": ["<a href=\"https://maps.google.com/maps/contrib/101442250837583337846\">A Google User</a>"], "photo_reference": "CmRaAAAAaLVCO6dwibj2yJ0_bg6kFRyRA72WknXRK-I5CDF5nLX-ATaN80i2R9ju_6crUhsJ_LI262ySFyWUGdpVm-0TvEZooj1N8l6UWvGUH__R8aPDx6926JyfgXFVVYUahl-MEhAqxvQChfsdwdzjM183iOmOGhTOay6OjKGryX7J3rPioBleMXD3Ig", "width": 3000}], "place_id": "ChIJC6BwZxf_zYURfBH47QMyv48", "plus_code": {"compound_code": "7PXX+83 Mexico City", "global_code": "76F27PXX+83"}, "rating": 3.4, "reference": "ChIJC6BwZxf_zYURfBH47QMyv48", "types": ["campground", "lodging", "park", "point_of_interest", "establishment"], "user_ratings_total": 25}, {"business_status": "OPERATIONAL", "formatted_address": "Camino a las granjas #31 Malacaxco San Pedro Atocp\u00e1n, Milpa Alta, Ciudad de M\u00e9xico, CDMX", "geometry": {"location": {"lat": 19.1962064, "lng": -99.0650899}, "viewport": {"northeast": {"lat": 19.19766627989272, "lng": -99.06364377010729}, "southwest": {"lat": 19.19496662010727, "lng": -99.06634342989273}}}, "icon": "https://maps.gstatic.com/mapfiles/place_api/icons/v1/png_71/camping-71.png", "name": "Rancho Kalyman", "opening_hours": {"open_now": true}, "photos": [{"height": 3024, "html_attributions": ["<a href=\"https://maps.google.com/maps/contrib/112739468999213155490\">odin parra</a>"], "photo_reference": "CmRaAAAA55rQmBuLbL8adet9ZN8osdKxFpb-2p4NYIkBKXKCD-ljjuu9PMlq8xCxhhnW38tuzTKpYwGHIh3p-ovMAgE6MpcTPh9hHPjCCo8YqQ6E0eVtsjDkuQTp2t_jsuIOdgJhEhB5sPNYxp3OYLUby6fV2D4mGhQOJ9QgwpzdRQK1ehz9zEpPBtpgzA", "width": 4032}], "place_id": "ChIJuQcM-CgFzoUR2gFDfC9Nj54", "plus_code": {"compound_code": "5WWM+FX Mexico City", "global_code": "76F25WWM+FX"}, "rating": 5, "reference": "ChIJuQcM-CgFzoUR2gFDfC9Nj54", "types": ["campground", "lodging", "park", "point_of_interest", "establishment"], "user_ratings_total": 1}]