[{"business_status": "OPERATIONAL", "formatted_address": "Av, Ermita Iztapalapa # 875, Iztapalapa, 09820 Ciudad de M\u00e9xico, CDMX", "geometry": {"location": {"lat": 19.3547869, "lng": -99.1039428}, "viewport": {"northeast": {"lat": 19.35668127989272, "lng": -99.1025353201073}, "southwest": {"lat": 19.35398162010727, "lng": -99.10523497989273}}}, "icon": "https://maps.gstatic.com/mapfiles/place_api/icons/v1/png_71/shopping-71.png", "name": "walmart", "place_id": "ChIJVVVVVgj-0YUReDGuAtynCxk", "rating": 0, "reference": "ChIJVVVVVgj-0YUReDGuAtynCxk", "types": ["department_store", "point_of_interest", "store", "establishment"], "user_ratings_total": 0}, {"business_status": "OPERATIONAL", "formatted_address": "Ermita Iztapalapa 915, Santa Isabel Industrial, Iztapalapa, 09810 Ciudad de M\u00e9xico, CDMX", "geometry": {"location": {"lat": 19.3556644, "lng": -99.10267180000001}, "viewport": {"northeast": {"lat": 19.35707217989273, "lng": -99.10131842010728}, "southwest": {"lat": 19.35437252010728, "lng": -99.10401807989273}}}, "icon": "https://maps.gstatic.com/mapfiles/place_api/icons/v1/png_71/shopping-71.png", "name": "Coppel Iztapalapa", "opening_hours": {"open_now": true}, "photos": [{"height": 3096, "html_attributions": ["<a href=\"https://maps.google.com/maps/contrib/111110660026337759575\">A Google User</a>"], "photo_reference": "CmRaAAAAjjGXv_-heZI5Gy3SlnymqDOB8qoS3CWihain7yg21hBpc9UisexQ22d9WFSLuPQpdEOKd7H7Fi7mxhgOUEQCzaDwNaaYsu9KVanz170OEGbyrwhUCKeC93AE4QgkXYCaEhBGAUPS0ofjJ9v-_HYCFixkGhTBjS14m2UlqGoun-KhAFlftl2OOQ", "width": 4128}], "place_id": "ChIJa_-LtQn-0YURuRZL0bJY5Sw", "plus_code": {"compound_code": "9V4W+7W Mexico City", "global_code": "76F29V4W+7W"}, "rating": 4.1, "reference": "ChIJa_-LtQn-0YURuRZL0bJY5Sw", "types": ["department_store", "electronics_store", "furniture_store", "home_goods_store", "point_of_interest", "clothing_store", "store", "establishment"], "user_ratings_total": 209}, {"business_status": "OPERATIONAL", "formatted_address": "Av. Tlahuac #1, Los Cipreses, Iztapalapa, 09810 Ciudad de M\u00e9xico, CDMX", "geometry": {"location": {"lat": 19.3559559, "lng": -99.1059882}, "viewport": {"northeast": {"lat": 19.35728797989272, "lng": -99.10451567010729}, "southwest": {"lat": 19.35458832010728, "lng": -99.10721532989274}}}, "icon": "https://maps.gstatic.com/mapfiles/place_api/icons/v1/png_71/shopping-71.png", "name": "Coppel Canada Naples", "opening_hours": {"open_now": false}, "photos": [{"height": 1920, "html_attributions": ["<a href=\"https://maps.google.com/maps/contrib/116737529897905352579\">asuncion azamar lopez</a>"], "photo_reference": "CmRaAAAAIXuOUnsIDZ4bwl3p3IsoLvxVEzHFzcCPHzPaJpZKx_sPqCdAEq1-dxNcUP7kSlUCE_csihLPiVzMJKFKEnny91PDExQ4wLqt-eXXncKJKSKlPPdpbtobw8s19OUn0JCHEhDCaOyOx5BlmJpDFfuMIMMbGhTPCsY1Y0YNyCM82fv6EUmod7aevg", "width": 1080}], "place_id": "ChIJuVvgQRkCzoURgARh9jkIcE4", "plus_code": {"compound_code": "9V4V+9J Mexico City", "global_code": "76F29V4V+9J"}, "rating": 3.8, "reference": "ChIJuVvgQRkCzoURgARh9jkIcE4", "types": ["department_store", "point_of_interest", "store", "establishment"], "user_ratings_total": 153}, {"business_status": "OPERATIONAL", "formatted_address": "TULYEHUALCO #1 COL. MINERVA. ENTRE SUR 129 Y, Ermita Iztapalapa, Iztapalapa, 09810 Ciudad de M\u00e9xico", "geometry": {"location": {"lat": 19.3560464, "lng": -99.10705229999999}, "viewport": {"northeast": {"lat": 19.35745852989272, "lng": -99.10569492010727}, "southwest": {"lat": 19.35475887010728, "lng": -99.10839457989272}}}, "icon": "https://maps.gstatic.com/mapfiles/place_api/icons/v1/png_71/shopping-71.png", "name": "Coppel OCAMPO 353", "place_id": "ChIJ3_vvg9L_0YURUpatBZb93X0", "plus_code": {"compound_code": "9V4V+C5 Mexico City", "global_code": "76F29V4V+C5"}, "rating": 4, "reference": "ChIJ3_vvg9L_0YURUpatBZb93X0", "types": ["department_store", "point_of_interest", "store", "establishment"], "user_ratings_total": 1}, {"business_status": "OPERATIONAL", "formatted_address": "Eje 3 Ote N\u00b0 543, Culhuacan, Iztapalapa, 09800 Ciudad de M\u00e9xico, CDMX", "geometry": {"location": {"lat": 19.3380492, "lng": -99.1132135}, "viewport": {"northeast": {"lat": 19.33940307989272, "lng": -99.11178572010728}, "southwest": {"lat": 19.33670342010728, "lng": -99.11448537989271}}}, "icon": "https://maps.gstatic.com/mapfiles/place_api/icons/v1/png_71/shopping-71.png", "name": "walmart", "place_id": "ChIJq6oWxeIBzoURlnHgzGSyqq8", "plus_code": {"compound_code": "8VQP+6P Mexico City", "global_code": "76F28VQP+6P"}, "rating": 0, "reference": "ChIJq6oWxeIBzoURlnHgzGSyqq8", "types": ["department_store", "point_of_interest", "store", "establishment"], "user_ratings_total": 0}, {"business_status": "OPERATIONAL", "formatted_address": "Calle Prol. de Mina N\u00b049, El Manto, Iztapalapa, 09830 Ciudad de M\u00e9xico, CDMX", "geometry": {"location": {"lat": 19.35228, "lng": -99.0837236}, "viewport": {"northeast": {"lat": 19.35361687989272, "lng": -99.08234247010728}, "southwest": {"lat": 19.35091722010728, "lng": -99.08504212989271}}}, "icon": "https://maps.gstatic.com/mapfiles/place_api/icons/v1/png_71/shopping-71.png", "name": "walmart", "place_id": "ChIJrRCqFvL90YUR_v0Q6hlOkr0", "plus_code": {"compound_code": "9W28+WG Mexico City", "global_code": "76F29W28+WG"}, "rating": 0, "reference": "ChIJrRCqFvL90YUR_v0Q6hlOkr0", "types": ["department_store", "point_of_interest", "store", "establishment"], "user_ratings_total": 0}, {"business_status": "OPERATIONAL", "formatted_address": "Ayuntamiento #33, San Pablo, Iztapalapa, 09000 Ciudad de M\u00e9xico, CDMX", "geometry": {"location": {"lat": 19.3596954, "lng": -99.0915832}, "viewport": {"northeast": {"lat": 19.36105227989272, "lng": -99.09025922010728}, "southwest": {"lat": 19.35835262010728, "lng": -99.09295887989273}}}, "icon": "https://maps.gstatic.com/mapfiles/place_api/icons/v1/png_71/shopping-71.png", "name": "Coppel Ayuntamiento", "opening_hours": {"open_now": true}, "photos": [{"height": 4096, "html_attributions": ["<a href=\"https://maps.google.com/maps/contrib/112552788606074193551\">Esteban Unefon</a>"], "photo_reference": "CmRaAAAAY6SKHomxIcUlugW0ES639-a4g15gjaMuKcmnZjpuV8UXGEY-Q8StJNJALvAV-RPq3QMJmli8o9N7ohxetL8rHuRLNfHQp9eh1eXcB-dKJe8xBTTuBGmyi_GqUTpyJh39EhCah76uMzncXrc3roA4u3h5GhQhDxyo_NMrlI4Sk0WHM3zI23RAFA", "width": 3072}], "place_id": "ChIJN5q7Eub90YUR81fm1HOJEBs", "plus_code": {"compound_code": "9W55+V9 Mexico City", "global_code": "76F29W55+V9"}, "rating": 3.9, "reference": "ChIJN5q7Eub90YUR81fm1HOJEBs", "types": ["department_store", "point_of_interest", "store", "establishment"], "user_ratings_total": 521}, {"business_status": "OPERATIONAL", "formatted_address": "Ermita Iztapalapa #595, Granjas Esmeralda, Iztapalapa, 09810 Ciudad de M\u00e9xico, CDMX", "geometry": {"location": {"lat": 19.3567722, "lng": -99.11599059999999}, "viewport": {"northeast": {"lat": 19.35821542989272, "lng": -99.11462452010727}, "southwest": {"lat": 19.35551577010728, "lng": -99.11732417989272}}}, "icon": "https://maps.gstatic.com/mapfiles/place_api/icons/v1/png_71/shopping-71.png", "name": "Coppel Granjas Esmeralda", "opening_hours": {"open_now": false}, "photos": [{"height": 1920, "html_attributions": ["<a href=\"https://maps.google.com/maps/contrib/101551924803149435212\">Arturo Mejia</a>"], "photo_reference": "CmRaAAAA1tQsPSPtxZJSExsO-ppUYZLdeChORHncF1W4TiVibtUSeT2meibq_gUr5ul7FeQnjTw-nBufUiyITA9co26P1lZe_-wSDMElyEZVnSr0b_JEfOkghz3qEDNiT9mo6DsmEhBp0UYfm1W8gqIe4ucau-KZGhQHe5bhX8ZwFpTgrvJI2Pp7tC_n3w", "width": 1088}], "place_id": "ChIJ8ScpcBH-0YURrJ-ZFqDFzkA", "plus_code": {"compound_code": "9V4M+PJ Mexico City", "global_code": "76F29V4M+PJ"}, "rating": 4.1, "reference": "ChIJ8ScpcBH-0YURrJ-ZFqDFzkA", "types": ["department_store", "point_of_interest", "store", "establishment"], "user_ratings_total": 3038}, {"business_status": "OPERATIONAL", "formatted_address": "Calz Taxque\u00f1a No. 2391, San Antonio Culhuacan, Iztapalapa, 09800 Ciudad de M\u00e9xico, CDMX", "geometry": {"location": {"lat": 19.338361, "lng": -99.112653}, "viewport": {"northeast": {"lat": 19.33981382989272, "lng": -99.11128517010728}, "southwest": {"lat": 19.33711417010728, "lng": -99.11398482989273}}}, "icon": "https://maps.gstatic.com/mapfiles/place_api/icons/v1/png_71/shopping-71.png", "name": "FAMSA TAXQUE\u00d1A - TIENDA", "opening_hours": {}, "place_id": "ChIJvxpLHrYBzoUR0s10r0ZXrjI", "plus_code": {"compound_code": "8VQP+8W Mexico City", "global_code": "76F28VQP+8W"}, "rating": 3.4, "reference": "ChIJvxpLHrYBzoUR0s10r0ZXrjI", "types": ["department_store", "point_of_interest", "store", "establishment"], "user_ratings_total": 31}, {"business_status": "OPERATIONAL", "formatted_address": "Suburbia Ermita Iztapalapa - Avenida, Ermita Iztapalapa #2039, Los \u00c1ngeles, Iztapalapa, 09710 CDMX", "geometry": {"location": {"lat": 19.3470029, "lng": -99.0676045}, "viewport": {"northeast": {"lat": 19.34860187989273, "lng": -99.06612672010729}, "southwest": {"lat": 19.34590222010728, "lng": -99.06882637989274}}}, "icon": "https://maps.gstatic.com/mapfiles/place_api/icons/v1/png_71/shopping-71.png", "name": "Suburbia", "opening_hours": {"open_now": false}, "photos": [{"height": 4160, "html_attributions": ["<a href=\"https://maps.google.com/maps/contrib/109769378900351102191\">Neslie Calderon Floees</a>"], "photo_reference": "CmRaAAAA7jy_ZBfZaQLsqHSjd--eGr5CpcD2ULDtY3sTSR1mnVth7M0UW1JNLoy1OL5j_leyeho5z_aXQG1EQbVzNMtVLzLN_rN_o1a1368iiOQL68XgCLt1z_cHz30AjolegGlKEhB8ykyiJOynpA80RbtseaPUGhQgqWttQatih_Sdo0Ja55AUjdzxsg", "width": 2340}], "place_id": "ChIJP3m88p0CzoURLYQeo8Nh7gI", "plus_code": {"compound_code": "8WWJ+RX Los \u00c1ngeles, Mexico City", "global_code": "76F28WWJ+RX"}, "rating": 4, "reference": "ChIJP3m88p0CzoURLYQeo8Nh7gI", "types": ["department_store", "shoe_store", "electronics_store", "home_goods_store", "point_of_interest", "clothing_store", "store", "establishment"], "user_ratings_total": 7256}, {"business_status": "OPERATIONAL", "formatted_address": "Canal R\u00edo Churubusco 1635, \u00c1rea Federal Central de Abastos, Iztapalapa, 09040 Ciudad de M\u00e9xico, CDMX", "geometry": {"location": {"lat": 19.3784277, "lng": -99.0952562}, "viewport": {"northeast": {"lat": 19.37993047989272, "lng": -99.09423707010727}, "southwest": {"lat": 19.37723082010728, "lng": -99.0969367298927}}}, "icon": "https://maps.gstatic.com/mapfiles/place_api/icons/v1/png_71/shopping-71.png", "name": "Suburbia Central Plaza", "opening_hours": {"open_now": false}, "photos": [{"height": 4032, "html_attributions": ["<a href=\"https://maps.google.com/maps/contrib/106906937509728647181\">Imagen y Salud de 10</a>"], "photo_reference": "CmRaAAAAr6csQKBSkQ42moUue55se9eLSSpl8kZ3hOp0d9HCCep1wgCGmHEsghI37djGaSQ3_U8Rfxy90RuQXyF_zi0CYkIkqhGeNbAUf536KX_ZzL7_-t-GRJDRXZsoH5FZhRP5EhBEvQrl2ub9Lpxz7zEFxfWMGhS2pqrYbg0LiCXV-Dxfmp_bE-yAeA", "width": 3024}], "place_id": "ChIJTfzWV9f90YUReM7jycJfldc", "plus_code": {"compound_code": "9WH3+9V Mexico City", "global_code": "76F29WH3+9V"}, "rating": 4.1, "reference": "ChIJTfzWV9f90YUReM7jycJfldc", "types": ["department_store", "shoe_store", "electronics_store", "home_goods_store", "point_of_interest", "clothing_store", "store", "establishment"], "user_ratings_total": 1672}, {"business_status": "OPERATIONAL", "formatted_address": "Ermita Iztapalapa #1709, Octava De San Miguel, Iztapalapa, 09837 Ciudad de M\u00e9xico, CDMX", "geometry": {"location": {"lat": 19.3523025, "lng": -99.07821650000001}, "viewport": {"northeast": {"lat": 19.35370112989272, "lng": -99.07684232010729}, "southwest": {"lat": 19.35100147010728, "lng": -99.07954197989272}}}, "icon": "https://maps.gstatic.com/mapfiles/place_api/icons/v1/png_71/shopping-71.png", "name": "Coppel La Pur\u00edsima", "opening_hours": {"open_now": false}, "photos": [{"height": 4160, "html_attributions": ["<a href=\"https://maps.google.com/maps/contrib/116135903409244067075\">Carlos Ruiz</a>"], "photo_reference": "CmRaAAAAhcO7NgcD8Jz4UJiWpzNL4JTO3FVo7oWpZf0C_UEzBSI_bMiW4MPPUuK2y0PzwSclK93H7MtBpp7W_W5Q9dzdXom5uWz359C6WKD5Q6LdGL0QFTJvaUgiuLYBwdv6cmQcEhB8SqHCJhlK9xtk6KLY5uVbGhT0vfsjXO1VjI8wYb0YGaA2L3Pj6w", "width": 3120}], "place_id": "ChIJdVHRRo390YURtAXqhR49fYA", "plus_code": {"compound_code": "9W2C+WP Mexico City", "global_code": "76F29W2C+WP"}, "rating": 3.9, "reference": "ChIJdVHRRo390YURtAXqhR49fYA", "types": ["department_store", "point_of_interest", "store", "establishment"], "user_ratings_total": 2253}, {"business_status": "OPERATIONAL", "formatted_address": "Calzada Ermita Iztapalapa No. 1777 San Miguel 8a, Ampliaci\u00f3n, Iztapalapa, 09360 Ciudad de M\u00e9xico", "geometry": {"location": {"lat": 19.352962, "lng": -99.07844899999999}, "viewport": {"northeast": {"lat": 19.35420322989273, "lng": -99.07715727010728}, "southwest": {"lat": 19.35150357010728, "lng": -99.07985692989273}}}, "icon": "https://maps.gstatic.com/mapfiles/place_api/icons/v1/png_71/shopping-71.png", "name": "FAMSA ERMITA UAM - ROPA Y CALZADO", "place_id": "ChIJX6WlVnL90YURH9GgRKd7Vas", "plus_code": {"compound_code": "9W3C+5J Mexico City", "global_code": "76F29W3C+5J"}, "rating": 0, "reference": "ChIJX6WlVnL90YURH9GgRKd7Vas", "types": ["department_store", "point_of_interest", "store", "establishment"], "user_ratings_total": 0}, {"business_status": "OPERATIONAL", "formatted_address": "Cuauht\u00e9moc 462, Zona Urbana Ejidal Santa Mar\u00eda Aztahuacan, Iztapalapa, 03020 Benito Juarez, CDMX", "geometry": {"location": {"lat": 19.3546203, "lng": -99.0393541}, "viewport": {"northeast": {"lat": 19.35596777989272, "lng": -99.03798987010728}, "southwest": {"lat": 19.35326812010728, "lng": -99.04068952989272}}}, "icon": "https://maps.gstatic.com/mapfiles/place_api/icons/v1/png_71/shopping-71.png", "name": "Operadora De Nuevos Formatos, S.A. De C.V. (Liverpool Mac Delta)", "place_id": "ChIJR8Ih7Kf_0YURY00XJlqucP0", "rating": 0, "reference": "ChIJR8Ih7Kf_0YURY00XJlqucP0", "types": ["department_store", "point_of_interest", "store", "establishment"], "user_ratings_total": 0}, {"business_status": "OPERATIONAL", "formatted_address": "Calzada Ermita Iztapalapa No. 1696-B Barrio, San Miguel, Iztapalapa, 09360 Ciudad de M\u00e9xico", "geometry": {"location": {"lat": 19.3513116, "lng": -99.0764197}, "viewport": {"northeast": {"lat": 19.35279192989272, "lng": -99.07500247010728}, "southwest": {"lat": 19.35009227010728, "lng": -99.07770212989273}}}, "icon": "https://maps.gstatic.com/mapfiles/place_api/icons/v1/png_71/shopping-71.png", "name": "FAMSA SAN MIGUEL ERMITA - TIENDA", "place_id": "ChIJb_nhWe790YURwrA_p5EhMvs", "plus_code": {"compound_code": "9W2F+GC Mexico City", "global_code": "76F29W2F+GC"}, "rating": 0, "reference": "ChIJb_nhWe790YURwrA_p5EhMvs", "types": ["department_store", "point_of_interest", "store", "establishment"], "user_ratings_total": 0}, {"business_status": "OPERATIONAL", "formatted_address": "Av Canal de Tezontle 1512, \u00c1rea Federal Central de Abastos, Iztapalapa, 09020 Ciudad de M\u00e9xico, CDMX", "geometry": {"location": {"lat": 19.3847978, "lng": -99.08176449999999}, "viewport": {"northeast": {"lat": 19.38615822989272, "lng": -99.08077927010729}, "southwest": {"lat": 19.38345857010727, "lng": -99.08347892989272}}}, "icon": "https://maps.gstatic.com/mapfiles/place_api/icons/v1/png_71/shopping-71.png", "name": "Sears", "opening_hours": {"open_now": false}, "photos": [{"height": 1920, "html_attributions": ["<a href=\"https://maps.google.com/maps/contrib/108430130242616741357\">Luis Gerardo Bravo Paredes</a>"], "photo_reference": "CmRaAAAAkajOmTJZQ-SwzGXRrw-8bN9VtU4hVI6BuyzNW1HhZ3Zjtp1ZRCjAZqSqPyMEtlI_4zxzRNSHgsZnTaElWLQz_BxnRIEp1a0P51z5HX8zcjDvO7YAb5Na9se1ffD5RURPEhD8K15okqB2TkjenSjeByjpGhT9SC9LmyEp6GXQlEX25-KOokjKpQ", "width": 1080}], "place_id": "ChIJOdcg_cn90YURwnGMOCK_MVU", "plus_code": {"compound_code": "9WM9+W7 Mexico City", "global_code": "76F29WM9+W7"}, "price_level": 2, "rating": 4.2, "reference": "ChIJOdcg_cn90YURwnGMOCK_MVU", "types": ["department_store", "point_of_interest", "store", "establishment"], "user_ratings_total": 5735}, {"business_status": "OPERATIONAL", "formatted_address": "Suburbia Plaza Oriente - Avenida Canal de Tezontle #1520 Colonia, Dr Alfonso Ortiz Tirado, Iztapalapa, 09020 CDMX", "geometry": {"location": {"lat": 19.3841859, "lng": -99.07751309999999}, "viewport": {"northeast": {"lat": 19.38532507989272, "lng": -99.07615002010728}, "southwest": {"lat": 19.38262542010728, "lng": -99.07884967989273}}}, "icon": "https://maps.gstatic.com/mapfiles/place_api/icons/v1/png_71/shopping-71.png", "name": "Suburbia Plaza Oriente", "opening_hours": {"open_now": false}, "photos": [{"height": 1280, "html_attributions": ["<a href=\"https://maps.google.com/maps/contrib/110944485849298359693\">Alfredo RoRi</a>"], "photo_reference": "CmRaAAAAMd61ZN3u8zHZBl4QhNqh1Nrs4_M5TF1lBtTU0WS27ZYWyKupAS1QJwOZlz6H2Lt_g7E4bPTKnuFEGQjq9Wv3ww7xWAC2RkJo3Y3Ne3BUES637xnfQAzTrqU2FgsL10j8EhBCm0Qsho79fT2pfm7ShCUEGhQEIukR7TQ34RFrs-xDdhrlAo8zVA", "width": 720}], "place_id": "ChIJlwkZStL90YURSf28napZqy4", "plus_code": {"compound_code": "9WMC+MX Dr Alfonso Ortiz Tirado, Mexico City", "global_code": "76F29WMC+MX"}, "rating": 4.2, "reference": "ChIJlwkZStL90YURSf28napZqy4", "types": ["department_store", "shoe_store", "electronics_store", "home_goods_store", "point_of_interest", "clothing_store", "store", "establishment"], "user_ratings_total": 7526}, {"business_status": "OPERATIONAL", "formatted_address": "Canal R\u00edo Churubusco 1365, \u00c1rea Federal Central de Abastos, Iztapalapa, 09410 Ciudad de M\u00e9xico, CDMX", "geometry": {"location": {"lat": 19.3779614, "lng": -99.0954727}, "viewport": {"northeast": {"lat": 19.37933937989272, "lng": -99.09424747010728}, "southwest": {"lat": 19.37663972010728, "lng": -99.09694712989271}}}, "icon": "https://maps.gstatic.com/mapfiles/place_api/icons/v1/png_71/shopping-71.png", "name": "Coppel Central Plaza", "opening_hours": {"open_now": false}, "photos": [{"height": 2592, "html_attributions": ["<a href=\"https://maps.google.com/maps/contrib/108167622367460418330\">Daniel S\u00e1nchez</a>"], "photo_reference": "CmRaAAAAOeXMbEVFF0pa4PHDgyqWQFflXIwncjYFhYZ7hPf132Gu0-uN7oENo0tQdPv35panQr5-kZlI6Chc3AVViUYyxu8N9C8grp9MFUh3i4sgoyo3ktW5KPW3cPU9xDHuY96qEhDiwk1l37c89VzTlizRpRAXGhT_5jb0tq66jJW6s2i47-Rud6nZWg", "width": 4608}], "place_id": "ChIJ-8wDstD90YURTnfTmtngYsQ", "plus_code": {"compound_code": "9WH3+5R Mexico City", "global_code": "76F29WH3+5R"}, "rating": 4.1, "reference": "ChIJ-8wDstD90YURTnfTmtngYsQ", "types": ["department_store", "point_of_interest", "store", "establishment"], "user_ratings_total": 1485}, {"business_status": "OPERATIONAL", "formatted_address": "Av Canal de Tezontle 1512, Dr Alfonso Ortiz Tirado, Iztapalapa, 09020 Ciudad de M\u00e9xico, CDMX", "geometry": {"location": {"lat": 19.3824763, "lng": -99.0830213}, "viewport": {"northeast": {"lat": 19.38411832989272, "lng": -99.08193852010727}, "southwest": {"lat": 19.38141867010728, "lng": -99.08463817989272}}}, "icon": "https://maps.gstatic.com/mapfiles/place_api/icons/v1/png_71/shopping-71.png", "name": "Liverpool", "opening_hours": {"open_now": false}, "photos": [{"height": 1920, "html_attributions": ["<a href=\"https://maps.google.com/maps/contrib/117793226387900094474\">Zaira Janneth</a>"], "photo_reference": "CmRaAAAAJLp8e30vkaQwpqfidtE5Hi6HcuySbkcdVASRm1zjgHNshEtr-460DMx9HI1Y-BBvjSvmO8FitBHujACcVjFBN0zXVfAKsJG5p5X6QxIFLbeRC0DzmAOmRor0XvRMFkX0EhA232vMD6HkFbL1ECXqoOEWGhQK48jyCaZVvD1JqnGllWImTyd7uQ", "width": 1080}], "place_id": "ChIJYYYlvdP90YURIF0EsCjTn-A", "plus_code": {"compound_code": "9WJ8+XQ Dr Alfonso Ortiz Tirado, Mexico City", "global_code": "76F29WJ8+XQ"}, "rating": 4.4, "reference": "ChIJYYYlvdP90YURIF0EsCjTn-A", "types": ["department_store", "electronics_store", "furniture_store", "home_goods_store", "liquor_store", "food", "point_of_interest", "clothing_store", "store", "establishment"], "user_ratings_total": 17500}, {"business_status": "OPERATIONAL", "formatted_address": "Av. Canal R\u00edo Churubusco No. 1635 Local A44 Central de Abastos, \u00c1rea Federal Central de Abastos, Iztapalapa, 09400 Ciudad de M\u00e9xico, CDMX", "geometry": {"location": {"lat": 19.3757953, "lng": -99.09544679999999}, "viewport": {"northeast": {"lat": 19.37715857989272, "lng": -99.09431967010727}, "southwest": {"lat": 19.37445892010728, "lng": -99.09701932989272}}}, "icon": "https://maps.gstatic.com/mapfiles/place_api/icons/v1/png_71/shopping-71.png", "name": "Sanborns Plaza Central", "opening_hours": {"open_now": true}, "photos": [{"height": 2340, "html_attributions": ["<a href=\"https://maps.google.com/maps/contrib/111725751255509195839\">Omar Del Valle L\u00e1zcarez</a>"], "photo_reference": "CmRaAAAAfvclU1Onoe0K7nM3T6A2E1dNFpz64B2dM0Ms0f8h-xyedmhgfIr1CiaB3VvSiU5eqbp3vgG2r88KI2oztcbf3FBbtTk_NoqPX8paWF4XrP9TjxaW5RxkGgps8dckCndcEhBNkMM6B6fnm_SPNo4ypVkiGhQyShf7eMkMgyoUaQOU33HHzq8ngw", "width": 4160}], "place_id": "ChIJ5RAJONf90YUR2_uc4rRGzHA", "plus_code": {"compound_code": "9WG3+8R Mexico City", "global_code": "76F29WG3+8R"}, "rating": 4.1, "reference": "ChIJ5RAJONf90YUR2_uc4rRGzHA", "types": ["department_store", "bakery", "bar", "restaurant", "food", "point_of_interest", "store", "establishment"], "user_ratings_total": 2334}]