[{"business_status": "OPERATIONAL", "geometry": {"location": {"lat": 19.3545706, "lng": -99.0988297}, "viewport": {"northeast": {"lat": 19.3559372802915, "lng": -99.0975274697085}, "southwest": {"lat": 19.3532393197085, "lng": -99.10022543029152}}}, "icon": "https://maps.gstatic.com/mapfiles/place_api/icons/v1/png_71/generic_business-71.png", "name": "PEDIATRA", "opening_hours": {"open_now": false}, "place_id": "ChIJBRSX4-L90YURnkJ_wvDPbU4", "plus_code": {"compound_code": "9W32+RF Mexico City, CDMX, Mexico", "global_code": "76F29W32+RF"}, "reference": "ChIJBRSX4-L90YURnkJ_wvDPbU4", "scope": "GOOGLE", "types": ["doctor", "health", "point_of_interest", "establishment"], "vicinity": "Puentetitla 24, Ricardo Flores Mag\u00f3n, Ciudad de M\u00e9xico"}, {"business_status": "OPERATIONAL", "geometry": {"location": {"lat": 19.3520521, "lng": -99.1030163}, "viewport": {"northeast": {"lat": 19.35341178029151, "lng": -99.1016987197085}, "southwest": {"lat": 19.3507138197085, "lng": -99.10439668029152}}}, "icon": "https://maps.gstatic.com/mapfiles/place_api/icons/v1/png_71/generic_business-71.png", "name": "La NeuroCueva", "place_id": "ChIJfSEuQqf_0YURRmZSGHEPco8", "plus_code": {"compound_code": "9V2W+RQ Mexico City, CDMX, Mexico", "global_code": "76F29V2W+RQ"}, "reference": "ChIJfSEuQqf_0YURRmZSGHEPco8", "scope": "GOOGLE", "types": ["doctor", "health", "point_of_interest", "establishment"], "vicinity": "camino antiguo a culhuacan #126 colonia, Camino Antiguo a Culhuacan #126, Santa Isabel Industrial, Ciudad de M\u00e9xico"}, {"business_status": "OPERATIONAL", "geometry": {"location": {"lat": 19.3522467, "lng": -99.1000134}, "viewport": {"northeast": {"lat": 19.3535803302915, "lng": -99.09862371970848}, "southwest": {"lat": 19.3508823697085, "lng": -99.1013216802915}}}, "icon": "https://maps.gstatic.com/mapfiles/place_api/icons/v1/png_71/generic_business-71.png", "name": "Consultorio M\u00e9dico", "place_id": "ChIJESwdzOL90YURsl5P8TBPS84", "plus_code": {"compound_code": "9V2X+VX Mexico City, CDMX, Mexico", "global_code": "76F29V2X+VX"}, "reference": "ChIJESwdzOL90YURsl5P8TBPS84", "scope": "GOOGLE", "types": ["doctor", "health", "point_of_interest", "establishment"], "vicinity": "Puentetitla 97, Ampliaci\u00f3n Ricardo Flores Mag\u00f3n, Ciudad de M\u00e9xico"}, {"business_status": "OPERATIONAL", "geometry": {"location": {"lat": 19.3492995, "lng": -99.10112439999999}, "viewport": {"northeast": {"lat": 19.3506561302915, "lng": -99.09979361970849}, "southwest": {"lat": 19.3479581697085, "lng": -99.10249158029151}}}, "icon": "https://maps.gstatic.com/mapfiles/place_api/icons/v1/png_71/generic_business-71.png", "name": "CONSULTORIO M\u00c9DICO", "opening_hours": {"open_now": true}, "place_id": "ChIJ-1s9gf390YUR__iSMHl7tfI", "plus_code": {"compound_code": "8VXX+PH Mexico City, CDMX, Mexico", "global_code": "76F28VXX+PH"}, "reference": "ChIJ-1s9gf390YUR__iSMHl7tfI", "scope": "GOOGLE", "types": ["doctor", "health", "point_of_interest", "establishment"], "vicinity": "tonatiuh, Puentetitla 154, Iztapalapa, Ciudad de M\u00e9xico"}, {"business_status": "OPERATIONAL", "geometry": {"location": {"lat": 19.349268, "lng": -99.10110499999999}, "viewport": {"northeast": {"lat": 19.3506332802915, "lng": -99.09979466970847}, "southwest": {"lat": 19.3479353197085, "lng": -99.1024926302915}}}, "icon": "https://maps.gstatic.com/mapfiles/place_api/icons/v1/png_71/generic_business-71.png", "name": "Consultorio M\u00e9dico Farmacia Rosy", "opening_hours": {"open_now": true}, "place_id": "ChIJZ9k5gf390YURORPAlq4ANVs", "plus_code": {"compound_code": "8VXX+PH Mexico City, CDMX, Mexico", "global_code": "76F28VXX+PH"}, "reference": "ChIJZ9k5gf390YURORPAlq4ANVs", "scope": "GOOGLE", "types": ["doctor", "health", "point_of_interest", "establishment"], "vicinity": "Puente Titla Esq. Tonathiu Local 2, Estrella del Sur, Iztapalapa"}, {"business_status": "OPERATIONAL", "geometry": {"location": {"lat": 19.3497538, "lng": -99.0997106}, "viewport": {"northeast": {"lat": 19.3510939802915, "lng": -99.09833711970849}, "southwest": {"lat": 19.3483960197085, "lng": -99.1010350802915}}}, "icon": "https://maps.gstatic.com/mapfiles/place_api/icons/v1/png_71/generic_business-71.png", "name": "CONSULTORIO M\u00c9DICO INTEGRAL", "opening_hours": {"open_now": false}, "photos": [{"height": 2912, "html_attributions": ["<a href=\"https://maps.google.com/maps/contrib/116446917222505967777\">Dra. Maritere Sierra</a>"], "photo_reference": "CmRaAAAACxMtmhk-hhRNCP5AV0lVQXIM2Vf6-N7UD85IaMq9SXC3mweC2sdIZXWTrAqnxHdICdVq7eyRqRUoykGxEGbp2MYVI8t66Zcq2YlpkLTNPjaBiKMpw88D2eTrUOeGLEf_EhCbLxJ62Hf4Wa3RDSB4zmH_GhQbuf3wMJDozsgagO2ltqcB_znLPg", "width": 3412}], "place_id": "ChIJLaSXof390YURjU_kAOHHByg", "plus_code": {"compound_code": "8WX2+W4 Mexico City, CDMX, Mexico", "global_code": "76F28WX2+W4"}, "rating": 4.5, "reference": "ChIJLaSXof390YURjU_kAOHHByg", "scope": "GOOGLE", "types": ["doctor", "health", "point_of_interest", "establishment"], "user_ratings_total": 2, "vicinity": "Xochiquetzal 19, Estrella del Sur, Ciudad de M\u00e9xico"}, {"business_status": "OPERATIONAL", "geometry": {"location": {"lat": 19.3546364, "lng": -99.0998652}, "viewport": {"northeast": {"lat": 19.3559941802915, "lng": -99.0985560697085}, "southwest": {"lat": 19.3532962197085, "lng": -99.1012540302915}}}, "icon": "https://maps.gstatic.com/mapfiles/place_api/icons/v1/png_71/generic_business-71.png", "name": "Podologia Integral Dr. Joel", "opening_hours": {"open_now": true}, "place_id": "ChIJSQIk7eL90YURoJZoEhmfAPI", "plus_code": {"compound_code": "9W32+V3 Mexico City, CDMX, Mexico", "global_code": "76F29W32+V3"}, "reference": "ChIJSQIk7eL90YURoJZoEhmfAPI", "scope": "GOOGLE", "types": ["doctor", "health", "point_of_interest", "establishment"], "vicinity": "09828 de, Privada Ermita Iztapalapa 6, Ampliaci\u00f3n Ricardo Flores Mag\u00f3n, Ciudad de M\u00e9xico"}, {"business_status": "OPERATIONAL", "geometry": {"location": {"lat": 19.3543657, "lng": -99.09888699999999}, "viewport": {"northeast": {"lat": 19.3556826802915, "lng": -99.09755171970849}, "southwest": {"lat": 19.3529847197085, "lng": -99.1002496802915}}}, "icon": "https://maps.gstatic.com/mapfiles/place_api/icons/v1/png_71/generic_business-71.png", "name": "Consultorio Titla", "opening_hours": {"open_now": false}, "place_id": "ChIJUXsj4eL90YURdbYy8oarY2g", "plus_code": {"compound_code": "9W32+PC Ricardo Flores Mag\u00f3n, Mexico City, CDMX, Mexico", "global_code": "76F29W32+PC"}, "reference": "ChIJUXsj4eL90YURdbYy8oarY2g", "scope": "GOOGLE", "types": ["doctor", "health", "point_of_interest", "establishment"], "vicinity": "Tlaxcala 50, Ricardo Flores Mag\u00f3n"}, {"business_status": "OPERATIONAL", "geometry": {"location": {"lat": 19.3472668, "lng": -99.1009471}, "viewport": {"northeast": {"lat": 19.3486134302915, "lng": -99.09957391970849}, "southwest": {"lat": 19.3459154697085, "lng": -99.1022718802915}}}, "icon": "https://maps.gstatic.com/mapfiles/place_api/icons/v1/png_71/generic_business-71.png", "name": "MEDICO PEDIATRA", "opening_hours": {"open_now": false}, "photos": [{"height": 3024, "html_attributions": ["<a href=\"https://maps.google.com/maps/contrib/112533236049271576824\">salamancasalamankita</a>"], "photo_reference": "CmRaAAAAYeOQ-SWInULF1BbmlyXc3tlQn-B5ZsA0XOhxX4BqD8CJZWVnJbCmGut3409YZCCwJTufpysrm2_oAWRBpFt-94E0uwTaJZgg6YFj7tnNkhnb1X0A1vMkwXrM3XSEf7q6EhAvTbhk9DprQYb4Hq_KMi9bGhTFcgxmN1m3yFx3IowcI55JHiaxSg", "width": 4032}], "place_id": "ChIJN6o--v390YUR7l-zY-s58y0", "plus_code": {"compound_code": "8VWX+WJ Mexico City, CDMX, Mexico", "global_code": "76F28VWX+WJ"}, "rating": 5, "reference": "ChIJN6o--v390YUR7l-zY-s58y0", "scope": "GOOGLE", "types": ["doctor", "health", "point_of_interest", "establishment"], "user_ratings_total": 2, "vicinity": "Mz 37 Lt 2, Xochipilli, Estrella del Sur, Ciudad de M\u00e9xico"}, {"business_status": "OPERATIONAL", "geometry": {"location": {"lat": 19.3540447, "lng": -99.09846789999999}, "viewport": {"northeast": {"lat": 19.3554309802915, "lng": -99.09710296970849}, "southwest": {"lat": 19.3527330197085, "lng": -99.0998009302915}}}, "icon": "https://maps.gstatic.com/mapfiles/place_api/icons/v1/png_71/generic_business-71.png", "name": "Podolog\u00eda Integral", "place_id": "ChIJK25HIOP90YURmEQp63LLRZE", "plus_code": {"compound_code": "9W32+JJ Ricardo Flores Mag\u00f3n, Mexico City, CDMX, Mexico", "global_code": "76F29W32+JJ"}, "reference": "ChIJK25HIOP90YURmEQp63LLRZE", "scope": "GOOGLE", "types": ["doctor", "health", "point_of_interest", "establishment"], "vicinity": "Tlaxcanes 44, Ricardo Flores Mag\u00f3n, Iztapalapa"}, {"business_status": "OPERATIONAL", "geometry": {"location": {"lat": 19.3554588, "lng": -99.1024115}, "viewport": {"northeast": {"lat": 19.3569621302915, "lng": -99.10105566970849}, "southwest": {"lat": 19.3542641697085, "lng": -99.1037536302915}}}, "icon": "https://maps.gstatic.com/mapfiles/place_api/icons/v1/png_71/generic_business-71.png", "name": "Laboratorio Medico Polanco S.A. de C.V.", "place_id": "ChIJDwFhUJH_0YURjrxi15vaiKw", "plus_code": {"compound_code": "9V4X+52 Mexico City, CDMX, Mexico", "global_code": "76F29V4X+52"}, "reference": "ChIJDwFhUJH_0YURjrxi15vaiKw", "scope": "GOOGLE", "types": ["doctor", "health", "point_of_interest", "establishment"], "vicinity": "Ermita Iztapalapa 927, Santa Isabel Industrial, Ciudad de M\u00e9xico"}, {"business_status": "OPERATIONAL", "geometry": {"location": {"lat": 19.3555091, "lng": -99.1019575}, "viewport": {"northeast": {"lat": 19.3569755302915, "lng": -99.1005989697085}, "southwest": {"lat": 19.3542775697085, "lng": -99.1032969302915}}}, "icon": "https://maps.gstatic.com/mapfiles/place_api/icons/v1/png_71/generic_business-71.png", "name": "Laboratorio M\u00e9dico Polanco", "opening_hours": {"open_now": false}, "place_id": "ChIJtQrxcG3_0YURj0xAGRo96L0", "plus_code": {"compound_code": "9V4X+66 Mexico City, CDMX, Mexico", "global_code": "76F29V4X+66"}, "rating": 5, "reference": "ChIJtQrxcG3_0YURj0xAGRo96L0", "scope": "GOOGLE", "types": ["doctor", "health", "point_of_interest", "establishment"], "user_ratings_total": 1, "vicinity": "Dentro de Plaza Aristeum, Ermita Iztapalapa sn, Santa Isabel Industrial, Ciudad de M\u00e9xico"}]