[{"business_status": "OPERATIONAL", "formatted_address": "Xochiquetzal 19, Estrella del Sur, Iztapalapa, 09820 Ciudad de M\u00e9xico, CDMX", "geometry": {"location": {"lat": 19.3497538, "lng": -99.0997106}, "viewport": {"northeast": {"lat": 19.35109482989272, "lng": -99.09833627010727}, "southwest": {"lat": 19.34839517010728, "lng": -99.10103592989272}}}, "icon": "https://maps.gstatic.com/mapfiles/place_api/icons/v1/png_71/generic_business-71.png", "name": "CONSULTORIO M\u00c9DICO INTEGRAL", "opening_hours": {"open_now": false}, "photos": [{"height": 2912, "html_attributions": ["<a href=\"https://maps.google.com/maps/contrib/116446917222505967777\">Dra. Maritere Sierra</a>"], "photo_reference": "CmRaAAAAgIGrhoSrT455jB3uBwU-q0-teJ9UILrzE3ABbnOgUrC4ceZrgB0cxNkJGmEMmBFpJFFO49D4G78kakzfcI1p3oKGpSCQZMVJJ5tq5bAwz4LS9i-HbazsJ_ENigDReI9_EhCfTfRLcv2-GLrDDxKpJ-WLGhTVqWga0mMS0fnPvWHAxpuCBt935w", "width": 3412}], "place_id": "ChIJLaSXof390YURjU_kAOHHByg", "plus_code": {"compound_code": "8WX2+W4 Mexico City", "global_code": "76F28WX2+W4"}, "rating": 4.5, "reference": "ChIJLaSXof390YURjU_kAOHHByg", "types": ["doctor", "health", "point_of_interest", "establishment"], "user_ratings_total": 2}, {"business_status": "OPERATIONAL", "formatted_address": "Puentetitla 97, Amp Ricardo Flores Mag\u00f3n, Iztapalapa, 09820 Ciudad de M\u00e9xico, CDMX", "geometry": {"location": {"lat": 19.3522467, "lng": -99.1000134}, "viewport": {"northeast": {"lat": 19.35358117989272, "lng": -99.09862287010728}, "southwest": {"lat": 19.35088152010728, "lng": -99.10132252989271}}}, "icon": "https://maps.gstatic.com/mapfiles/place_api/icons/v1/png_71/generic_business-71.png", "name": "Consultorio M\u00e9dico", "place_id": "ChIJESwdzOL90YURsl5P8TBPS84", "plus_code": {"compound_code": "9V2X+VX Mexico City", "global_code": "76F29V2X+VX"}, "rating": 0, "reference": "ChIJESwdzOL90YURsl5P8TBPS84", "types": ["doctor", "health", "point_of_interest", "establishment"], "user_ratings_total": 0}, {"business_status": "OPERATIONAL", "formatted_address": "tonatiuh, Puentetitla 154, Iztapalapa, 09820 Ciudad de M\u00e9xico, CDMX", "geometry": {"location": {"lat": 19.3492995, "lng": -99.10112439999999}, "viewport": {"northeast": {"lat": 19.35065697989273, "lng": -99.09979277010729}, "southwest": {"lat": 19.34795732010728, "lng": -99.10249242989272}}}, "icon": "https://maps.gstatic.com/mapfiles/place_api/icons/v1/png_71/generic_business-71.png", "name": "CONSULTORIO M\u00c9DICO", "opening_hours": {"open_now": true}, "place_id": "ChIJ-1s9gf390YUR__iSMHl7tfI", "plus_code": {"compound_code": "8VXX+PH Mexico City", "global_code": "76F28VXX+PH"}, "rating": 0, "reference": "ChIJ-1s9gf390YUR__iSMHl7tfI", "types": ["doctor", "health", "point_of_interest", "establishment"], "user_ratings_total": 0}, {"business_status": "OPERATIONAL", "formatted_address": "Ermita Iztapalapa 927, Santa Isabel Industrial, Iztapalapa, 09820 Ciudad de M\u00e9xico, CDMX", "geometry": {"location": {"lat": 19.3554588, "lng": -99.1024115}, "viewport": {"northeast": {"lat": 19.35696297989272, "lng": -99.10105482010728}, "southwest": {"lat": 19.35426332010728, "lng": -99.10375447989273}}}, "icon": "https://maps.gstatic.com/mapfiles/place_api/icons/v1/png_71/generic_business-71.png", "name": "Laboratorio Medico Polanco S.A. de C.V.", "place_id": "ChIJDwFhUJH_0YURjrxi15vaiKw", "plus_code": {"compound_code": "9V4X+52 Mexico City", "global_code": "76F29V4X+52"}, "rating": 0, "reference": "ChIJDwFhUJH_0YURjrxi15vaiKw", "types": ["doctor", "health", "point_of_interest", "establishment"], "user_ratings_total": 0}, {"business_status": "OPERATIONAL", "formatted_address": "Primer Callej\u00f3n de Gral. Anaya 18, Sta B\u00e1rbara, Iztapalapa, 09000 Ciudad de M\u00e9xico, CDMX", "geometry": {"location": {"lat": 19.3572382, "lng": -99.10229199999999}, "viewport": {"northeast": {"lat": 19.35860397989272, "lng": -99.10093787010727}, "southwest": {"lat": 19.35590432010728, "lng": -99.10363752989272}}}, "icon": "https://maps.gstatic.com/mapfiles/place_api/icons/v1/png_71/generic_business-71.png", "name": "CONSULTORIO MEDICO", "place_id": "ChIJle7K7gn-0YURjIIZTD3WSs0", "plus_code": {"compound_code": "9V4X+V3 Mexico City", "global_code": "76F29V4X+V3"}, "rating": 0, "reference": "ChIJle7K7gn-0YURjIIZTD3WSs0", "types": ["doctor", "health", "point_of_interest", "establishment"], "user_ratings_total": 0}, {"business_status": "OPERATIONAL", "formatted_address": "Loc.2, Ilhuilcamina 13, Iztapalapa, 09840 Ciudad de M\u00e9xico, CDMX", "geometry": {"location": {"lat": 19.3460579, "lng": -99.1028249}, "viewport": {"northeast": {"lat": 19.34742482989272, "lng": -99.10147027010727}, "southwest": {"lat": 19.34472517010728, "lng": -99.10416992989272}}}, "icon": "https://maps.gstatic.com/mapfiles/place_api/icons/v1/png_71/generic_business-71.png", "name": "MEDICO", "place_id": "ChIJQ0K4yQD-0YUR5F20oME-mG0", "plus_code": {"compound_code": "8VWW+CV Mexico City", "global_code": "76F28VWW+CV"}, "rating": 0, "reference": "ChIJQ0K4yQD-0YUR5F20oME-mG0", "types": ["doctor", "health", "point_of_interest", "establishment"], "user_ratings_total": 0}, {"business_status": "OPERATIONAL", "formatted_address": "Ermita Iztapalapa 1124, San Lucas, Iztapalapa, 09000 Ciudad de M\u00e9xico, CDMX", "geometry": {"location": {"lat": 19.3572305, "lng": -99.09605599999999}, "viewport": {"northeast": {"lat": 19.35851467989272, "lng": -99.09468507010729}, "southwest": {"lat": 19.35581502010728, "lng": -99.09738472989272}}}, "icon": "https://maps.gstatic.com/mapfiles/place_api/icons/v1/png_71/generic_business-71.png", "name": "CONSULTORIO MEDICO", "place_id": "ChIJJ67RiuP90YURKVgIZXT63jI", "plus_code": {"compound_code": "9W43+VH Mexico City", "global_code": "76F29W43+VH"}, "rating": 0, "reference": "ChIJJ67RiuP90YURKVgIZXT63jI", "types": ["doctor", "health", "point_of_interest", "establishment"], "user_ratings_total": 0}, {"business_status": "OPERATIONAL", "formatted_address": "5 de Mayo 13, Culhuacan, Iztapalapa, 09800 Ciudad de M\u00e9xico, CDMX", "geometry": {"location": {"lat": 19.3430099, "lng": -99.1053475}, "viewport": {"northeast": {"lat": 19.34442782989272, "lng": -99.10397527010727}, "southwest": {"lat": 19.34172817010728, "lng": -99.10667492989272}}}, "icon": "https://maps.gstatic.com/mapfiles/place_api/icons/v1/png_71/generic_business-71.png", "name": "Consultorio M\u00e9dico", "opening_hours": {"open_now": false}, "place_id": "ChIJcXGHoQH-0YURXmUDGP26inw", "plus_code": {"compound_code": "8VVV+6V Mexico City", "global_code": "76F28VVV+6V"}, "rating": 0, "reference": "ChIJcXGHoQH-0YURXmUDGP26inw", "types": ["doctor", "health", "point_of_interest", "establishment"], "user_ratings_total": 0}, {"business_status": "OPERATIONAL", "formatted_address": "Dentro de Plaza Aristeum, Ermita Iztapalapa sn, Santa Isabel Industrial, Iztapalapa, 09820 Ciudad de M\u00e9xico, CDMX", "geometry": {"location": {"lat": 19.3555091, "lng": -99.1019575}, "viewport": {"northeast": {"lat": 19.35697637989272, "lng": -99.10059812010728}, "southwest": {"lat": 19.35427672010728, "lng": -99.10329777989273}}}, "icon": "https://maps.gstatic.com/mapfiles/place_api/icons/v1/png_71/generic_business-71.png", "name": "Laboratorio M\u00e9dico Polanco", "opening_hours": {"open_now": false}, "place_id": "ChIJtQrxcG3_0YURj0xAGRo96L0", "plus_code": {"compound_code": "9V4X+66 Mexico City", "global_code": "76F29V4X+66"}, "rating": 5, "reference": "ChIJtQrxcG3_0YURj0xAGRo96L0", "types": ["doctor", "health", "point_of_interest", "establishment"], "user_ratings_total": 1}, {"business_status": "OPERATIONAL", "formatted_address": "Av. Tlahuac 177, Santa Isabel Industrial, Iztapalapa, 09820 Ciudad de M\u00e9xico, CDMX", "geometry": {"location": {"lat": 19.3499793, "lng": -99.10694579999999}, "viewport": {"northeast": {"lat": 19.35131827989272, "lng": -99.10552832010728}, "southwest": {"lat": 19.34861862010728, "lng": -99.10822797989272}}}, "icon": "https://maps.gstatic.com/mapfiles/place_api/icons/v1/png_71/generic_business-71.png", "name": "Servicios Medicos", "place_id": "ChIJXyjedwb-0YURVpgAFzur0Lo", "plus_code": {"compound_code": "8VXV+X6 Mexico City", "global_code": "76F28VXV+X6"}, "rating": 0, "reference": "ChIJXyjedwb-0YURVpgAFzur0Lo", "types": ["doctor", "health", "point_of_interest", "establishment"], "user_ratings_total": 0}, {"business_status": "OPERATIONAL", "formatted_address": "Tetlepanquetzalzin Mz731A Lt 3, Zona Urbana Ejidal los Reyes Culhuacan, Iztapalapa, 09840 CDMX", "geometry": {"location": {"lat": 19.344539, "lng": -99.101658}, "viewport": {"northeast": {"lat": 19.34588322989272, "lng": -99.10028622010728}, "southwest": {"lat": 19.34318357010728, "lng": -99.10298587989271}}}, "icon": "https://maps.gstatic.com/mapfiles/place_api/icons/v1/png_71/generic_business-71.png", "name": "Consultorio Medico", "opening_hours": {"open_now": true}, "place_id": "ChIJYcONnAD-0YUR7G2EMb8RgnQ", "plus_code": {"compound_code": "8VVX+R8 Zona Urbana Ejidal los Reyes Culhuacan, Mexico City", "global_code": "76F28VVX+R8"}, "rating": 0, "reference": "ChIJYcONnAD-0YUR7G2EMb8RgnQ", "types": ["doctor", "health", "point_of_interest", "establishment"], "user_ratings_total": 0}, {"business_status": "OPERATIONAL", "formatted_address": "09840, Silos 278, Los Reyes Culhuacan, Iztapalapa, Ciudad de M\u00e9xico, CDMX", "geometry": {"location": {"lat": 19.3469633, "lng": -99.11063860000002}, "viewport": {"northeast": {"lat": 19.34828947989272, "lng": -99.10923422010728}, "southwest": {"lat": 19.34558982010728, "lng": -99.11193387989273}}}, "icon": "https://maps.gstatic.com/mapfiles/place_api/icons/v1/png_71/generic_business-71.png", "name": "Consultorio Medico Joel Luis Martinez Davila", "opening_hours": {"open_now": true}, "place_id": "ChIJcW66kAT-0YURwg51uEx47v4", "plus_code": {"compound_code": "8VWQ+QP Mexico City", "global_code": "76F28VWQ+QP"}, "rating": 5, "reference": "ChIJcW66kAT-0YURwg51uEx47v4", "types": ["doctor", "health", "point_of_interest", "establishment"], "user_ratings_total": 3}, {"business_status": "OPERATIONAL", "formatted_address": "Los Reyes 92, San Lucas, Iztapalapa, 09000 Ciudad de M\u00e9xico, CDMX", "geometry": {"location": {"lat": 19.3586043, "lng": -99.099774}, "viewport": {"northeast": {"lat": 19.35993957989272, "lng": -99.09837442010728}, "southwest": {"lat": 19.35723992010728, "lng": -99.10107407989273}}}, "icon": "https://maps.gstatic.com/mapfiles/place_api/icons/v1/png_71/generic_business-71.png", "name": "CONSULTORIO MEDICO", "opening_hours": {"open_now": false}, "place_id": "ChIJfRZsiuH90YURki_2yz12368", "plus_code": {"compound_code": "9W52+C3 Mexico City", "global_code": "76F29W52+C3"}, "rating": 4, "reference": "ChIJfRZsiuH90YURki_2yz12368", "types": ["doctor", "health", "point_of_interest", "establishment"], "user_ratings_total": 1}, {"business_status": "OPERATIONAL", "formatted_address": "Ermita Iztapalapa, San Pablo, Iztapalapa, 09000 Ciudad de M\u00e9xico, CDMX", "geometry": {"location": {"lat": 19.3582655, "lng": -99.0910383}, "viewport": {"northeast": {"lat": 19.35968697989272, "lng": -99.08970762010728}, "southwest": {"lat": 19.35698732010728, "lng": -99.09240727989273}}}, "icon": "https://maps.gstatic.com/mapfiles/place_api/icons/v1/png_71/generic_business-71.png", "name": "Consultorios M\u00e9dicos MEDICER", "opening_hours": {"open_now": false}, "place_id": "ChIJ-524Zr_90YURyMymWFRcC1o", "plus_code": {"compound_code": "9W55+8H Mexico City", "global_code": "76F29W55+8H"}, "rating": 0, "reference": "ChIJ-524Zr_90YURyMymWFRcC1o", "types": ["doctor", "health", "point_of_interest", "establishment"], "user_ratings_total": 0}, {"business_status": "OPERATIONAL", "formatted_address": "Calle Trojes 46 Loc-B, Minerva, 09810 Iztapalapa, CDMX", "geometry": {"location": {"lat": 19.3561611, "lng": -99.1095467}, "viewport": {"northeast": {"lat": 19.35751322989272, "lng": -99.10823112010728}, "southwest": {"lat": 19.35481357010728, "lng": -99.11093077989273}}}, "icon": "https://maps.gstatic.com/mapfiles/place_api/icons/v1/png_71/generic_business-71.png", "name": "Medico Rosas", "opening_hours": {"open_now": false}, "place_id": "ChIJi4519g7-0YURHnqWgi2uVgs", "plus_code": {"compound_code": "9V4R+F5 Mexico City", "global_code": "76F29V4R+F5"}, "rating": 0, "reference": "ChIJi4519g7-0YURHnqWgi2uVgs", "types": ["doctor", "health", "point_of_interest", "establishment"], "user_ratings_total": 0}, {"business_status": "OPERATIONAL", "formatted_address": "Avenida Santa Ana 270, Coapa, Culhuacan CTM V, Coyoac\u00e1n, 04480 Ciudad de M\u00e9xico, CDMX", "geometry": {"location": {"lat": 19.3281769, "lng": -99.1140995}, "viewport": {"northeast": {"lat": 19.32960772989272, "lng": -99.11274242010728}, "southwest": {"lat": 19.32690807010728, "lng": -99.11544207989272}}}, "icon": "https://maps.gstatic.com/mapfiles/place_api/icons/v1/png_71/generic_business-71.png", "name": "CONSULTORIO MEDICO", "opening_hours": {"open_now": false}, "place_id": "ChIJR0rfh-8BzoURT5ydocrcX0k", "plus_code": {"compound_code": "8VHP+79 Mexico City", "global_code": "76F28VHP+79"}, "rating": 0, "reference": "ChIJR0rfh-8BzoURT5ydocrcX0k", "types": ["doctor", "health", "point_of_interest", "establishment"], "user_ratings_total": 0}, {"business_status": "OPERATIONAL", "formatted_address": "Cerrada Iturbide 16, San Lucas, Iztapalapa, 09000 Ciudad de M\u00e9xico, CDMX", "geometry": {"location": {"lat": 19.3601127, "lng": -99.09528429999999}, "viewport": {"northeast": {"lat": 19.36135152989272, "lng": -99.09396917010727}, "southwest": {"lat": 19.35865187010727, "lng": -99.09666882989272}}}, "icon": "https://maps.gstatic.com/mapfiles/place_api/icons/v1/png_71/generic_business-71.png", "name": "MEDICO", "opening_hours": {"open_now": false}, "place_id": "ChIJB_7TKOH90YURh1ka7ePjvHQ", "plus_code": {"compound_code": "9W63+2V Mexico City", "global_code": "76F29W63+2V"}, "rating": 0, "reference": "ChIJB_7TKOH90YURh1ka7ePjvHQ", "types": ["doctor", "health", "point_of_interest", "establishment"], "user_ratings_total": 0}, {"business_status": "OPERATIONAL", "formatted_address": "Ermita Iztapalapa 1129, San Lucas, Iztapalapa, 09000 Ciudad de M\u00e9xico, CDMX", "geometry": {"location": {"lat": 19.3570319, "lng": -99.0958205}, "viewport": {"northeast": {"lat": 19.35843787989273, "lng": -99.09448872010728}, "southwest": {"lat": 19.35573822010728, "lng": -99.09718837989273}}}, "icon": "https://maps.gstatic.com/mapfiles/place_api/icons/v1/png_71/generic_business-71.png", "name": "MEDICO CIRUJANO Y HOMEOPATA", "opening_hours": {"open_now": false}, "place_id": "ChIJ3bdpdeT90YURt2fC9lPbGsc", "plus_code": {"compound_code": "9W43+RM Mexico City", "global_code": "76F29W43+RM"}, "rating": 0, "reference": "ChIJ3bdpdeT90YURt2fC9lPbGsc", "types": ["doctor", "health", "point_of_interest", "establishment"], "user_ratings_total": 0}, {"business_status": "OPERATIONAL", "formatted_address": "Av. Luis Hidalgo Monroy 93, San Pablo, Iztapalapa, 09000 Ciudad de M\u00e9xico, CDMX", "geometry": {"location": {"lat": 19.3590385, "lng": -99.0884204}, "viewport": {"northeast": {"lat": 19.36043237989272, "lng": -99.08705657010728}, "southwest": {"lat": 19.35773272010728, "lng": -99.08975622989273}}}, "icon": "https://maps.gstatic.com/mapfiles/place_api/icons/v1/png_71/generic_business-71.png", "name": "CONSULTORIO MEDICO", "opening_hours": {"open_now": true}, "place_id": "ChIJjxszzej90YURWs5FwSclSrw", "plus_code": {"compound_code": "9W56+JJ Mexico City", "global_code": "76F29W56+JJ"}, "rating": 0, "reference": "ChIJjxszzej90YURWs5FwSclSrw", "types": ["doctor", "health", "point_of_interest", "establishment"], "user_ratings_total": 0}, {"business_status": "OPERATIONAL", "formatted_address": "La Manzana 291, Los Reyes Culhuacan, Iztapalapa, 09840 Ciudad de M\u00e9xico, CDMX", "geometry": {"location": {"lat": 19.3473416, "lng": -99.11131189999999}, "viewport": {"northeast": {"lat": 19.34868737989272, "lng": -99.1099633701073}, "southwest": {"lat": 19.34598772010728, "lng": -99.11266302989274}}}, "icon": "https://maps.gstatic.com/mapfiles/place_api/icons/v1/png_71/generic_business-71.png", "name": "Consultorio Medico", "place_id": "ChIJwSKAvAT-0YURqOrRkVNDUDg", "plus_code": {"compound_code": "8VWQ+WF Mexico City", "global_code": "76F28VWQ+WF"}, "rating": 0, "reference": "ChIJwSKAvAT-0YURqOrRkVNDUDg", "types": ["doctor", "health", "point_of_interest", "establishment"], "user_ratings_total": 0}]