[{"business_status": "OPERATIONAL", "formatted_address": "Arroz 90, Santa Isabel Industrial, Iztapalapa, 09820 Ciudad de M\u00e9xico, CDMX", "geometry": {"location": {"lat": 19.3527792, "lng": -99.1038337}, "viewport": {"northeast": {"lat": 19.35414522989272, "lng": -99.10251682010728}, "southwest": {"lat": 19.35144557010728, "lng": -99.10521647989272}}}, "icon": "https://maps.gstatic.com/mapfiles/place_api/icons/v1/png_71/shopping-71.png", "name": "Janel Planta Arroz.", "photos": [{"height": 3136, "html_attributions": ["<a href=\"https://maps.google.com/maps/contrib/105362987384898225424\">RAUL TORRES CARRANZA</a>"], "photo_reference": "CmRaAAAA5U7k6E93sSMCq0GXl_3wzZ8-44r3MX9PfnvpNsgY_VdHEeCgtalAHKxNDk7tPnsgScolr5bHKta0HdRgam37fvuSCM9DAfuB3vi-wNTQ5UXQxC8qpgZ8DMVWwA7sOcolEhB8f5hAqR8ppOnMhjcynHDmGhQmhBJcp0Nmz_47U-I5IEEysYRaRA", "width": 4224}], "place_id": "ChIJpUsifAj-0YURYohGUT7gKWo", "plus_code": {"compound_code": "9V3W+4F Mexico City", "global_code": "76F29V3W+4F"}, "rating": 3.7, "reference": "ChIJpUsifAj-0YURYohGUT7gKWo", "types": ["home_goods_store", "point_of_interest", "store", "establishment"], "user_ratings_total": 14}, {"business_status": "OPERATIONAL", "formatted_address": "Ermita Iztapalapa 762, Granjas San Antonio, Iztapalapa, 09070 Ciudad de M\u00e9xico, CDMX", "geometry": {"location": {"lat": 19.35658, "lng": -99.10811299999999}, "viewport": {"northeast": {"lat": 19.35782787989272, "lng": -99.10677607010729}, "southwest": {"lat": 19.35512822010728, "lng": -99.10947572989272}}}, "icon": "https://maps.gstatic.com/mapfiles/place_api/icons/v1/png_71/shopping-71.png", "name": "whatshome", "opening_hours": {"open_now": false}, "photos": [{"height": 4160, "html_attributions": ["<a href=\"https://maps.google.com/maps/contrib/101053748943745485317\">Brenda Torres</a>"], "photo_reference": "CmRaAAAA4A_JS41SYn_i0VYe-LdwRf2lzrnyxrvx-9vTFwsv0LIkqJm8q4B1gtsPuVCNvdkKdafF-vDEGm1Ni5M-1H-dB3un0kgLRL1H90idjewBQNAmtcrlhUa99p9X6PLAgo_iEhCgfRcb_vAOy7aOSQtSI7iAGhT_Gyz40bsySUcVq6rmDy-h8MT7EA", "width": 2340}], "place_id": "ChIJkyOFwA7-0YURiw-rJ6Kqaqc", "plus_code": {"compound_code": "9V4R+JQ Mexico City", "global_code": "76F29V4R+JQ"}, "rating": 4.7, "reference": "ChIJkyOFwA7-0YURiw-rJ6Kqaqc", "types": ["home_goods_store", "point_of_interest", "store", "establishment"], "user_ratings_total": 59}, {"business_status": "OPERATIONAL", "formatted_address": "CALLEJON SEGUNDO CAPILLA DE COL, 2a Cerrada de San Juan 10, Ricardo Flores Mag\u00f3n, Iztapalapa, 09820 Ciudad de M\u00e9xico, CDMX", "geometry": {"location": {"lat": 19.355007, "lng": -99.09796890000001}, "viewport": {"northeast": {"lat": 19.35632222989272, "lng": -99.09655382010729}, "southwest": {"lat": 19.35362257010728, "lng": -99.09925347989272}}}, "icon": "https://maps.gstatic.com/mapfiles/place_api/icons/v1/png_71/shopping-71.png", "name": "REJILLAS Y ALAMBRES PULIDOS SA DE CV", "place_id": "ChIJ1QZrBeP90YUR_6SmMBj6ka0", "plus_code": {"compound_code": "9W42+2R Mexico City", "global_code": "76F29W42+2R"}, "rating": 4.3, "reference": "ChIJ1QZrBeP90YUR_6SmMBj6ka0", "types": ["home_goods_store", "point_of_interest", "store", "establishment"], "user_ratings_total": 9}, {"business_status": "OPERATIONAL", "formatted_address": "Av Estrella 11, Iztapalapa, 09820 Ciudad de M\u00e9xico, CDMX", "geometry": {"location": {"lat": 19.3529636, "lng": -99.0991255}, "viewport": {"northeast": {"lat": 19.35429687989272, "lng": -99.09778897010727}, "southwest": {"lat": 19.35159722010728, "lng": -99.10048862989271}}}, "icon": "https://maps.gstatic.com/mapfiles/place_api/icons/v1/png_71/shopping-71.png", "name": "Pa\u00f1ales Dani", "opening_hours": {"open_now": true}, "place_id": "ChIJw7_BtAP90YURpELT6zZeC00", "plus_code": {"compound_code": "9W32+58 Mexico City", "global_code": "76F29W32+58"}, "rating": 0, "reference": "ChIJw7_BtAP90YURpELT6zZeC00", "types": ["home_goods_store", "point_of_interest", "store", "establishment"], "user_ratings_total": 0}, {"business_status": "OPERATIONAL", "formatted_address": "Xochiquetzal 9 76, Estrella del Sur, Iztapalapa, 09820 Ciudad de M\u00e9xico, CDMX", "geometry": {"location": {"lat": 19.3518255, "lng": -99.098582}, "viewport": {"northeast": {"lat": 19.35317372989272, "lng": -99.09722717010727}, "southwest": {"lat": 19.35047407010728, "lng": -99.09992682989272}}}, "icon": "https://maps.gstatic.com/mapfiles/place_api/icons/v1/png_71/shopping-71.png", "name": "Cristaler\u00eda Orozco", "opening_hours": {"open_now": false}, "place_id": "ChIJew512Pz90YURzrgeQDqcJQI", "plus_code": {"compound_code": "9W22+PH Mexico City", "global_code": "76F29W22+PH"}, "rating": 0, "reference": "ChIJew512Pz90YURzrgeQDqcJQI", "types": ["home_goods_store", "point_of_interest", "store", "establishment"], "user_ratings_total": 0}, {"business_status": "OPERATIONAL", "formatted_address": "Amp Ricardo Flores Mag\u00f3n, Iztapalapa, 09828 Mexico City", "geometry": {"location": {"lat": 19.354208, "lng": -99.10048450000001}, "viewport": {"northeast": {"lat": 19.35552707989272, "lng": -99.09912747010728}, "southwest": {"lat": 19.35282742010728, "lng": -99.10182712989273}}}, "icon": "https://maps.gstatic.com/mapfiles/place_api/icons/v1/png_71/shopping-71.png", "name": "VENTA DE ILUMINACI\u00d3N", "opening_hours": {"open_now": true}, "photos": [{"height": 417, "html_attributions": ["<a href=\"https://maps.google.com/maps/contrib/107998115023009331866\">A Google User</a>"], "photo_reference": "CmRaAAAA8cdyjF0LKbTY7_4FEmicNmYBB2-bATh3THZ4BEYf0ojTmzbSyTq5CqQ2hRXtjy0JFpSQgxn-iCwEvdnhoLqIyIwjDa9ZUpQ66QxeVQDMvJ1j_YyM9AvlvxopwweH_7zSEhAWFUWRHdZP8m2vCJKXyIPBGhQvNqwq89B9_rVksW_s9-OF4aSXPQ", "width": 566}], "place_id": "ChIJcWsGagj90YURGLNHxvKlmw0", "plus_code": {"compound_code": "9V3X+MR Mexico City", "global_code": "76F29V3X+MR"}, "rating": 0, "reference": "ChIJcWsGagj90YURGLNHxvKlmw0", "types": ["home_goods_store", "point_of_interest", "store", "establishment"], "user_ratings_total": 0}, {"business_status": "OPERATIONAL", "formatted_address": "Av. Tlahuac #4, Santa Isabel Industrial, Iztapalapa, 09820 Ciudad de M\u00e9xico, CDMX", "geometry": {"location": {"lat": 19.3556077, "lng": -99.105477}, "viewport": {"northeast": {"lat": 19.35697167989272, "lng": -99.10421492010728}, "southwest": {"lat": 19.35427202010728, "lng": -99.10691457989273}}}, "icon": "https://maps.gstatic.com/mapfiles/place_api/icons/v1/png_71/shopping-71.png", "name": "Dokkoi Japan Iztapalapa", "opening_hours": {"open_now": false}, "photos": [{"height": 4128, "html_attributions": ["<a href=\"https://maps.google.com/maps/contrib/102686958302481030982\">kookie miau</a>"], "photo_reference": "CmRaAAAAp6aj0d3z5SvYpGpo4vlDwXFxibn2gGAYlpOzSYf1Ab1CH4nlMQwYVONx_hp6eSEyuIIF9HI_uC8fQVfZoocq41_JTkqR7O5JLhd-uwQNHmsnhpgnwbLnWJRL0HjfBU9UEhBnC6ehkszRVaOspH7O5m4PGhTdGD0lIn98yL9751FfO10VfdAD0g", "width": 3096}], "place_id": "ChIJ5dWC_q__0YURrP4HFRWq2lA", "plus_code": {"compound_code": "9V4V+6R Mexico City", "global_code": "76F29V4V+6R"}, "rating": 4.1, "reference": "ChIJ5dWC_q__0YURrP4HFRWq2lA", "types": ["home_goods_store", "point_of_interest", "store", "establishment"], "user_ratings_total": 32}, {"business_status": "OPERATIONAL", "formatted_address": "Cda. Iztapalapa 4, Amp Ricardo Flores Mag\u00f3n, Iztapalapa, 09820 Ciudad de M\u00e9xico, CDMX", "geometry": {"location": {"lat": 19.3553705, "lng": -99.09900610000001}, "viewport": {"northeast": {"lat": 19.35671467989272, "lng": -99.09764357010728}, "southwest": {"lat": 19.35401502010728, "lng": -99.10034322989272}}}, "icon": "https://maps.gstatic.com/mapfiles/place_api/icons/v1/png_71/shopping-71.png", "name": "Calentadores solares GAIA", "opening_hours": {"open_now": false}, "photos": [{"height": 1302, "html_attributions": ["<a href=\"https://maps.google.com/maps/contrib/115056407295134330835\">A Google User</a>"], "photo_reference": "CmRaAAAA7OIBggv3XdYw0XC-zDTGQVTa9aQiaVQwr_nJOScONampUDE3jebr43w6Z2L-vhYlWefiZnxCHlnoIvAENctwIeC7dvRbVQ5fAIvbhcMUexczCEXFHWnZgcYoz0u9B9wDEhBJZQnP184J2eseUooMZLrMGhRudLabOxTb_WqBDhY9Cu5nhKRXtQ", "width": 750}], "place_id": "ChIJJQHhKZD90YURM2_b5kDhHbM", "plus_code": {"compound_code": "9W42+49 Mexico City", "global_code": "76F29W42+49"}, "rating": 5, "reference": "ChIJJQHhKZD90YURM2_b5kDhHbM", "types": ["home_goods_store", "point_of_interest", "store", "establishment"], "user_ratings_total": 1}, {"business_status": "OPERATIONAL", "formatted_address": "09840, Acamapichtli MZ9 LT1, Zona Urbana Ejidal los Reyes Culhuacan, Iztapalapa, Ciudad de M\u00e9xico, CDMX", "geometry": {"location": {"lat": 19.3475457, "lng": -99.10596249999999}, "viewport": {"northeast": {"lat": 19.34889567989272, "lng": -99.10461262010729}, "southwest": {"lat": 19.34619602010727, "lng": -99.10731227989272}}}, "icon": "https://maps.gstatic.com/mapfiles/place_api/icons/v1/png_71/shopping-71.png", "name": "Aluvic", "opening_hours": {"open_now": false}, "photos": [{"height": 4160, "html_attributions": ["<a href=\"https://maps.google.com/maps/contrib/110264027971003011565\">Aluvic</a>"], "photo_reference": "CmRaAAAAR1r4vRB2CwKJ_A2qGxmLvT63hm9Gl2l9JaQ_4jOoE-_nWMoA8RsHy_dE_diM8KJoLiQcKffO5enZqdlKbua6hyaWNVvRjt1VXFmRkDoSdyAhiSJp_Z2wY5XSxcyWiCWdEhDSEjZv-PJE9ABYGiMwpPDpGhQ-CPMR_DpbAVnirNQp9mW4ypMlMQ", "width": 3120}], "place_id": "ChIJnctxvAb-0YURN_XAiHs5nxQ", "plus_code": {"compound_code": "8VXV+2J Mexico City", "global_code": "76F28VXV+2J"}, "rating": 5, "reference": "ChIJnctxvAb-0YURN_XAiHs5nxQ", "types": ["home_goods_store", "point_of_interest", "store", "establishment"], "user_ratings_total": 2}, {"business_status": "OPERATIONAL", "formatted_address": "Av. Tlahuac 46, Santa Isabel Industrial, Iztapalapa, 09820 Ciudad de M\u00e9xico, CDMX", "geometry": {"location": {"lat": 19.3549514, "lng": -99.10563619999999}, "viewport": {"northeast": {"lat": 19.35631272989272, "lng": -99.10435507010727}, "southwest": {"lat": 19.35361307010728, "lng": -99.10705472989272}}}, "icon": "https://maps.gstatic.com/mapfiles/place_api/icons/v1/png_71/shopping-71.png", "name": "Vianney Iztapalapa", "opening_hours": {"open_now": false}, "photos": [{"height": 3072, "html_attributions": ["<a href=\"https://maps.google.com/maps/contrib/103303984605932301423\">Emmanuel Ch\u00e1vez Mayoral</a>"], "photo_reference": "CmRaAAAAlt9bhq8t5l0lc0LeIb-HujuNbKBacEEr6k_UJGBksnKtzkhaLcCz-QAJsSJMTVKi3Z73I3mEgQjWp65lbUVzHPv-AekN4ljSGxJYAXIwQwT5ls3YxFBzA91RHGMCNGksEhAas6kaG25lT7-D4dXut35wGhSwOgNXd7J4PJVcbATbAbpT-OJXeg", "width": 4096}], "place_id": "ChIJNwal2Aj-0YUR-PswkAjqeUQ", "plus_code": {"compound_code": "9V3V+XP Mexico City", "global_code": "76F29V3V+XP"}, "rating": 4, "reference": "ChIJNwal2Aj-0YUR-PswkAjqeUQ", "types": ["home_goods_store", "point_of_interest", "store", "establishment"], "user_ratings_total": 162}, {"business_status": "OPERATIONAL", "formatted_address": "Cda. Arroyo Tlaloc, Amp Ricardo Flores Mag\u00f3n, Iztapalapa, 09820 Ciudad de M\u00e9xico, CDMX", "geometry": {"location": {"lat": 19.351568, "lng": -99.101641}, "viewport": {"northeast": {"lat": 19.35290652989272, "lng": -99.10025782010729}, "southwest": {"lat": 19.35020687010728, "lng": -99.10295747989274}}}, "icon": "https://maps.gstatic.com/mapfiles/place_api/icons/v1/png_71/shopping-71.png", "name": "Toldo Tipo Carpa", "opening_hours": {"open_now": true}, "photos": [{"height": 3120, "html_attributions": ["<a href=\"https://maps.google.com/maps/contrib/107849302511439374050\">A Google User</a>"], "photo_reference": "CmRaAAAAdtQVUY3XMC8zt9rapa-cj4-XPp8j4uGjdiakRc5Tzu0_OB1xSsUzgL08B4W1PfI3R4iDe3KtzZVYg3NNnciqDWUZ_a8A96t4exSr6aVQZuXRGPqrRJ4sUuFIO24ibj6TEhAxlnkS-OlDuqffWZuxcu6NGhTnhSPaXIj2fk-12HVLAY0RKTErLg", "width": 4160}], "place_id": "ChIJB9XFTiv_0YURHKSublXBh-M", "plus_code": {"compound_code": "9V2X+J8 Mexico City", "global_code": "76F29V2X+J8"}, "rating": 0, "reference": "ChIJB9XFTiv_0YURHKSublXBh-M", "types": ["home_goods_store", "point_of_interest", "store", "establishment"], "user_ratings_total": 0}, {"business_status": "OPERATIONAL", "formatted_address": "Amp Ricardo Flores Mag\u00f3n, Iztapalapa, 09828 Mexico City", "geometry": {"location": {"lat": 19.3551103, "lng": -99.1023919}, "viewport": {"northeast": {"lat": 19.35653197989272, "lng": -99.10093322010728}, "southwest": {"lat": 19.35383232010728, "lng": -99.10363287989271}}}, "icon": "https://maps.gstatic.com/mapfiles/place_api/icons/v1/png_71/shopping-71.png", "name": "Colchas Concord", "opening_hours": {"open_now": false}, "place_id": "ChIJw96J1oD_0YUR0VMopd2NClQ", "plus_code": {"compound_code": "9V4X+22 Mexico City", "global_code": "76F29V4X+22"}, "rating": 0, "reference": "ChIJw96J1oD_0YUR0VMopd2NClQ", "types": ["home_goods_store", "point_of_interest", "store", "establishment"], "user_ratings_total": 0}, {"business_status": "OPERATIONAL", "formatted_address": "Puentetitla 24, Ricardo Flores Mag\u00f3n, Iztapalapa, 09820 Ciudad de M\u00e9xico, CDMX", "geometry": {"location": {"lat": 19.3546786, "lng": -99.09886449999999}, "viewport": {"northeast": {"lat": 19.35602582989272, "lng": -99.09750767010728}, "southwest": {"lat": 19.35332617010728, "lng": -99.10020732989273}}}, "icon": "https://maps.gstatic.com/mapfiles/place_api/icons/v1/png_71/shopping-71.png", "name": "U\u00f1as Silvia", "opening_hours": {"open_now": false}, "place_id": "ChIJ80QDpOP90YURI0Dlxcdc7k4", "plus_code": {"compound_code": "9W32+VF Mexico City", "global_code": "76F29W32+VF"}, "rating": 0, "reference": "ChIJ80QDpOP90YURI0Dlxcdc7k4", "types": ["home_goods_store", "point_of_interest", "store", "establishment"], "user_ratings_total": 0}, {"business_status": "OPERATIONAL", "formatted_address": "Av. Tlahuac 46, Santa Isabel Industrial, Iztapalapa, 09820 Ciudad de M\u00e9xico, CDMX", "geometry": {"location": {"lat": 19.3551769, "lng": -99.10565179999999}, "viewport": {"northeast": {"lat": 19.35641822989272, "lng": -99.10436317010728}, "southwest": {"lat": 19.35371857010728, "lng": -99.10706282989273}}}, "icon": "https://maps.gstatic.com/mapfiles/place_api/icons/v1/png_71/shopping-71.png", "name": "StanCasa Iztapalapa", "opening_hours": {"open_now": false}, "photos": [{"height": 4096, "html_attributions": ["<a href=\"https://maps.google.com/maps/contrib/103933801185938755819\">Paola Vlogs</a>"], "photo_reference": "CmRaAAAANKjGwW7rOlSYyXL9wT9HP6QeT_3_xr5XSrpuyI_BNi6-NPOOqBM22Dy8jWC0_Gz1Wozto9nQuxIMiMgnoEZH_aQ-M_oiC-w5bREdjNBv_mnhYpevGhHhoQqLvHdfCf2vEhAtXN--Nfp3B8-1YFW64qFLGhT4_YABnpCYwMm1V8GEBvYmyRtLwg", "width": 3072}], "place_id": "ChIJxeZy3Aj-0YURh9jWxT-zRsc", "plus_code": {"compound_code": "9V4V+3P Mexico City", "global_code": "76F29V4V+3P"}, "rating": 4.2, "reference": "ChIJxeZy3Aj-0YURh9jWxT-zRsc", "types": ["home_goods_store", "point_of_interest", "store", "establishment"], "user_ratings_total": 79}, {"business_status": "OPERATIONAL", "formatted_address": "Arroyo Tlaloc 112, Estrella del Sur, Iztapalapa, 09820 Ciudad de M\u00e9xico, CDMX", "geometry": {"location": {"lat": 19.3498418, "lng": -99.0977792}, "viewport": {"northeast": {"lat": 19.35122332989272, "lng": -99.09641932010727}, "southwest": {"lat": 19.34852367010728, "lng": -99.09911897989272}}}, "icon": "https://maps.gstatic.com/mapfiles/place_api/icons/v1/png_71/shopping-71.png", "name": "Canastas para PIC NIC Let's be free", "opening_hours": {"open_now": false}, "photos": [{"height": 2322, "html_attributions": ["<a href=\"https://maps.google.com/maps/contrib/114916554600093035484\">Maryesther Rivas</a>"], "photo_reference": "CmRaAAAA5CwiPMgBQLw5hpiDSxnVpMejNdjxtHjDIdaFustJEuyzeMq28y7kpr5mL1C_CNbcMMT7-8KdhvzGkGqpizXpt4eEljwxPfDgxsVkAv_ouGOSJ59hBnbxpLomR4exhfK-EhDubLJzky5V3lifePLH67_PGhT9sr6yptXN2BM9q3iSVLoTpY2bAg", "width": 4128}], "place_id": "ChIJl6NMODv90YURbwtqjPdpbnA", "plus_code": {"compound_code": "8WX2+WV Mexico City", "global_code": "76F28WX2+WV"}, "rating": 5, "reference": "ChIJl6NMODv90YURbwtqjPdpbnA", "types": ["home_goods_store", "point_of_interest", "store", "establishment"], "user_ratings_total": 1}, {"business_status": "OPERATIONAL", "formatted_address": "Av. Tlahuac 4, Santa Isabel Industrial, Iztapalapa, 09820 Ciudad de M\u00e9xico, CDMX", "geometry": {"location": {"lat": 19.3553206, "lng": -99.10564769999999}, "viewport": {"northeast": {"lat": 19.35667482989273, "lng": -99.10432507010728}, "southwest": {"lat": 19.35397517010728, "lng": -99.10702472989273}}}, "icon": "https://maps.gstatic.com/mapfiles/place_api/icons/v1/png_71/shopping-71.png", "name": "Colchas Concord", "photos": [{"height": 640, "html_attributions": ["<a href=\"https://maps.google.com/maps/contrib/103190307915745282871\">A Google User</a>"], "photo_reference": "CmRaAAAAav0GnNhh2bcpksvoGUDgxw_3MBKI6gxYr5FfOTq5jOeVVlTz23QSvFXBTlnyOYpc98tuN6EqM49A2b7egejWKmPo9h-5Xg2_v_Fku0iG1McJZM3P2P-00wmgmhsGcfOMEhDYoV75kzpctLzq0JJkYfplGhTtM0OFZBfRW23kbyt7NdALs9AgrA", "width": 640}], "place_id": "ChIJhWdVHwn-0YUR1MEUMGBLcdE", "plus_code": {"compound_code": "9V4V+4P Mexico City", "global_code": "76F29V4V+4P"}, "rating": 4.1, "reference": "ChIJhWdVHwn-0YUR1MEUMGBLcdE", "types": ["home_goods_store", "point_of_interest", "store", "establishment"], "user_ratings_total": 7}, {"business_status": "OPERATIONAL", "formatted_address": "09000, Ermita Iztapalapa 856 862, Sta B\u00e1rbara, Iztapalapa, 09000 Ciudad de M\u00e9xico, CDMX", "geometry": {"location": {"lat": 19.3561342, "lng": -99.10470280000001}, "viewport": {"northeast": {"lat": 19.35744837989272, "lng": -99.10335627010728}, "southwest": {"lat": 19.35474872010728, "lng": -99.10605592989272}}}, "icon": "https://maps.gstatic.com/mapfiles/place_api/icons/v1/png_71/shopping-71.png", "name": "Saldos Y Remates \"como Lo Vio En TV\"", "opening_hours": {"open_now": false}, "photos": [{"height": 4160, "html_attributions": ["<a href=\"https://maps.google.com/maps/contrib/109899222946260965108\">A Google User</a>"], "photo_reference": "CmRaAAAA-wvxR1B3fitKGFlMXCSh_JAcTNIv_rtxPiIF0RiZAnMlH_vaVsRyRcQdngqFJ4ucEgeVAar6KnvIWyViv6ZdpmzmKVsYSq8HZSEVmlBqXymljiNdbm0KG4FLY9Ae_FxcEhDrouL-xvFFYacwW7ycYzpjGhQvV6D29lg9Pfw8ntFDJYQLxDqnqw", "width": 3120}], "place_id": "ChIJ3xO-Dwn-0YUReY2J0S5dNEg", "plus_code": {"compound_code": "9V4W+F4 Mexico City", "global_code": "76F29V4W+F4"}, "rating": 4.4, "reference": "ChIJ3xO-Dwn-0YUReY2J0S5dNEg", "types": ["home_goods_store", "point_of_interest", "store", "establishment"], "user_ratings_total": 9}, {"business_status": "OPERATIONAL", "formatted_address": "Camino Antiguo a Culhuacan 120, Amp Ricardo Flores Mag\u00f3n, Iztapalapa, 09828 Ciudad de M\u00e9xico, CDMX", "geometry": {"location": {"lat": 19.3522071, "lng": -99.1028353}, "viewport": {"northeast": {"lat": 19.35357457989272, "lng": -99.10154277010729}, "southwest": {"lat": 19.35087492010728, "lng": -99.10424242989272}}}, "icon": "https://maps.gstatic.com/mapfiles/place_api/icons/v1/png_71/shopping-71.png", "name": "Distribuidora Musical Internacional", "place_id": "ChIJCX_YGjD_0YURTmprFzXnojU", "plus_code": {"compound_code": "9V2W+VV Mexico City", "global_code": "76F29V2W+VV"}, "rating": 0, "reference": "ChIJCX_YGjD_0YURTmprFzXnojU", "types": ["home_goods_store", "point_of_interest", "store", "establishment"], "user_ratings_total": 0}, {"business_status": "OPERATIONAL", "formatted_address": "Primer Callej\u00f3n de Gral. Anaya 8, Sta B\u00e1rbara, Iztapalapa, 09000 Ciudad de M\u00e9xico, CDMX", "geometry": {"location": {"lat": 19.3572134, "lng": -99.10206149999999}, "viewport": {"northeast": {"lat": 19.35855072989272, "lng": -99.10071502010727}, "southwest": {"lat": 19.35585107010728, "lng": -99.10341467989272}}}, "icon": "https://maps.gstatic.com/mapfiles/place_api/icons/v1/png_71/shopping-71.png", "name": "JARCERIA", "opening_hours": {"open_now": false}, "place_id": "ChIJ9Zum6An-0YUR6N4hy1YEGsM", "plus_code": {"compound_code": "9V4X+V5 Mexico City", "global_code": "76F29V4X+V5"}, "rating": 0, "reference": "ChIJ9Zum6An-0YUR6N4hy1YEGsM", "types": ["home_goods_store", "point_of_interest", "store", "establishment"], "user_ratings_total": 0}, {"business_status": "OPERATIONAL", "formatted_address": "Campesinos 296 local B esq, Av. Arneses, Minerva, Iztapalapa, 09810 Ciudad de M\u00e9xico, CDMX", "geometry": {"location": {"lat": 19.3530669, "lng": -99.1103842}, "viewport": {"northeast": {"lat": 19.35441972989272, "lng": -99.10909467010728}, "southwest": {"lat": 19.35172007010728, "lng": -99.11179432989273}}}, "icon": "https://maps.gstatic.com/mapfiles/place_api/icons/v1/png_71/shopping-71.png", "name": "Canceles Olvera", "opening_hours": {"open_now": false}, "photos": [{"height": 912, "html_attributions": ["<a href=\"https://maps.google.com/maps/contrib/114547499205470705858\">A Google User</a>"], "photo_reference": "CmRaAAAA770j2Qg-tTupObfia6cwRaeI6rXXtCS6tG4HmrrlDghH_IjhO-6wUOJfzfJggkvZmSRQ3uIvomJctLq-KuQN_4acDwYfb26lEVSSsgNvZKjZcYokUwbuG6JxkmtmgtkVEhCQWHtRTUcDGwi317NnhCNIGhQ62Ip9qlojvLfGFFQ7bGjlNFvTww", "width": 1280}], "place_id": "ChIJb90iQgH_0YUReShEqrbzzxU", "plus_code": {"compound_code": "9V3Q+6R Mexico City", "global_code": "76F29V3Q+6R"}, "rating": 4.5, "reference": "ChIJb90iQgH_0YUReShEqrbzzxU", "types": ["home_goods_store", "point_of_interest", "store", "establishment"], "user_ratings_total": 4}]