[{"business_status": "OPERATIONAL", "geometry": {"location": {"lat": 19.350681, "lng": -99.1027572}, "viewport": {"northeast": {"lat": 19.3521301802915, "lng": -99.10174296970848}, "southwest": {"lat": 19.3494322197085, "lng": -99.1044409302915}}}, "icon": "https://maps.gstatic.com/mapfiles/place_api/icons/v1/png_71/shopping-71.png", "name": "Comercializadora y Ferreter\u00eda Shuma", "opening_hours": {"open_now": false}, "place_id": "ChIJm6riqgf-0YURy9Atzw-Uovs", "plus_code": {"compound_code": "9V2W+7V Mexico City, CDMX, Mexico", "global_code": "76F29V2W+7V"}, "rating": 3.9, "reference": "ChIJm6riqgf-0YURy9Atzw-Uovs", "scope": "GOOGLE", "types": ["home_goods_store", "point_of_interest", "store", "establishment"], "user_ratings_total": 17, "vicinity": "Camino Antiguo a Culhuacan 160, Estrella del Sur, Ciudad de M\u00e9xico"}, {"business_status": "OPERATIONAL", "geometry": {"location": {"lat": 19.3511082, "lng": -99.1034524}, "viewport": {"northeast": {"lat": 19.3524433302915, "lng": -99.1020570697085}, "southwest": {"lat": 19.3497453697085, "lng": -99.1047550302915}}}, "icon": "https://maps.gstatic.com/mapfiles/place_api/icons/v1/png_71/shopping-71.png", "name": "F & F Wood Specialists, S.A. De C.V.", "opening_hours": {"open_now": false}, "photos": [{"height": 1200, "html_attributions": ["<a href=\"https://maps.google.com/maps/contrib/109604562740581178486\">F &amp; F Especialistas En Madera, S.A. De C.V.</a>"], "photo_reference": "CmRaAAAAIWPOfgzVuZ6wny04nma5f5G6QY_ADZV_MCMoD1KHwA-Byh1AiU1O18eaU2mrte0lUs2xCVPb3jMqU7e5NCDSrp64INaVIcWCqU4iRU0iVmpDlcvWELqZ77DL1VRLzKZVEhDLd42oEy3HHREWGu4Y8uVlGhRkT55FSKI6BHWJo7SikRKQejs0LQ", "width": 803}], "place_id": "ChIJP4f6Zgb-0YURyx_eCHHEcR0", "plus_code": {"compound_code": "9V2W+CJ Mexico City, CDMX, Mexico", "global_code": "76F29V2W+CJ"}, "rating": 3.9, "reference": "ChIJP4f6Zgb-0YURyx_eCHHEcR0", "scope": "GOOGLE", "types": ["furniture_store", "home_goods_store", "point_of_interest", "store", "establishment"], "user_ratings_total": 65, "vicinity": "Camino Antiguo a Culhuacan 141 - 1, Santa Isabel Industrial, Ciudad de M\u00e9xico"}, {"business_status": "OPERATIONAL", "geometry": {"location": {"lat": 19.3519703, "lng": -99.1045695}, "viewport": {"northeast": {"lat": 19.3532815302915, "lng": -99.1031500197085}, "southwest": {"lat": 19.3505835697085, "lng": -99.1058479802915}}}, "icon": "https://maps.gstatic.com/mapfiles/place_api/icons/v1/png_71/shopping-71.png", "name": "Compa\u00f1ia Industrial Ceima Rattan Sa De Cv", "place_id": "ChIJs3OvLgb-0YURmKpcZdW4pgg", "plus_code": {"compound_code": "9V2W+Q5 Mexico City, CDMX, Mexico", "global_code": "76F29V2W+Q5"}, "rating": 4, "reference": "ChIJs3OvLgb-0YURmKpcZdW4pgg", "scope": "GOOGLE", "types": ["furniture_store", "home_goods_store", "point_of_interest", "store", "establishment"], "user_ratings_total": 4, "vicinity": "Arroz 115, Santa Isabel Industrial, Ciudad de M\u00e9xico"}, {"business_status": "OPERATIONAL", "geometry": {"location": {"lat": 19.35083329999999, "lng": -99.1027778}, "viewport": {"northeast": {"lat": 19.3522727302915, "lng": -99.10173091970849}, "southwest": {"lat": 19.34957476970849, "lng": -99.10442888029151}}}, "icon": "https://maps.gstatic.com/mapfiles/place_api/icons/v1/png_71/shopping-71.png", "name": "Muebles Monaco", "opening_hours": {"open_now": false}, "photos": [{"height": 2560, "html_attributions": ["<a href=\"https://maps.google.com/maps/contrib/101403928826192279758\">Miguel Angel Cruz Ortiz</a>"], "photo_reference": "CmRaAAAAdETu510uXHbNe_MNgfvzJ_-cQrcJ-o-nQLr0W_COm2TikIL_8FxgRgQ7pu0lNWOb0EIGspIdjFoh4FcSNMO1sOv7cpklf8PkykXDtLxqtH1ze88TC3R3WhRPWgBmVHPJEhCiEqznq7tA-LTYutU6tYlzGhQu2mmRD-il-32I_MbQiqXFGM2qZg", "width": 1536}], "place_id": "ChIJC_gFqwf-0YUR_iZ6kU8u4qc", "plus_code": {"compound_code": "9V2W+8V Mexico City, CDMX, Mexico", "global_code": "76F29V2W+8V"}, "rating": 4.1, "reference": "ChIJC_gFqwf-0YUR_iZ6kU8u4qc", "scope": "GOOGLE", "types": ["furniture_store", "home_goods_store", "point_of_interest", "store", "establishment"], "user_ratings_total": 78, "vicinity": "Camino Antiguo a Culhuacan 146, Estrella del Sur, Ciudad de M\u00e9xico"}, {"business_status": "OPERATIONAL", "geometry": {"location": {"lat": 19.3536644, "lng": -99.1032997}, "viewport": {"northeast": {"lat": 19.35503318029151, "lng": -99.10199206970849}, "southwest": {"lat": 19.3523352197085, "lng": -99.10469003029151}}}, "icon": "https://maps.gstatic.com/mapfiles/place_api/icons/v1/png_71/shopping-71.png", "name": "Industrias Llordec", "place_id": "ChIJsR-GaAj-0YURbX5bIHn-rHs", "plus_code": {"compound_code": "9V3W+FM Mexico City, CDMX, Mexico", "global_code": "76F29V3W+FM"}, "reference": "ChIJsR-GaAj-0YURbX5bIHn-rHs", "scope": "GOOGLE", "types": ["furniture_store", "home_goods_store", "point_of_interest", "store", "establishment"], "vicinity": "Arroz 56, Ciudad de M\u00e9xico"}, {"business_status": "OPERATIONAL", "geometry": {"location": {"lat": 19.3527792, "lng": -99.1038337}, "viewport": {"northeast": {"lat": 19.3541443802915, "lng": -99.10251766970848}, "southwest": {"lat": 19.3514464197085, "lng": -99.1052156302915}}}, "icon": "https://maps.gstatic.com/mapfiles/place_api/icons/v1/png_71/shopping-71.png", "name": "Janel Planta Arroz.", "photos": [{"height": 3136, "html_attributions": ["<a href=\"https://maps.google.com/maps/contrib/105362987384898225424\">RAUL TORRES CARRANZA</a>"], "photo_reference": "CmRaAAAAkJ96b4KqX4dXt0EVso-XoH2iwlujJTtyOYNtTq1ByGLTyKGlXysfzYP0nnFXjP_iWXaAd9_SKMJxl6R-1e39V1EmXMGA8f8GfMNy2tGcCLJ2jdimwS1AbWp1HmMOQ8RAEhDKZ5aQZ5OC7af09UAbVKfWGhTGtNjOz3HFIIyoqQGq7urLPt-mzQ", "width": 4224}], "place_id": "ChIJpUsifAj-0YURYohGUT7gKWo", "plus_code": {"compound_code": "9V3W+4F Mexico City, CDMX, Mexico", "global_code": "76F29V3W+4F"}, "rating": 3.7, "reference": "ChIJpUsifAj-0YURYohGUT7gKWo", "scope": "GOOGLE", "types": ["home_goods_store", "point_of_interest", "store", "establishment"], "user_ratings_total": 14, "vicinity": "Arroz 90, Santa Isabel Industrial, Ciudad de M\u00e9xico"}, {"business_status": "OPERATIONAL", "geometry": {"location": {"lat": 19.3486727, "lng": -99.1043706}, "viewport": {"northeast": {"lat": 19.3500092302915, "lng": -99.1029926197085}, "southwest": {"lat": 19.3473112697085, "lng": -99.10569058029151}}}, "icon": "https://maps.gstatic.com/mapfiles/place_api/icons/v1/png_71/shopping-71.png", "name": "Iluminaci\u00f3n y Suministros El\u00e9ctricos", "place_id": "ChIJFZQ14wb-0YURKpWrdUH6i2I", "plus_code": {"compound_code": "8VXW+F7 Mexico City, CDMX, Mexico", "global_code": "76F28VXW+F7"}, "rating": 5, "reference": "ChIJFZQ14wb-0YURKpWrdUH6i2I", "scope": "GOOGLE", "types": ["home_goods_store", "point_of_interest", "store", "establishment"], "user_ratings_total": 1, "vicinity": "Antiguo Camino a Culhuac\u00e1n 239, Santa Isabel Industrial, Ciudad de M\u00e9xico"}, {"business_status": "OPERATIONAL", "geometry": {"location": {"lat": 19.354402, "lng": -99.104564}, "viewport": {"northeast": {"lat": 19.3557111302915, "lng": -99.10322231970851}, "southwest": {"lat": 19.3530131697085, "lng": -99.10592028029151}}}, "icon": "https://maps.gstatic.com/mapfiles/place_api/icons/v1/png_71/shopping-71.png", "name": "Mega Tableros Sa De Cv", "opening_hours": {"open_now": false}, "photos": [{"height": 640, "html_attributions": ["<a href=\"https://maps.google.com/maps/contrib/108178603444964757753\">Mega Tableros Sa De Cv</a>"], "photo_reference": "CmRaAAAAoMXSKNUD9LaEOCitJcDBdXF00-f-peonPhq81NqWmFtyBzoZnpnBx-zupDdrDMciDFwsfOxZfk2idUk8JVKVucIq96fpSP7hBb4H9aL_AILaGjVxkQg9kU4EBkUwvrfpEhDg64F45c2rVAJ3aKyJRc7YGhQLxgOjNKnaKZISNoqSmKYqf8N9vQ", "width": 480}], "place_id": "ChIJwXwyvQD_0YURFPcAF1zHHqI", "plus_code": {"compound_code": "9V3W+Q5 Mexico City, CDMX, Mexico", "global_code": "76F29V3W+Q5"}, "rating": 4.5, "reference": "ChIJwXwyvQD_0YURFPcAF1zHHqI", "scope": "GOOGLE", "types": ["home_goods_store", "general_contractor", "point_of_interest", "store", "establishment"], "user_ratings_total": 10, "vicinity": "Pastores 40, Santa Isabel Industrial, Ciudad de M\u00e9xico"}, {"business_status": "OPERATIONAL", "geometry": {"location": {"lat": 19.348683, "lng": -99.1043959}, "viewport": {"northeast": {"lat": 19.3500138302915, "lng": -99.1030047197085}, "southwest": {"lat": 19.3473158697085, "lng": -99.10570268029151}}}, "icon": "https://maps.gstatic.com/mapfiles/place_api/icons/v1/png_71/shopping-71.png", "name": "Industria Nacional De Alumbrado Y Herrajes, S.A. De C.V.", "opening_hours": {"open_now": false}, "photos": [{"height": 2592, "html_attributions": ["<a href=\"https://maps.google.com/maps/contrib/103765783671581432688\">Sixto V L\u00f3pez</a>"], "photo_reference": "CmRaAAAAMvtisgJzlZMEicqppa5fb_YyxJyrTEyzn8gOVV7SHMxpUu_3O2BHomBx4Qs8ZBQwofdPjHY3JUnpt5fhFRaKLbGrj0fixQ5X9FEeFdsyrrcEhaKi250O18Gjg_hoQxuOEhCMiVzw4yBn3w-sY1dgDA96GhQfRctJtlPEnOWoUEMAha7_rufjfQ", "width": 4608}], "place_id": "ChIJFZQ14wb-0YURnMMilgKv76M", "plus_code": {"compound_code": "8VXW+F6 Mexico City, CDMX, Mexico", "global_code": "76F28VXW+F6"}, "rating": 3.6, "reference": "ChIJFZQ14wb-0YURnMMilgKv76M", "scope": "GOOGLE", "types": ["home_goods_store", "point_of_interest", "store", "establishment"], "user_ratings_total": 12, "vicinity": "Camino Antiguo a Culhuacan 239, Santa Isabel Industrial, Ciudad de M\u00e9xico"}, {"business_status": "OPERATIONAL", "geometry": {"location": {"lat": 19.354316, "lng": -99.101073}, "viewport": {"northeast": {"lat": 19.3556701802915, "lng": -99.09972306970849}, "southwest": {"lat": 19.35297221970849, "lng": -99.1024210302915}}}, "icon": "https://maps.gstatic.com/mapfiles/place_api/icons/v1/png_71/shopping-71.png", "name": "MODATELAS", "opening_hours": {"open_now": true}, "place_id": "ChIJC2YcMgj-0YURjLE2ijjAN8g", "plus_code": {"compound_code": "9V3X+PH Mexico City, CDMX, Mexico", "global_code": "76F29V3X+PH"}, "rating": 2.5, "reference": "ChIJC2YcMgj-0YURjLE2ijjAN8g", "scope": "GOOGLE", "types": ["home_goods_store", "point_of_interest", "store", "establishment"], "user_ratings_total": 2, "vicinity": "Xiuhamatl, Santa Isabel Industrial, Ciudad de M\u00e9xico"}, {"business_status": "OPERATIONAL", "geometry": {"location": {"lat": 19.351568, "lng": -99.101641}, "viewport": {"northeast": {"lat": 19.3529056802915, "lng": -99.10025866970851}, "southwest": {"lat": 19.3502077197085, "lng": -99.10295663029152}}}, "icon": "https://maps.gstatic.com/mapfiles/place_api/icons/v1/png_71/shopping-71.png", "name": "Toldo Tipo Carpa", "opening_hours": {"open_now": false}, "photos": [{"height": 3120, "html_attributions": ["<a href=\"https://maps.google.com/maps/contrib/107849302511439374050\">Erick Jimenez</a>"], "photo_reference": "CmRaAAAAEXgpqM4D0UWnZ32T5KjRelfh781Kp_XdxYRR3PKGOhWYwU98pGvfh8CeS2ckMWIl-0pr2leJrhdn0nzM5MJG1hPXyZvWSGTscbb08x5kD19jj92IHR9eQM9REZlj7LGtEhB96bcm6HvQdlXYeL1ARswdGhQNpwmMJHjppR17ndd8yrnmP-6iAQ", "width": 4160}], "place_id": "ChIJB9XFTiv_0YURHKSublXBh-M", "plus_code": {"compound_code": "9V2X+J8 Mexico City, CDMX, Mexico", "global_code": "76F29V2X+J8"}, "reference": "ChIJB9XFTiv_0YURHKSublXBh-M", "scope": "GOOGLE", "types": ["home_goods_store", "point_of_interest", "store", "establishment"], "vicinity": "Cerrada Arroyo Tlaloc, Ampliaci\u00f3n Ricardo Flores Mag\u00f3n, Ciudad de M\u00e9xico"}, {"business_status": "OPERATIONAL", "geometry": {"location": {"lat": 19.35220709999999, "lng": -99.1028353}, "viewport": {"northeast": {"lat": 19.3535737302915, "lng": -99.1015436197085}, "southwest": {"lat": 19.35087576970849, "lng": -99.10424158029151}}}, "icon": "https://maps.gstatic.com/mapfiles/place_api/icons/v1/png_71/shopping-71.png", "name": "Distribuidora Musical Internacional", "place_id": "ChIJCX_YGjD_0YURTmprFzXnojU", "plus_code": {"compound_code": "9V2W+VV Mexico City, CDMX, Mexico", "global_code": "76F29V2W+VV"}, "reference": "ChIJCX_YGjD_0YURTmprFzXnojU", "scope": "GOOGLE", "types": ["home_goods_store", "point_of_interest", "store", "establishment"], "vicinity": "Camino Antiguo a Culhuacan 120, Ampliaci\u00f3n Ricardo Flores Mag\u00f3n, Ciudad de M\u00e9xico"}, {"business_status": "OPERATIONAL", "geometry": {"location": {"lat": 19.3522377, "lng": -99.09999739999999}, "viewport": {"northeast": {"lat": 19.3535745302915, "lng": -99.0986162697085}, "southwest": {"lat": 19.3508765697085, "lng": -99.1013142302915}}}, "icon": "https://maps.gstatic.com/mapfiles/place_api/icons/v1/png_71/shopping-71.png", "name": "Psicofonias Records", "opening_hours": {"open_now": true}, "place_id": "ChIJw9oDSv390YURBpPVpQnslq8", "plus_code": {"compound_code": "9W22+V2 Mexico City, CDMX, Mexico", "global_code": "76F29W22+V2"}, "reference": "ChIJw9oDSv390YURBpPVpQnslq8", "scope": "GOOGLE", "types": ["electronics_store", "home_goods_store", "point_of_interest", "store", "establishment"], "vicinity": "Puentetitla 95, Ampliaci\u00f3n Ricardo Flores Mag\u00f3n, Ciudad de M\u00e9xico"}, {"business_status": "OPERATIONAL", "geometry": {"location": {"lat": 19.352977, "lng": -99.0996174}, "viewport": {"northeast": {"lat": 19.3543371802915, "lng": -99.0982996197085}, "southwest": {"lat": 19.3516392197085, "lng": -99.1009975802915}}}, "icon": "https://maps.gstatic.com/mapfiles/place_api/icons/v1/png_71/shopping-71.png", "name": "Mi Fer Materias Primas", "opening_hours": {"open_now": false}, "place_id": "ChIJT060_ab90YUR2R3Azu9lsIE", "plus_code": {"compound_code": "9W32+55 Mexico City, CDMX, Mexico", "global_code": "76F29W32+55"}, "rating": 4, "reference": "ChIJT060_ab90YUR2R3Azu9lsIE", "scope": "GOOGLE", "types": ["home_goods_store", "point_of_interest", "store", "establishment"], "user_ratings_total": 2, "vicinity": "Puentetitla 56 B, Ampliaci\u00f3n Ricardo Flores Mag\u00f3n, Ciudad de M\u00e9xico"}, {"business_status": "OPERATIONAL", "geometry": {"location": {"lat": 19.3533184, "lng": -99.0994837}, "viewport": {"northeast": {"lat": 19.3546726302915, "lng": -99.09814826970849}, "southwest": {"lat": 19.3519746697085, "lng": -99.1008462302915}}}, "icon": "https://maps.gstatic.com/mapfiles/place_api/icons/v1/png_71/shopping-71.png", "name": "Materias Primas", "opening_hours": {"open_now": false}, "place_id": "ChIJoeJ6z-L90YURYRFLvbDOUGU", "plus_code": {"compound_code": "9W32+86 Mexico City, CDMX, Mexico", "global_code": "76F29W32+86"}, "rating": 5, "reference": "ChIJoeJ6z-L90YURYRFLvbDOUGU", "scope": "GOOGLE", "types": ["home_goods_store", "point_of_interest", "store", "establishment"], "user_ratings_total": 1, "vicinity": "Puentetitla 66B, Ricardo Flores Mag\u00f3n, Ciudad de M\u00e9xico"}, {"business_status": "OPERATIONAL", "geometry": {"location": {"lat": 19.3529636, "lng": -99.0991255}, "viewport": {"northeast": {"lat": 19.3542960302915, "lng": -99.09778981970848}, "southwest": {"lat": 19.3515980697085, "lng": -99.1004877802915}}}, "icon": "https://maps.gstatic.com/mapfiles/place_api/icons/v1/png_71/shopping-71.png", "name": "Pa\u00f1ales Dani", "opening_hours": {"open_now": false}, "place_id": "ChIJw7_BtAP90YURpELT6zZeC00", "plus_code": {"compound_code": "9W32+58 Mexico City, CDMX, Mexico", "global_code": "76F29W32+58"}, "reference": "ChIJw7_BtAP90YURpELT6zZeC00", "scope": "GOOGLE", "types": ["home_goods_store", "point_of_interest", "store", "establishment"], "vicinity": "Avenida Estrella 11, Iztapalapa, Ciudad de M\u00e9xico"}, {"business_status": "OPERATIONAL", "geometry": {"location": {"lat": 19.3518255, "lng": -99.098582}, "viewport": {"northeast": {"lat": 19.35317288029151, "lng": -99.0972280197085}, "southwest": {"lat": 19.3504749197085, "lng": -99.0999259802915}}}, "icon": "https://maps.gstatic.com/mapfiles/place_api/icons/v1/png_71/shopping-71.png", "name": "Cristaler\u00eda Orozco", "opening_hours": {"open_now": false}, "place_id": "ChIJew512Pz90YURzrgeQDqcJQI", "plus_code": {"compound_code": "9W22+PH Mexico City, CDMX, Mexico", "global_code": "76F29W22+PH"}, "reference": "ChIJew512Pz90YURzrgeQDqcJQI", "scope": "GOOGLE", "types": ["home_goods_store", "point_of_interest", "store", "establishment"], "vicinity": "Xochiquetzal 9 76, Estrella del Sur, Ciudad de M\u00e9xico"}, {"business_status": "OPERATIONAL", "geometry": {"location": {"lat": 19.354208, "lng": -99.10048450000001}, "viewport": {"northeast": {"lat": 19.3555262302915, "lng": -99.0991283197085}, "southwest": {"lat": 19.3528282697085, "lng": -99.1018262802915}}}, "icon": "https://maps.gstatic.com/mapfiles/place_api/icons/v1/png_71/shopping-71.png", "name": "VENTA DE ILUMINACI\u00d3N", "opening_hours": {"open_now": true}, "photos": [{"height": 417, "html_attributions": ["<a href=\"https://maps.google.com/maps/contrib/107998115023009331866\">Materiales El\u00e9ctricos Taxque\u00f1a</a>"], "photo_reference": "CmRaAAAA4bKv4YLEUh8EyFPtD6E8Olu3McBFqqd9qPcmXHioz2L8gqBCyQu3PslcaRAv-bEhc0r1xrQAuhfIL5Wj5YYV8qjli8PHiK3Vric-iYdSOYrLuNbU0YSJ8F_5fX6jtb3TEhCAjGZ2OXmMVcAMESjKeRRfGhQ0O30wy76YTkDDEfuQ6jaRC_WFZw", "width": 566}], "place_id": "ChIJcWsGagj90YURGLNHxvKlmw0", "plus_code": {"compound_code": "9V3X+MR Mexico City, CDMX, Mexico", "global_code": "76F29V3X+MR"}, "reference": "ChIJcWsGagj90YURGLNHxvKlmw0", "scope": "GOOGLE", "types": ["home_goods_store", "point_of_interest", "store", "establishment"], "vicinity": "Ampliaci\u00f3n Ricardo Flores Mag\u00f3n, Ciudad de M\u00e9xico"}, {"business_status": "OPERATIONAL", "geometry": {"location": {"lat": 19.3523351, "lng": -99.1049352}, "viewport": {"northeast": {"lat": 19.3536418302915, "lng": -99.10356526970848}, "southwest": {"lat": 19.3509438697085, "lng": -99.1062632302915}}}, "icon": "https://maps.gstatic.com/mapfiles/place_api/icons/v1/png_71/shopping-71.png", "name": "Distrbuidora y Comercializadora de Textiles", "place_id": "ChIJExpinQj-0YURfWkA6KK9r1M", "plus_code": {"compound_code": "9V2W+W2 Mexico City, CDMX, Mexico", "global_code": "76F29V2W+W2"}, "reference": "ChIJExpinQj-0YURfWkA6KK9r1M", "scope": "GOOGLE", "types": ["home_goods_store", "point_of_interest", "store", "establishment"], "vicinity": "Campesinos 406, Santa Isabel Industrial, Ciudad de M\u00e9xico"}, {"business_status": "OPERATIONAL", "geometry": {"location": {"lat": 19.3523453, "lng": -99.10493389999999}, "viewport": {"northeast": {"lat": 19.3536504802915, "lng": -99.10359276970848}, "southwest": {"lat": 19.3509525197085, "lng": -99.10629073029149}}}, "icon": "https://maps.gstatic.com/mapfiles/place_api/icons/v1/png_71/shopping-71.png", "name": "Textiles Lega Sa De Cv", "place_id": "ChIJgcr1Jwb-0YUReiAwJ9cNwQM", "plus_code": {"compound_code": "9V2W+W2 Mexico City, CDMX, Mexico", "global_code": "76F29V2W+W2"}, "reference": "ChIJgcr1Jwb-0YUReiAwJ9cNwQM", "scope": "GOOGLE", "types": ["home_goods_store", "point_of_interest", "store", "establishment"], "vicinity": "Campesinos 406, Santa Isabel Industrial, Ciudad de M\u00e9xico"}]