[{"business_status": "OPERATIONAL", "formatted_address": "Ju\u00e1rez 404, San Lorenzo, 56180 Nezahualc\u00f3yotl, M\u00e9x.", "geometry": {"location": {"lat": 19.3746684, "lng": -99.0039438}, "viewport": {"northeast": {"lat": 19.37602832989272, "lng": -99.00258737010728}, "southwest": {"lat": 19.37332867010727, "lng": -99.00528702989273}}}, "icon": "https://maps.gstatic.com/mapfiles/place_api/icons/v1/png_71/civic_building-71.png", "name": "Gobierno del Estado", "place_id": "ChIJ4TLu0cji0YURz8P_WzCGJv0", "rating": 0, "reference": "ChIJ4TLu0cji0YURz8P_WzCGJv0", "types": ["local_government_office", "point_of_interest", "establishment"], "user_ratings_total": 0}, {"business_status": "OPERATIONAL", "formatted_address": "Domicilio Conocido S/n, Calica, Centro, Iztapalapa, 77710 Playa del Carmen, Q.R.", "geometry": {"location": {"lat": 19.3509003, "lng": -98.9956928}, "viewport": {"northeast": {"lat": 19.35225377989272, "lng": -98.99437542010727}, "southwest": {"lat": 19.34955412010728, "lng": -98.99707507989272}}}, "icon": "https://maps.gstatic.com/mapfiles/place_api/icons/v1/png_71/civic_building-71.png", "name": "Ayunatamiento Oficina del Desarrollo Economico", "place_id": "ChIJNboTT6Hi0YURdg9qc7F33YY", "rating": 0, "reference": "ChIJNboTT6Hi0YURdg9qc7F33YY", "types": ["local_government_office", "point_of_interest", "establishment"], "user_ratings_total": 0}, {"business_status": "OPERATIONAL", "formatted_address": "Chihuahua 44, San Sebasti\u00e1n Tecoloxtitla, Iztapalapa, 09250 Ciudad de M\u00e9xico, CDMX", "geometry": {"location": {"lat": 19.3626686, "lng": -99.01698239999999}, "viewport": {"northeast": {"lat": 19.36398562989272, "lng": -99.01564017010728}, "southwest": {"lat": 19.36128597010728, "lng": -99.01833982989271}}}, "icon": "https://maps.gstatic.com/mapfiles/place_api/icons/v1/png_71/civic_building-71.png", "name": "Asociacion Civil Filantropica y Educativa A.C.", "place_id": "ChIJYx-7ikv90YURu9o34WnTSlg", "plus_code": {"compound_code": "9X7M+36 Mexico City", "global_code": "76F29X7M+36"}, "rating": 4, "reference": "ChIJYx-7ikv90YURu9o34WnTSlg", "types": ["local_government_office", "point_of_interest", "establishment"], "user_ratings_total": 1}, {"business_status": "OPERATIONAL", "formatted_address": "Av. Canal de San Juan S/n, Tepalcates, Iztapalapa, 09210 Ciudad de M\u00e9xico, CDMX", "geometry": {"location": {"lat": 19.3944003, "lng": -99.05799429999999}, "viewport": {"northeast": {"lat": 19.39583622989272, "lng": -99.05705447010727}, "southwest": {"lat": 19.39313657010728, "lng": -99.05975412989272}}}, "icon": "https://maps.gstatic.com/mapfiles/place_api/icons/v1/png_71/civic_building-71.png", "name": "Ssp Gobierno", "place_id": "ChIJvXO2wFX80YURxI2bxDUqqsk", "plus_code": {"compound_code": "9WVR+QR Mexico City", "global_code": "76F29WVR+QR"}, "rating": 0, "reference": "ChIJvXO2wFX80YURxI2bxDUqqsk", "types": ["local_government_office", "point_of_interest", "establishment"], "user_ratings_total": 0}, {"business_status": "OPERATIONAL", "formatted_address": "Calz. Ignacio Zaragoza 2835, Santa Martha Acatitla, Iztapalapa, 09100 Ciudad de M\u00e9xico, CDMX", "geometry": {"location": {"lat": 19.3902866, "lng": -99.0440947}, "viewport": {"northeast": {"lat": 19.39163067989272, "lng": -99.04274852010728}, "southwest": {"lat": 19.38893102010728, "lng": -99.04544817989272}}}, "icon": "https://maps.gstatic.com/mapfiles/place_api/icons/v1/png_71/civic_building-71.png", "name": "Gobierno Dependencia Ju\u00e1rez", "place_id": "ChIJKTyTZB390YURi_Hq7CdbvFA", "plus_code": {"compound_code": "9XR4+49 Mexico City", "global_code": "76F29XR4+49"}, "rating": 4, "reference": "ChIJKTyTZB390YURi_Hq7CdbvFA", "types": ["local_government_office", "point_of_interest", "establishment"], "user_ratings_total": 1}, {"business_status": "OPERATIONAL", "formatted_address": "Cda. Ermita Iztapalapa 3399, Santa Mar\u00eda Atahuac\u00e1n, Iztapalapa, 09500 Ciudad de M\u00e9xico, CDMX", "geometry": {"location": {"lat": 19.3431842, "lng": -99.0473442}, "viewport": {"northeast": {"lat": 19.34453592989272, "lng": -99.0461032701073}, "southwest": {"lat": 19.34183627010728, "lng": -99.04880292989273}}}, "icon": "https://maps.gstatic.com/mapfiles/place_api/icons/v1/png_71/civic_building-71.png", "name": "Transporte de Agua Potable", "place_id": "ChIJ7ZLKTJ0CzoURIGKrdHNPSFE", "plus_code": {"compound_code": "8XV3+73 Mexico City", "global_code": "76F28XV3+73"}, "rating": 1, "reference": "ChIJ7ZLKTJ0CzoURIGKrdHNPSFE", "types": ["local_government_office", "point_of_interest", "establishment"], "user_ratings_total": 3}, {"business_status": "OPERATIONAL", "formatted_address": "Jacarandas SN, La Providencia, Iztapalapa, 56300 Ciudad de M\u00e9xico, CDMX", "geometry": {"location": {"lat": 19.3591016, "lng": -99.0030294}, "viewport": {"northeast": {"lat": 19.36045062989272, "lng": -99.00167422010729}, "southwest": {"lat": 19.35775097010728, "lng": -99.00437387989273}}}, "icon": "https://maps.gstatic.com/mapfiles/place_api/icons/v1/png_71/civic_building-71.png", "name": "Telecom", "place_id": "ChIJYzm0a7Di0YURITTPG0NvKTw", "plus_code": {"compound_code": "9X5W+JQ Mexico City", "global_code": "76F29X5W+JQ"}, "rating": 4, "reference": "ChIJYzm0a7Di0YURITTPG0NvKTw", "types": ["local_government_office", "point_of_interest", "establishment"], "user_ratings_total": 1}, {"business_status": "OPERATIONAL", "formatted_address": "Rosario Sn, 2da Amp Santiago Acahualtepec, Iztapalapa, 11220 Miguel Hidalgo, CDMX", "geometry": {"location": {"lat": 19.3470928, "lng": -99.0128387}, "viewport": {"northeast": {"lat": 19.34843217989273, "lng": -99.01143952010727}, "southwest": {"lat": 19.34573252010728, "lng": -99.01413917989272}}}, "icon": "https://maps.gstatic.com/mapfiles/place_api/icons/v1/png_71/civic_building-71.png", "name": "Preparotoria del Gobierno", "place_id": "ChIJewUWZFcA0oURTzAiKs5h5y4", "plus_code": {"compound_code": "8XWP+RV Mexico City", "global_code": "76F28XWP+RV"}, "rating": 0, "reference": "ChIJewUWZFcA0oURTzAiKs5h5y4", "types": ["local_government_office", "point_of_interest", "establishment"], "user_ratings_total": 0}, {"business_status": "OPERATIONAL", "formatted_address": "Av Cuatro No. 58, Santa Cruz Meyehualco, Iztapalapa, 09227 Ciudad de M\u00e9xico, CDMX", "geometry": {"location": {"lat": 19.3458378, "lng": -99.0441883}, "viewport": {"northeast": {"lat": 19.34709957989272, "lng": -99.04282892010728}, "southwest": {"lat": 19.34439992010728, "lng": -99.04552857989272}}}, "icon": "https://maps.gstatic.com/mapfiles/place_api/icons/v1/png_71/civic_building-71.png", "name": "Tesorer\u00eda Meyehualco", "opening_hours": {"open_now": false}, "photos": [{"height": 3984, "html_attributions": ["<a href=\"https://maps.google.com/maps/contrib/110507996501409451044\">Josue Cervantes</a>"], "photo_reference": "CmRaAAAA0sJVAXxKkXdH_IfZOmYZeZZbW_XdWpBbB2iXFIT-CF967xlf42OPQu7WUJun_WLW4gbixWSkbijI0hFz1fv81EY22ATRCruqH9nAfw8QxTaZCK8NXkeSRkFa4I_MeCSlEhB1KiiQb9fdUNMrwZjFCSlkGhQxDhGPDbooRODGzNK8K-lmn5t6_Q", "width": 2988}], "place_id": "ChIJIZmxOmL90YURfgP79MYYGw8", "plus_code": {"compound_code": "8XW4+88 Mexico City", "global_code": "76F28XW4+88"}, "rating": 3.9, "reference": "ChIJIZmxOmL90YURfgP79MYYGw8", "types": ["local_government_office", "point_of_interest", "establishment"], "user_ratings_total": 21}, {"business_status": "OPERATIONAL", "formatted_address": "Calz. Ignacio Zaragoza 2005, Juan Escutia, Iztapalapa, 09100 Ciudad de M\u00e9xico, CDMX", "geometry": {"location": {"lat": 19.3860229, "lng": -99.0357751}, "viewport": {"northeast": {"lat": 19.38719847989272, "lng": -99.03454697010727}, "southwest": {"lat": 19.38449882010728, "lng": -99.03724662989272}}}, "icon": "https://maps.gstatic.com/mapfiles/place_api/icons/v1/png_71/civic_building-71.png", "name": "Modulo de control vehicular y licencias", "opening_hours": {"open_now": false}, "photos": [{"height": 2448, "html_attributions": ["<a href=\"https://maps.google.com/maps/contrib/109818310361774618641\">benjamin uribe</a>"], "photo_reference": "CmRaAAAAcCh6LdTnf_KRu9pjLkrYYkIuT2dgFLXXrhgxPN8Hikj4mqLcw_5R5_-3GlHtHX2lhBxiQUUSs5mzOaqjpkhtl54NZ7-jqsROikd5JN00yfdL2amZrex1FCogyul329MOEhBUROGThtN3G-GcJ5aZkv6HGhSs5r_pxkuPQ18ayK84fkxWLc3qCQ", "width": 3264}], "place_id": "ChIJte8TNX790YURczolnya3RYk", "plus_code": {"compound_code": "9XP7+CM Mexico City", "global_code": "76F29XP7+CM"}, "rating": 2.5, "reference": "ChIJte8TNX790YURczolnya3RYk", "types": ["local_government_office", "point_of_interest", "establishment"], "user_ratings_total": 4}, {"business_status": "OPERATIONAL", "formatted_address": "Ermita Iztapalapa 3417, Xalpa, Iztapalapa, 09640 Ciudad de M\u00e9xico, CDMX", "geometry": {"location": {"lat": 19.3476597, "lng": -99.0179508}, "viewport": {"northeast": {"lat": 19.34917412989272, "lng": -99.01699287010729}, "southwest": {"lat": 19.34647447010728, "lng": -99.01969252989272}}}, "icon": "https://maps.gstatic.com/mapfiles/place_api/icons/v1/png_71/civic_building-71.png", "name": "SACMEX OAP Sta. Cruz", "photos": [{"height": 1080, "html_attributions": ["<a href=\"https://maps.google.com/maps/contrib/116776458341118579922\">Jose Ramon Luna Cadenas</a>"], "photo_reference": "CmRaAAAA5q0ErAxm_E4-F6RABa0rorXWcfZMt8e00oEVFyCjzApgV0yaKPxYDt_ZHCOCHNcfnGavT_5AAn4QdzIBUNUeIOewNFfxMrN2gWccmVkMXNYnKhVnhfbRM9Di9DxDwgj5EhBGvyvNR-jKXa7vLiwtAoO4GhT9oLWLj4tLijKEIqQnOriMlzJciA", "width": 1620}], "place_id": "ChIJITsI01X90YURZ1d7r7mJOaM", "plus_code": {"compound_code": "8XXJ+3R Mexico City", "global_code": "76F28XXJ+3R"}, "rating": 3.8, "reference": "ChIJITsI01X90YURZ1d7r7mJOaM", "types": ["local_government_office", "point_of_interest", "establishment"], "user_ratings_total": 8}, {"business_status": "OPERATIONAL", "formatted_address": "San Lorenzo SN, El Rodeo, Iztapalapa, 09830 Ciudad de M\u00e9xico, CDMX", "geometry": {"location": {"lat": 19.3354626, "lng": -99.0747973}, "viewport": {"northeast": {"lat": 19.33682087989272, "lng": -99.07347742010728}, "southwest": {"lat": 19.33412122010728, "lng": -99.07617707989273}}}, "icon": "https://maps.gstatic.com/mapfiles/place_api/icons/v1/png_71/civic_building-71.png", "name": "DDF Oficina de Coordinaci\u00f3n", "place_id": "ChIJVaYO8nMCzoURpug--upy_t4", "rating": 3, "reference": "ChIJVaYO8nMCzoURpug--upy_t4", "types": ["local_government_office", "point_of_interest", "establishment"], "user_ratings_total": 1}, {"business_status": "OPERATIONAL", "formatted_address": "Tetlalpa mz 1d Lt52, 2da Amp Santiago Acahualtepec, 09609 Ciudad de M\u00e9xico, CDMX", "geometry": {"location": {"lat": 19.3511723, "lng": -99.0144723}, "viewport": {"northeast": {"lat": 19.35250047989272, "lng": -99.01315922010728}, "southwest": {"lat": 19.34980082010728, "lng": -99.01585887989272}}}, "icon": "https://maps.gstatic.com/mapfiles/place_api/icons/v1/png_71/civic_building-71.png", "name": "Modulo Diputada Marisela Z\u00fa\u00f1iga", "opening_hours": {"open_now": false}, "place_id": "ChIJ4yYVCcL90YUR-1IRcpb3RgU", "plus_code": {"compound_code": "9X2P+F6 Mexico City", "global_code": "76F29X2P+F6"}, "rating": 0, "reference": "ChIJ4yYVCcL90YUR-1IRcpb3RgU", "types": ["local_government_office", "point_of_interest", "establishment"], "user_ratings_total": 0}, {"business_status": "OPERATIONAL", "formatted_address": "Ermita Iztapalapa SN, Santa Martha Acatitla, Iztapalapa, 09510 Ciudad de M\u00e9xico, CDMX", "geometry": {"location": {"lat": 19.3615359, "lng": -99.008727}, "viewport": {"northeast": {"lat": 19.36286412989272, "lng": -99.00727042010728}, "southwest": {"lat": 19.36016447010728, "lng": -99.00997007989271}}}, "icon": "https://maps.gstatic.com/mapfiles/place_api/icons/v1/png_71/civic_building-71.png", "name": "Sector de Polic\u00eda Preventiva", "place_id": "ChIJAQAAwLPi0YURkQvYhCdlIcI", "plus_code": {"compound_code": "9X6R+JG Mexico City", "global_code": "76F29X6R+JG"}, "rating": 3, "reference": "ChIJAQAAwLPi0YURkQvYhCdlIcI", "types": ["local_government_office", "point_of_interest", "establishment"], "user_ratings_total": 1}, {"business_status": "OPERATIONAL", "formatted_address": "Avenida Ignacio Zaragoza 1189, Agr\u00edcola Oriental, Iztacalco, 08500 Ciudad de M\u00e9xico, CDMX", "geometry": {"location": {"lat": 19.3930389, "lng": -99.0505776}, "viewport": {"northeast": {"lat": 19.39438872989273, "lng": -99.0492277701073}, "southwest": {"lat": 19.39168907010728, "lng": -99.05192742989273}}}, "icon": "https://maps.gstatic.com/mapfiles/place_api/icons/v1/png_71/civic_building-71.png", "name": "Gobierno", "place_id": "ChIJgYi9TzL80YURORUm7IEHwk8", "plus_code": {"compound_code": "9WVX+6Q Mexico City", "global_code": "76F29WVX+6Q"}, "rating": 0, "reference": "ChIJgYi9TzL80YURORUm7IEHwk8", "types": ["local_government_office", "point_of_interest", "establishment"], "user_ratings_total": 0}, {"business_status": "OPERATIONAL", "formatted_address": "La Moneda 1, Metropolitana 1ra Secc, 57730 Nezahualc\u00f3yotl, M\u00e9x.", "geometry": {"location": {"lat": 19.3919327, "lng": -99.0380024}, "viewport": {"northeast": {"lat": 19.39329082989272, "lng": -99.03667007010729}, "southwest": {"lat": 19.39059117010728, "lng": -99.03936972989273}}}, "icon": "https://maps.gstatic.com/mapfiles/place_api/icons/v1/png_71/civic_building-71.png", "name": "Coordinaci\u00f3n de Atenci\u00f3n a Grupos Sociales de Estrategia Educativa de la SEP", "photos": [{"height": 1836, "html_attributions": ["<a href=\"https://maps.google.com/maps/contrib/114889503685241469449\">A Google User</a>"], "photo_reference": "CmRaAAAAcqrO5pAvulo4mE1ohivebm1OFt1u-oCw4OkZLGe4IWoNQUIwsTrhS1XY5Hb1-CHpHGyYGXysWlk6EQ9G_U_2SKJcGoAR7ufeuy_Q3MwXuATg5r7jGBUeP4KV9xrZNjQTEhCKj7TM7K5rtbTEFklOcZJKGhTAWBn3NbQmOf3mgrE5DoqNyij_Ew", "width": 3264}], "place_id": "ChIJa-iKzeH80YURoiy9mdk8EZo", "plus_code": {"compound_code": "9XR6+QQ Ciudad Nezahualc\u00f3yotl, State of Mexico", "global_code": "76F29XR6+QQ"}, "rating": 1, "reference": "ChIJa-iKzeH80YURoiy9mdk8EZo", "types": ["local_government_office", "point_of_interest", "establishment"], "user_ratings_total": 1}, {"business_status": "OPERATIONAL", "formatted_address": "I\u00f1\u00e1rruti Flores MZ11 LT11, \u00c1lvaro Obreg\u00f3n, Iztapalapa, 09230 Ciudad de M\u00e9xico, CDMX", "geometry": {"location": {"lat": 19.3709442, "lng": -99.0377687}, "viewport": {"northeast": {"lat": 19.37243467989272, "lng": -99.03632407010728}, "southwest": {"lat": 19.36973502010728, "lng": -99.03902372989272}}}, "icon": "https://maps.gstatic.com/mapfiles/place_api/icons/v1/png_71/civic_building-71.png", "name": "Dep\u00f3sito Vehicular Anexo Santa Cruz Meyehualco", "place_id": "ChIJCREtUxT90YURlaskhWmr6fI", "plus_code": {"compound_code": "9XC6+9V Mexico City", "global_code": "76F29XC6+9V"}, "rating": 0, "reference": "ChIJCREtUxT90YURlaskhWmr6fI", "types": ["local_government_office", "point_of_interest", "establishment"], "user_ratings_total": 0}, {"business_status": "OPERATIONAL", "formatted_address": "24 DE ABRIL DE 1860 ESQ. EJE 5 SUR, Av. Leyes de Reforma, Tercera Secci\u00f3n, 09310 Ciudad de M\u00e9xico", "geometry": {"location": {"lat": 19.377553, "lng": -99.0714246}, "viewport": {"northeast": {"lat": 19.37904842989272, "lng": -99.07004597010727}, "southwest": {"lat": 19.37634877010728, "lng": -99.07274562989272}}}, "icon": "https://maps.gstatic.com/mapfiles/place_api/icons/v1/png_71/civic_building-71.png", "name": "Direccion Territorial Centro", "opening_hours": {"open_now": true}, "place_id": "ChIJ-e9uOsj90YURtk2TRxxS0g0", "plus_code": {"compound_code": "9WHH+2C Mexico City", "global_code": "76F29WHH+2C"}, "rating": 4.2, "reference": "ChIJ-e9uOsj90YURtk2TRxxS0g0", "types": ["local_government_office", "point_of_interest", "establishment"], "user_ratings_total": 14}, {"business_status": "OPERATIONAL", "formatted_address": "Metropolitana 2da Secc, 57740 Ciudad Nezahualc\u00f3yotl, State of Mexico", "geometry": {"location": {"lat": 19.3895397, "lng": -99.02434129999999}, "viewport": {"northeast": {"lat": 19.39099112989272, "lng": -99.02293937010727}, "southwest": {"lat": 19.38829147010728, "lng": -99.02563902989272}}}, "icon": "https://maps.gstatic.com/mapfiles/place_api/icons/v1/png_71/civic_building-71.png", "name": "CSF Nezahualc\u00f3yotl", "opening_hours": {"open_now": false}, "place_id": "ChIJdy0P2if90YUR-SQtRWKluV0", "plus_code": {"compound_code": "9XQG+R7 Ciudad Nezahualc\u00f3yotl, State of Mexico", "global_code": "76F29XQG+R7"}, "rating": 2, "reference": "ChIJdy0P2if90YUR-SQtRWKluV0", "types": ["local_government_office", "point_of_interest", "establishment"], "user_ratings_total": 4}, {"business_status": "OPERATIONAL", "formatted_address": "Av. Sor Juana In\u00e9s de La Cruz 100, Metropolitana 2da Secc, 57700 Nezahualc\u00f3yotl, M\u00e9x.", "geometry": {"location": {"lat": 19.3890819, "lng": -99.02409639999999}, "viewport": {"northeast": {"lat": 19.39034082989272, "lng": -99.02279447010729}, "southwest": {"lat": 19.38764117010728, "lng": -99.02549412989272}}}, "icon": "https://maps.gstatic.com/mapfiles/place_api/icons/v1/png_71/civic_building-71.png", "name": "Centro de Servicios Administrativos Nezahualc\u00f3yotl", "opening_hours": {"open_now": false}, "photos": [{"height": 1456, "html_attributions": ["<a href=\"https://maps.google.com/maps/contrib/110216233084436108284\">A Google User</a>"], "photo_reference": "CmRaAAAASCoDewYeJ6x-6PHStWgzBz5mAa1nY3bGwZevofrkjXy2iwrtjyHFG9SCyTwseJbWXSjfSgl5FYbRg9zDWfIRMkuXNPI3KxMBSdBRncNXF7NBVE24TInPqPb49kXhpW84EhD0xcB-zAdPM9Ro9vgYjLMLGhSzitsxM7wm8LiZRuPogg-vI4pSjg", "width": 2592}], "place_id": "ChIJZ7DTfSj90YURoqxPunEG08o", "plus_code": {"compound_code": "9XQG+J9 Ciudad Nezahualc\u00f3yotl, State of Mexico", "global_code": "76F29XQG+J9"}, "rating": 2.5, "reference": "ChIJZ7DTfSj90YURoqxPunEG08o", "types": ["local_government_office", "point_of_interest", "establishment"], "user_ratings_total": 229}]