[{"business_status": "OPERATIONAL", "formatted_address": "Privada de San Juan 17, El Santuario, Iztapalapa, 09836 Ciudad de M\u00e9xico, CDMX", "geometry": {"location": {"lat": 19.3539075, "lng": -99.09534560000002}, "viewport": {"northeast": {"lat": 19.35546967989272, "lng": -99.09407007010729}, "southwest": {"lat": 19.35277002010728, "lng": -99.09676972989274}}}, "icon": "https://maps.gstatic.com/mapfiles/place_api/icons/v1/png_71/movies-71.png", "name": "BLOCKTONER", "opening_hours": {"open_now": true}, "photos": [{"height": 540, "html_attributions": ["<a href=\"https://maps.google.com/maps/contrib/105217370132968013747\">Toner Castillo</a>"], "photo_reference": "CmRaAAAA4vC0N3dCljwlpAD35Q4X3tzu2W9s237Ov7c1x1zOJGBCv_d6pXelWa0QDfuHqUi-Paqt2RToKIUneUbqVG9E6XdjGsnx9sRwYuj1PZloP6EG9bCWc5QGJncRn76JbVidEhDDiEkJNLjm1UgEw5Pzk7_LGhTT5j-9q4EEScGo4qKIVxqqn60CXQ", "width": 1153}], "place_id": "ChIJW2jdOTT90YURFOYWInvN0v4", "plus_code": {"compound_code": "9W33+HV Mexico City", "global_code": "76F29W33+HV"}, "rating": 4, "reference": "ChIJW2jdOTT90YURFOYWInvN0v4", "types": ["movie_theater", "point_of_interest", "establishment"], "user_ratings_total": 19}, {"business_status": "OPERATIONAL", "formatted_address": "Av. Arneses, Ganaderos &, Minerva, Iztapalapa, 09810 Ciudad de M\u00e9xico, CDMX", "geometry": {"location": {"lat": 19.349806, "lng": -99.1108481}, "viewport": {"northeast": {"lat": 19.35112487989272, "lng": -99.10950442010729}, "southwest": {"lat": 19.34842522010728, "lng": -99.11220407989273}}}, "icon": "https://maps.gstatic.com/mapfiles/place_api/icons/v1/png_71/movies-71.png", "name": "Balam Arte Esc\u00e9nico", "place_id": "ChIJvwjTGQX-0YURROSrP1Q0944", "plus_code": {"compound_code": "8VXQ+WM Mexico City", "global_code": "76F28VXQ+WM"}, "rating": 4, "reference": "ChIJvwjTGQX-0YURROSrP1Q0944", "types": ["movie_theater", "point_of_interest", "establishment"], "user_ratings_total": 1}, {"business_status": "OPERATIONAL", "formatted_address": "Portal Churubusco, Av. R\u00edo Churubusco 583, Popular, Iztapalapa, 09060 Ciudad de M\u00e9xico, CDMX", "geometry": {"location": {"lat": 19.3686028, "lng": -99.12127679999999}, "viewport": {"northeast": {"lat": 19.37021172989272, "lng": -99.11994637010727}, "southwest": {"lat": 19.36751207010728, "lng": -99.12264602989272}}}, "icon": "https://maps.gstatic.com/mapfiles/place_api/icons/v1/png_71/movies-71.png", "name": "Cin\u00e9polis Portal Churubusco", "photos": [{"height": 1080, "html_attributions": ["<a href=\"https://maps.google.com/maps/contrib/104202789160477698461\">Angel Aguilar</a>"], "photo_reference": "CmRaAAAAIERdDWg_AtMBx6yq0hQSy0inH1CYr539HxFrCc4-t5p9fZq_fPbUhEwlD6kpHdIHQEVO-c5t2f5SPOUwC8FY_ha1P-4JoEy7smjHJblhUgsKryEc8x1zsgDF3RiKFsthEhB2JqgzvJo3dsxJnRDnqFZgGhTSL5RaxSoavWHQo5BH9eokoyasFA", "width": 1920}], "place_id": "ChIJb6gqLGr-0YUR4e61zpgoZWE", "plus_code": {"compound_code": "9V9H+CF Mexico City", "global_code": "76F29V9H+CF"}, "rating": 4.3, "reference": "ChIJb6gqLGr-0YUR4e61zpgoZWE", "types": ["movie_theater", "point_of_interest", "establishment"], "user_ratings_total": 7687}, {"business_status": "OPERATIONAL", "formatted_address": "Canal R\u00edo Churubusco 1635, \u00c1rea Federal Central de Abastos, Iztapalapa, 09040 Ciudad de M\u00e9xico, CDMX", "geometry": {"location": {"lat": 19.3769968, "lng": -99.0952564}, "viewport": {"northeast": {"lat": 19.3805111, "lng": -99.09422614999998}, "southwest": {"lat": 19.3750867, "lng": -99.09697835}}}, "icon": "https://maps.gstatic.com/mapfiles/place_api/icons/v1/png_71/movies-71.png", "name": "Cin\u00e9polis Plaza Central", "photos": [{"height": 3006, "html_attributions": ["<a href=\"https://maps.google.com/maps/contrib/114930199542665899048\">jaime loza</a>"], "photo_reference": "CmRaAAAA4j8ADwwuo7mzpG3Fn6n0j4xWjdVDx-vQF3Si_R9qzOmfO9ZuH0YC7uJS4NjYUdJtAPUu-pep80uaHxQxJiOPiYn-1aVMDeoRBkEjH8ZApbVEOcjyho48TvFN11ZlFgQuEhDfRkG3z6wrLU2aubpIlVTQGhRBsZU-al5fCBO7qccXa4wR_U2bJw", "width": 5344}], "place_id": "ChIJKRw-qND90YURWKvvTNjSu0w", "plus_code": {"compound_code": "9WG3+QV Mexico City", "global_code": "76F29WG3+QV"}, "rating": 4.3, "reference": "ChIJKRw-qND90YURWKvvTNjSu0w", "types": ["movie_theater", "point_of_interest", "establishment"], "user_ratings_total": 9245}, {"business_status": "OPERATIONAL", "formatted_address": "Av. R\u00edo Churubusco S/N, Country Club Churubusco, Coyoac\u00e1n, 04220 Ciudad de M\u00e9xico, CDMX", "geometry": {"location": {"lat": 19.3558977, "lng": -99.135138}, "viewport": {"northeast": {"lat": 19.35719842989272, "lng": -99.13400592010727}, "southwest": {"lat": 19.35449877010728, "lng": -99.13670557989272}}}, "icon": "https://maps.gstatic.com/mapfiles/place_api/icons/v1/png_71/movies-71.png", "name": "Cinemex CNA", "photos": [{"height": 3000, "html_attributions": ["<a href=\"https://maps.google.com/maps/contrib/112229687900671848787\">Eduardo Valenzuela</a>"], "photo_reference": "CmRaAAAARvg2PJCPKYdfDBpqR2o1p4NGwFCGoemdql0QhVlrqUTgHNxxPaL1tvDEWFU8H7mKe1tPWWlgXUtz9d50ABT6yYrkJMs6V14s7oZ42NYNeGQdo8Dew3wh5aNtHmJiQdn_EhAgKkznTo68VwMZ_lMW8EBbGhRJbgs8kxYW67gf0ZHaq9yTfize0Q", "width": 4000}], "place_id": "ChIJiULSozP-0YURyeNIfP9LcpQ", "plus_code": {"compound_code": "9V47+9W Mexico City", "global_code": "76F29V47+9W"}, "rating": 4.4, "reference": "ChIJiULSozP-0YURyeNIfP9LcpQ", "types": ["movie_theater", "point_of_interest", "establishment"], "user_ratings_total": 10001}, {"business_status": "OPERATIONAL", "formatted_address": "Av Canal de Tezontle 1512, Dr Alfonso Ortiz Tirado, Iztapalapa, 09020 Ciudad de M\u00e9xico, CDMX", "geometry": {"location": {"lat": 19.3848562, "lng": -99.0817435}, "viewport": {"northeast": {"lat": 19.38614502989272, "lng": -99.08076877010728}, "southwest": {"lat": 19.38344537010728, "lng": -99.08346842989273}}}, "icon": "https://maps.gstatic.com/mapfiles/place_api/icons/v1/png_71/movies-71.png", "name": "Cinemex", "photos": [{"height": 3024, "html_attributions": ["<a href=\"https://maps.google.com/maps/contrib/105662162973957143755\">Alfredo Martinez H.</a>"], "photo_reference": "CmRaAAAAtozfunMWF2MTqiUXB6JDwFwiLkixiirbRE6O7lHk7lNXhbHiDevRtX8Vde-Xu2w_QFns6cdqzW4yQ5LZCX0qKWDDbItVwFN7kk1OKlM10DwUGTV4zeD0darhE56l_1SlEhB_oSYMQBfhVZk76kUPg9C_GhTe52PTwq4rVvMGAWffnTC-DFadkw", "width": 4032}], "place_id": "ChIJ8aJlIcr90YURqQlS4UPye2Y", "plus_code": {"compound_code": "9WM9+W8 Mexico City", "global_code": "76F29WM9+W8"}, "rating": 4.3, "reference": "ChIJ8aJlIcr90YURqQlS4UPye2Y", "types": ["movie_theater", "point_of_interest", "establishment"], "user_ratings_total": 9922}, {"business_status": "OPERATIONAL", "formatted_address": "Calz. de la Viga 1150, Apatlaco, Iztapalapa, 09430 Ciudad de M\u00e9xico, CDMX", "geometry": {"location": {"lat": 19.3805556, "lng": -99.12166669999999}, "viewport": {"northeast": {"lat": 19.38183912989272, "lng": -99.12072222010727}, "southwest": {"lat": 19.37913947010728, "lng": -99.12342187989272}}}, "icon": "https://maps.gstatic.com/mapfiles/place_api/icons/v1/png_71/movies-71.png", "name": "Cinemex La Viga", "photos": [{"height": 1080, "html_attributions": ["<a href=\"https://maps.google.com/maps/contrib/103990465866052592480\">Oliver Cadena</a>"], "photo_reference": "CmRaAAAA82EyZI4vovHxAtm4dvJminxiioxDwoH2hsAmjoCZ7iVXOwBHHteqo-rtirc1S5GORORpbtcjwKOIJFhjAjrjZnpa8Bj7AyKXNRJdM-gS8Llkdbhpekr3U7hDXx-Hk3sREhAwbZ9GUmzoOymAaFVaFey-GhRo5y-x5GMhLnRgwzTo6N0MuZ879Q", "width": 1920}], "place_id": "ChIJ1RyzSWf-0YURNRIYnyWGWx4", "plus_code": {"compound_code": "9VJH+68 Mexico City", "global_code": "76F29VJH+68"}, "rating": 4.2, "reference": "ChIJ1RyzSWf-0YURNRIYnyWGWx4", "types": ["movie_theater", "point_of_interest", "establishment"], "user_ratings_total": 5777}, {"business_status": "OPERATIONAL", "formatted_address": "Calle Educacion Publica, Zona Urbana Ejidal Estrella Culhuacan, Iztapalapa, 09800 Ciudad de M\u00e9xico, CDMX", "geometry": {"location": {"lat": 19.3317196, "lng": -99.10876999999999}, "viewport": {"northeast": {"lat": 19.33310072989272, "lng": -99.10741662010729}, "southwest": {"lat": 19.33040107010728, "lng": -99.11011627989272}}}, "icon": "https://maps.gstatic.com/mapfiles/place_api/icons/v1/png_71/movies-71.png", "name": "Poliforum Cultural Colonia Federal", "opening_hours": {"open_now": false}, "place_id": "ChIJRVuqs_sBzoURCNHEqMnvN6o", "plus_code": {"compound_code": "8VJR+MF Mexico City", "global_code": "76F28VJR+MF"}, "rating": 4.5, "reference": "ChIJRVuqs_sBzoURCNHEqMnvN6o", "types": ["movie_theater", "point_of_interest", "establishment"], "user_ratings_total": 2}, {"business_status": "OPERATIONAL", "formatted_address": "Calz. de la Viga 1479, El Reto\u00f1o, Iztapalapa, 09440 Ciudad de M\u00e9xico, CDMX", "geometry": {"location": {"lat": 19.370725, "lng": -99.1227014}, "viewport": {"northeast": {"lat": 19.37207782989272, "lng": -99.12126467010728}, "southwest": {"lat": 19.36937817010728, "lng": -99.12396432989271}}}, "icon": "https://maps.gstatic.com/mapfiles/place_api/icons/v1/png_71/movies-71.png", "name": "Xtreme Cinemas Churubusco", "photos": [{"height": 3456, "html_attributions": ["<a href=\"https://maps.google.com/maps/contrib/101888097273920108137\">daniel alvarez</a>"], "photo_reference": "CmRaAAAANFJvs7j4keUY14xTnya2U6V5uOgX26O-C8SMcS_Stev3jKZJrtCMLWBDlIN3t_aDMV0f_2KYWMBoutqSW4OuYQZsdqrCQ1Wc8LrSYsKiauMXWqwWweZn8944Evhwji7lEhB6yqvRBS5bmL2A-HOLtapEGhQO4uqMEgUGPRnHs-8ZWiTt9V3fcA", "width": 4608}], "place_id": "ChIJOZ_vwmn-0YURYK0YxC_uBfg", "plus_code": {"compound_code": "9VCG+7W Mexico City", "global_code": "76F29VCG+7W"}, "rating": 4.3, "reference": "ChIJOZ_vwmn-0YURYK0YxC_uBfg", "types": ["movie_theater", "point_of_interest", "establishment"], "user_ratings_total": 2632}, {"business_status": "OPERATIONAL", "formatted_address": "Av. Tlahuac 4409, Lomas Estrella 2da Secc, Iztapalapa, 09890 Ciudad de M\u00e9xico, CDMX", "geometry": {"location": {"lat": 19.3212885, "lng": -99.0941804}, "viewport": {"northeast": {"lat": 19.32295882989272, "lng": -99.09291247010728}, "southwest": {"lat": 19.32025917010728, "lng": -99.09561212989273}}}, "icon": "https://maps.gstatic.com/mapfiles/place_api/icons/v1/png_71/movies-71.png", "name": "Cinemex Lomas Estrella Portal", "photos": [{"height": 4008, "html_attributions": ["<a href=\"https://maps.google.com/maps/contrib/111564591595430951324\">Lasher Mayfair</a>"], "photo_reference": "CmRaAAAAbvuOCG4YS7pEp-TgBuVASoXoqpgUBl8tSNc3kZnFe_42NnCctRI2tagYfUs9kxi4dpSyjCqUSmLvbdaHg9n86otlIvrskffWjHwoVwl5Kmw-y64o7KJ08mxDuZb_jW-VEhCCvXaVS9Y7fsdC5oqdH4MaGhTdAIIeLVFH2RFrbBXxM0MRHtHOdQ", "width": 5344}], "place_id": "ChIJ_fkhFRkCzoURj7tj1Q63VcY", "plus_code": {"compound_code": "8WC4+G8 Mexico City", "global_code": "76F28WC4+G8"}, "rating": 4.3, "reference": "ChIJ_fkhFRkCzoURj7tj1Q63VcY", "types": ["movie_theater", "point_of_interest", "establishment"], "user_ratings_total": 8800}, {"business_status": "OPERATIONAL", "formatted_address": "Plaza Oriente, Av Canal de Tezontle 1520, \u00c1rea Federal Central de Abastos, Iztapalapa, 09020 Ciudad de M\u00e9xico, CDMX", "geometry": {"location": {"lat": 19.3834021, "lng": -99.0805494}, "viewport": {"northeast": {"lat": 19.38461882989272, "lng": -99.07919892010727}, "southwest": {"lat": 19.38191917010728, "lng": -99.08189857989272}}}, "icon": "https://maps.gstatic.com/mapfiles/place_api/icons/v1/png_71/movies-71.png", "name": "Cinemex Plaza Oriente", "opening_hours": {"open_now": true}, "photos": [{"height": 1080, "html_attributions": ["<a href=\"https://maps.google.com/maps/contrib/104751133190741296708\">Emslaved Estrada</a>"], "photo_reference": "CmRaAAAAGdgf8QFPJPtV-N69tJvth1NlnGvfAOceg2vS62S8tLesecMz2GJR63NESboVJPx1oNRQ2MWaWJCbh2irZ-T2adBR6OsF8F8s6cDAI7Swrvgh0lyxREeMX_kw0C9Zw1nPEhDQAaDXOY5iFkgM5ghT2rb7GhQOGH4Emx00i6hodsxkrx2oh6Asyg", "width": 1920}], "place_id": "ChIJ386GfSv90YUR2qpMlshTUQs", "plus_code": {"compound_code": "9WM9+9Q Mexico City", "global_code": "76F29WM9+9Q"}, "rating": 4.2, "reference": "ChIJ386GfSv90YUR2qpMlshTUQs", "types": ["movie_theater", "point_of_interest", "establishment"], "user_ratings_total": 5712}, {"business_status": "OPERATIONAL", "formatted_address": "Sur 109 a 306, H\u00e9roes de Churubusco, Iztapalapa, 09090 Ciudad de M\u00e9xico, CDMX", "geometry": {"location": {"lat": 19.3597224, "lng": -99.1174588}, "viewport": {"northeast": {"lat": 19.36104982989272, "lng": -99.1160067201073}, "southwest": {"lat": 19.35835017010728, "lng": -99.11870637989273}}}, "icon": "https://maps.gstatic.com/mapfiles/place_api/icons/v1/png_71/movies-71.png", "name": "La Raza Mex Distribution S de RL de CV", "place_id": "ChIJ1_18cRP-0YURRrACJmgT0_U", "plus_code": {"compound_code": "9V5M+V2 Mexico City", "global_code": "76F29V5M+V2"}, "rating": 3, "reference": "ChIJ1_18cRP-0YURRrACJmgT0_U", "types": ["movie_theater", "electronics_store", "home_goods_store", "point_of_interest", "store", "establishment"], "user_ratings_total": 1}, {"business_status": "OPERATIONAL", "formatted_address": "Periferico Arco Oriente 2141, Chinam Pac de Ju\u00e1rez, Iztapalapa, 09208 Ciudad de M\u00e9xico, CDMX", "geometry": {"location": {"lat": 19.3801091, "lng": -99.0593032}, "viewport": {"northeast": {"lat": 19.38158337989272, "lng": -99.0579276201073}, "southwest": {"lat": 19.37888372010728, "lng": -99.06062727989274}}}, "icon": "https://maps.gstatic.com/mapfiles/place_api/icons/v1/png_71/movies-71.png", "name": "Cinemex Iztapalapa", "photos": [{"height": 3456, "html_attributions": ["<a href=\"https://maps.google.com/maps/contrib/100417917327443560432\">Jesus Davila</a>"], "photo_reference": "CmRaAAAAvI4FFFdRvtvNeSo4HkQz5Z3CjhMMwPf5Uzwkd2Q0W4eH_KzVm0rdtzOcIu0oY76TYrxd3Hpkf6juzDLMCq8ovIDe0jKXKDfOWidM_e11y9ntaoQO5oVkeSJEzBqb1YMZEhAAPW0bkAXxB1YCcC15oUJ9GhRlk4B_Xlce65l7qhop5mZCchIbmg", "width": 4608}], "place_id": "ChIJf4tIXKj90YURl-Svt2boL3U", "plus_code": {"compound_code": "9WJR+27 Mexico City", "global_code": "76F29WJR+27"}, "rating": 4, "reference": "ChIJf4tIXKj90YURl-Svt2boL3U", "types": ["movie_theater", "point_of_interest", "establishment"], "user_ratings_total": 8943}, {"business_status": "OPERATIONAL", "formatted_address": "Av. Canal de Garay 3278, La Esperanza, Iztapalapa, 09910 Ciudad de M\u00e9xico, CDMX", "geometry": {"location": {"lat": 19.3130532, "lng": -99.0750034}, "viewport": {"northeast": {"lat": 19.31411832989272, "lng": -99.07387902010728}, "southwest": {"lat": 19.31141867010728, "lng": -99.07657867989272}}}, "icon": "https://maps.gstatic.com/mapfiles/place_api/icons/v1/png_71/movies-71.png", "name": "Cin\u00e9polis", "photos": [{"height": 2250, "html_attributions": ["<a href=\"https://maps.google.com/maps/contrib/112462151327228511135\">Soy PattoO!</a>"], "photo_reference": "CmRaAAAAQVUwDafmI5dTG2kE0MTREe3_Bzkjyhc7gPhF4KfXtaL0AFiVU0m3-yFcP0zZ9U_cOGU3Ql6jZKyGUEha1vcmLem9qFphTsTIkIUr6AnAW4epRXZ6HtqbVNIkKxTeYBkbEhBxQP8tgunyhLMDZoyqKul7GhRSjgrG9J8oCgTnFH8EMxvP84fSKQ", "width": 4000}], "place_id": "ChIJsQoG-MkDzoURxbG6EVhA1Uk", "plus_code": {"compound_code": "8W7F+6X Mexico City", "global_code": "76F28W7F+6X"}, "rating": 4.5, "reference": "ChIJsQoG-MkDzoURxbG6EVhA1Uk", "types": ["movie_theater", "point_of_interest", "establishment"], "user_ratings_total": 7399}, {"business_status": "OPERATIONAL", "formatted_address": "Cda. Ermita Iztapalapa 1863 C, Sta Cruz Meyehualco, Iztapalapa, 09830 Ciudad de M\u00e9xico, CDMX", "geometry": {"location": {"lat": 19.3424695, "lng": -99.04590139999999}, "viewport": {"northeast": {"lat": 19.34381572989272, "lng": -99.04460167010728}, "southwest": {"lat": 19.34111607010728, "lng": -99.04730132989273}}}, "icon": "https://maps.gstatic.com/mapfiles/place_api/icons/v1/png_71/movies-71.png", "name": "Hombres de Cine", "place_id": "ChIJ7ZLKTJ0CzoURCe3Y-vQxyZ0", "plus_code": {"compound_code": "8XR3+XJ Mexico City", "global_code": "76F28XR3+XJ"}, "rating": 5, "reference": "ChIJ7ZLKTJ0CzoURCe3Y-vQxyZ0", "types": ["movie_theater", "point_of_interest", "establishment"], "user_ratings_total": 7}, {"business_status": "OPERATIONAL", "formatted_address": "Colonia, Calz. Ignacio Zaragoza 1433, Tepalcates, Iztapalapa, 09210 Ciudad de M\u00e9xico, CDMX", "geometry": {"location": {"lat": 19.3913889, "lng": -99.0494444}, "viewport": {"northeast": {"lat": 19.39278412989272, "lng": -99.04803772010729}, "southwest": {"lat": 19.39008447010728, "lng": -99.05073737989274}}}, "icon": "https://maps.gstatic.com/mapfiles/place_api/icons/v1/png_71/movies-71.png", "name": "Cinemex Via San Juan", "photos": [{"height": 3024, "html_attributions": ["<a href=\"https://maps.google.com/maps/contrib/110471335062361618900\">GUS DORANTES</a>"], "photo_reference": "CmRaAAAAJsI5m2znlUtRIOoxGFWjTdsBmweKm06uubQ1ycL9y_QMotR-oddVbatxal96SwAzY10KIG7hm6vzfHHemYCxK6b-LAE_JmXtmptPE1SXUXVCC5qO3z3dULI8--heQ00lEhAxD8w1GTJcql-VmmGIYwD8GhR-SoiRFvhMtF8OwSFsKr8aQ3SSjg", "width": 4032}], "place_id": "ChIJH1Tmj_380YURBo-tGzxCdxw", "plus_code": {"compound_code": "9XR2+H6 Mexico City", "global_code": "76F29XR2+H6"}, "rating": 4.3, "reference": "ChIJH1Tmj_380YURBo-tGzxCdxw", "types": ["movie_theater", "point_of_interest", "establishment"], "user_ratings_total": 5338}, {"business_status": "OPERATIONAL", "formatted_address": "Canal de Miramontes 2053, Coapa, Girasoles II, Coyoac\u00e1n, 04920 Ciudad de M\u00e9xico, CDMX", "geometry": {"location": {"lat": 19.3103978, "lng": -99.1244305}, "viewport": {"northeast": {"lat": 19.3118815, "lng": -99.12294122010728}, "southwest": {"lat": 19.3087719, "lng": -99.12564087989271}}}, "icon": "https://maps.gstatic.com/mapfiles/place_api/icons/v1/png_71/movies-71.png", "name": "Cin\u00e9polis - Miramontes", "photos": [{"height": 3024, "html_attributions": ["<a href=\"https://maps.google.com/maps/contrib/105050335576176696988\">Daniel Mora</a>"], "photo_reference": "CmRaAAAAXVPfnOaGLxHKg3EHs-5iA5hvyXA5oTR9yNuxqr-hcLXvDrO8Xcz19ud8ghPp_tqXpGCbLOxqwcRAR5Cgq_Da-xK83E1bPfny8BIRLRHX11qZOlqk3ncqnLPm5FE3ZGLLEhBgwXVMGo6YAJDzbe1hlxl0GhSbyMNmJLnrjVb8okrVahCUjinrDw", "width": 4032}], "place_id": "ChIJYT87uAYBzoUROJefaBkFDJE", "plus_code": {"compound_code": "8V6G+56 Mexico City", "global_code": "76F28V6G+56"}, "rating": 4.2, "reference": "ChIJYT87uAYBzoUROJefaBkFDJE", "types": ["movie_theater", "point_of_interest", "establishment"], "user_ratings_total": 6874}, {"business_status": "OPERATIONAL", "formatted_address": "Col.San Lorenzo Tezonco Del, Av. Tlahuac 5662, San Lorenzo Tezonco, Iztapalapa, 09790 Ciudad de M\u00e9xico, CDMX", "geometry": {"location": {"lat": 19.305716, "lng": -99.060631}, "viewport": {"northeast": {"lat": 19.30725092989272, "lng": -99.05943607010728}, "southwest": {"lat": 19.30455127010728, "lng": -99.06213572989272}}}, "icon": "https://maps.gstatic.com/mapfiles/place_api/icons/v1/png_71/movies-71.png", "name": "Cinemex", "photos": [{"height": 3024, "html_attributions": ["<a href=\"https://maps.google.com/maps/contrib/114922862028468814311\">David Nicolas</a>"], "photo_reference": "CmRaAAAAwOywhcuS3dkkDzTSIrFqx-SFbCPRtWFmPsxPvbf9CT9wBVygiv-gBG-2Lg7tpKZwQ2MgAUonflqkNW-44kvF8qy4sH7pbAyNQXbgukfIXJcIfzzATKpApyVPjtKhM19bEhBC2jWVlE_yWAt0AzwDd1DVGhSgpe_cSf3MNiBn21EajeQ8y5bsIQ", "width": 4032}], "place_id": "ChIJi_u1hWoCzoURxlXJwDQJrBU", "plus_code": {"compound_code": "8W4Q+7P Mexico City", "global_code": "76F28W4Q+7P"}, "rating": 4.1, "reference": "ChIJi_u1hWoCzoURxlXJwDQJrBU", "types": ["movie_theater", "point_of_interest", "establishment"], "user_ratings_total": 11456}, {"business_status": "OPERATIONAL", "formatted_address": "Viad. R\u00edo de la Piedad 515, Granjas M\u00e9xico, Iztacalco, 08400 Ciudad de M\u00e9xico, CDMX", "geometry": {"location": {"lat": 19.4061407, "lng": -99.11054399999999}, "viewport": {"northeast": {"lat": 19.40755577989272, "lng": -99.10920912010727}, "southwest": {"lat": 19.40485612010728, "lng": -99.11190877989272}}}, "icon": "https://maps.gstatic.com/mapfiles/place_api/icons/v1/png_71/movies-71.png", "name": "Cin\u00e9polis Viaducto", "photos": [{"height": 4224, "html_attributions": ["<a href=\"https://maps.google.com/maps/contrib/108293291268968364506\">R0CK2R0SE .</a>"], "photo_reference": "CmRaAAAAU7m14YJMK2nJKnBv2yfp3x9WZhRjiegAAS50w6ouKDqy2awinOM98d389ohGBczIRpqCgytPji9VFdcaiMtb3GrrV6mi0V8WRqQVer4Ff9aZHLjoI28FEVT4ang3tY_1EhBTjvL_YcfogXzs80nDOv_RGhS0ntAe5yEpW3-Xx2FdKWRZw_Y2NA", "width": 5632}], "place_id": "ChIJW-ILqtX_0YUR0dAPSEb6vwk", "plus_code": {"compound_code": "CV4Q+FQ Mexico City", "global_code": "76F2CV4Q+FQ"}, "rating": 4.6, "reference": "ChIJW-ILqtX_0YUR0dAPSEb6vwk", "types": ["movie_theater", "point_of_interest", "establishment"], "user_ratings_total": 787}, {"business_status": "OPERATIONAL", "formatted_address": "Colonia, Av Canal de Tezontle 1520, Dr Alfonso Ortiz Tirado, Iztapalapa, 09020 Ciudad de M\u00e9xico, CDMX", "geometry": {"location": {"lat": 19.3821564, "lng": -99.08263989999999}, "viewport": {"northeast": {"lat": 19.38349022989272, "lng": -99.08116582010727}, "southwest": {"lat": 19.38079057010728, "lng": -99.08386547989271}}}, "icon": "https://maps.gstatic.com/mapfiles/place_api/icons/v1/png_71/movies-71.png", "name": "Cinemex Tezontle", "place_id": "ChIJMSm5cMn90YURlxhkr3Q7qdk", "plus_code": {"compound_code": "9WJ8+VW Mexico City", "global_code": "76F29WJ8+VW"}, "rating": 5, "reference": "ChIJMSm5cMn90YURlxhkr3Q7qdk", "types": ["movie_theater", "point_of_interest", "establishment"], "user_ratings_total": 3}]