[{"business_status": "OPERATIONAL", "formatted_address": "Calle Quer\u00e9taro 110, Roma Nte., Cuauht\u00e9moc, 06700 Ciudad de M\u00e9xico, CDMX", "geometry": {"location": {"lat": 19.4147846, "lng": -99.1596215}, "viewport": {"northeast": {"lat": 19.41621412989272, "lng": -99.15828922010728}, "southwest": {"lat": 19.41351447010728, "lng": -99.16098887989273}}}, "icon": "https://maps.gstatic.com/mapfiles/place_api/icons/v1/png_71/worship_jewish-71.png", "name": "Monte Sinai", "photos": [{"height": 3456, "html_attributions": ["<a href=\"https://maps.google.com/maps/contrib/109759923892835877475\">Caracol Natiroots</a>"], "photo_reference": "CmRaAAAAyluNI49RaoHv_ZhsOYe1i3-io4n6l3es1WEIZuxWx2zp0Zy6AEKDp-TnieQUXXK3qReaXmy23yoPag-jzm6lFP9NJNMxywhePaq9Vl2JalWq-76fO6W0MtOFqj_pfyywEhDSP4SPnq2CZghAYHY3NqrCGhRwYJCJZXQkgDEP_sjhws4W9nNLaA", "width": 5184}], "place_id": "ChIJBRDpgzv_0YURCPBqMYYQKQY", "plus_code": {"compound_code": "CR7R+W5 Mexico City", "global_code": "76F2CR7R+W5"}, "rating": 4.3, "reference": "ChIJBRDpgzv_0YURCPBqMYYQKQY", "types": ["synagogue", "place_of_worship", "point_of_interest", "establishment"], "user_ratings_total": 20}, {"business_status": "CLOSED_TEMPORARILY", "formatted_address": "Eje 2 Pte 363, Roma Sur, Cuauht\u00e9moc, 06760 Ciudad de M\u00e9xico, CDMX", "geometry": {"location": {"lat": 19.4047448, "lng": -99.1610877}, "viewport": {"northeast": {"lat": 19.40612367989272, "lng": -99.15960647010728}, "southwest": {"lat": 19.40342402010728, "lng": -99.16230612989271}}}, "icon": "https://maps.gstatic.com/mapfiles/place_api/icons/v1/png_71/worship_jewish-71.png", "name": "Sinagoga", "permanently_closed": true, "photos": [{"height": 4032, "html_attributions": ["<a href=\"https://maps.google.com/maps/contrib/113692437531660690137\">Carlos Mejia</a>"], "photo_reference": "CmRaAAAAvQvVMGsg97SoqIp1cgse0A1TFuh6FrNedRWaZPgMiI7P5ESNMwrQJmS6ZG3PROGkjhwOaN8JWPugwZaIgW7QSmYlQ0Upfhzf_soeKSbvLj9hLsYJHalKvmZ-88akCQoIEhAO6n77cQm_Mksn_GQqouYhGhRG_xihlky1C5KkTUJUgbHbYWYBVA", "width": 3024}], "place_id": "ChIJ7_B0khb_0YUR9Rt0rgQm5Bo", "plus_code": {"compound_code": "CR3Q+VH Mexico City", "global_code": "76F2CR3Q+VH"}, "rating": 4.8, "reference": "ChIJ7_B0khb_0YUR9Rt0rgQm5Bo", "types": ["synagogue", "place_of_worship", "point_of_interest", "establishment"], "user_ratings_total": 12}, {"business_status": "CLOSED_TEMPORARILY", "formatted_address": "Justo Sierra 71, Centro Hist\u00f3rico de la Cdad. de M\u00e9xico, Centro, Cuauht\u00e9moc, 06020 Ejido del, CDMX", "geometry": {"location": {"lat": 19.4351573, "lng": -99.1282234}, "viewport": {"northeast": {"lat": 19.43655317989272, "lng": -99.12686657010727}, "southwest": {"lat": 19.43385352010727, "lng": -99.12956622989272}}}, "icon": "https://maps.gstatic.com/mapfiles/place_api/icons/v1/png_71/worship_jewish-71.png", "name": "Historic Synagogue Justo Sierra 71", "permanently_closed": true, "photos": [{"height": 5184, "html_attributions": ["<a href=\"https://maps.google.com/maps/contrib/108921026350500139780\">oscar</a>"], "photo_reference": "CmRaAAAAB89ldFQE5N5Qbf8KAqEsAiociviWH6nHvXJ46UgSGExYcqr5YYZQis3fEcX5Ty95EKwo8CHRkD4S2hSBt3nSwR35IymjlZQsC6nd2HD0TYxw7QNaRHHOsy9HrqNMjY0SEhAeTnfqRjahnDQEALnSi1WUGhTpz0M9fJmUbOEiW3SNjPTTGYEJLQ", "width": 3456}], "place_id": "ChIJOQDflzT50YURLDp8Gi33zio", "plus_code": {"compound_code": "CVPC+3P Centro, Mexico City", "global_code": "76F2CVPC+3P"}, "rating": 4.9, "reference": "ChIJOQDflzT50YURLDp8Gi33zio", "types": ["synagogue", "place_of_worship", "point_of_interest", "establishment"], "user_ratings_total": 13}, {"business_status": "CLOSED_TEMPORARILY", "formatted_address": "Fernando Montes de Oca 32, Colonia Condesa, Cuauht\u00e9moc, 06140 Ciudad de M\u00e9xico, CDMX", "geometry": {"location": {"lat": 19.4124592, "lng": -99.1740506}, "viewport": {"northeast": {"lat": 19.41388482989272, "lng": -99.17265852010728}, "southwest": {"lat": 19.41118517010728, "lng": -99.17535817989273}}}, "icon": "https://maps.gstatic.com/mapfiles/place_api/icons/v1/png_71/worship_jewish-71.png", "name": "Jewish Community Center Condesa", "permanently_closed": true, "photos": [{"height": 595, "html_attributions": ["<a href=\"https://maps.google.com/maps/contrib/117702853685846034803\">No\u00e9 Hern\u00e1ndez Pe\u00f1a</a>"], "photo_reference": "CmRaAAAAvLnv5RD3hGd6LmOQAPjO-aQ6oE3eMTBESEEkLCr_gfQjmU1kq8COUjltB280KPx5l5h1IZYq5LFvAF7LA4RFvDEKnDbTPbiBpMX6MONPZrnNaDGU0F61tk-v7blnI2g6EhBJMJtCU3S9sczj09wVKqlzGhSpqT1kcqtmQksHp_Z3Fboy8zyNGg", "width": 394}], "place_id": "ChIJ73WQ6EP_0YUR4l4bC-rgvZk", "plus_code": {"compound_code": "CR6G+X9 Mexico City", "global_code": "76F2CR6G+X9"}, "rating": 4.5, "reference": "ChIJ73WQ6EP_0YUR4l4bC-rgvZk", "types": ["synagogue", "place_of_worship", "point_of_interest", "establishment"], "user_ratings_total": 29}, {"business_status": "CLOSED_TEMPORARILY", "formatted_address": "Calle S\u00f3crates 371, Polanco, Polanco II Secc, Miguel Hidalgo, 11550 Ciudad de M\u00e9xico, CDMX", "geometry": {"location": {"lat": 19.4319976, "lng": -99.20405369999999}, "viewport": {"northeast": {"lat": 19.43331797989272, "lng": -99.20260552010728}, "southwest": {"lat": 19.43061832010728, "lng": -99.20530517989273}}}, "icon": "https://maps.gstatic.com/mapfiles/place_api/icons/v1/png_71/worship_jewish-71.png", "name": "Sinagoga Magu\u00e9n David", "permanently_closed": true, "photos": [{"height": 4096, "html_attributions": ["<a href=\"https://maps.google.com/maps/contrib/100289534035202124841\">Juan Uribe</a>"], "photo_reference": "CmRaAAAAErPU66rKkfoJkMughEA0J3HTKxzL9tS5OqYYD1WvRZL3S7CNtjzUHpd2kC6Ms-dGuYznQdeG-hY4EjC-ju_nQw32V0r7SSuF_bKJuDB_szsXaRm7R3pBgxemmbh_grNxEhCVEdRVUKMhqHrrImE7lFkPGhSbNJ8MJqWIUikIkN78seqE2Ygt4Q", "width": 3072}], "place_id": "ChIJk5JWrx0C0oURgIYfGh5Y6bc", "plus_code": {"compound_code": "CQJW+Q9 Mexico City", "global_code": "76F2CQJW+Q9"}, "rating": 4.7, "reference": "ChIJk5JWrx0C0oURgIYfGh5Y6bc", "types": ["synagogue", "place_of_worship", "point_of_interest", "establishment"], "user_ratings_total": 97}, {"business_status": "OPERATIONAL", "formatted_address": "Polanco, Polanco III Secc, Miguel Hidalgo, 11550 Mexico City", "geometry": {"location": {"lat": 19.4339335, "lng": -99.1960242}, "viewport": {"northeast": {"lat": 19.43528332989272, "lng": -99.19467437010728}, "southwest": {"lat": 19.43258367010727, "lng": -99.19737402989271}}}, "icon": "https://maps.gstatic.com/mapfiles/place_api/icons/v1/png_71/worship_jewish-71.png", "name": "Sinagoga Brit Braja", "place_id": "ChIJKxrCmBAD0oURM3sdQY7WbLo", "plus_code": {"compound_code": "CRM3+HH Mexico City", "global_code": "76F2CRM3+HH"}, "rating": 5, "reference": "ChIJKxrCmBAD0oURM3sdQY7WbLo", "types": ["synagogue", "place_of_worship", "point_of_interest", "establishment"], "user_ratings_total": 6}, {"business_status": "CLOSED_TEMPORARILY", "formatted_address": "1140, Lomas de Chapultepec, Miguel Hidalgo, 11000 Ciudad de M\u00e9xico, CDMX", "geometry": {"location": {"lat": 19.412998, "lng": -99.21767419999999}, "viewport": {"northeast": {"lat": 19.41439097989272, "lng": -99.21637247010727}, "southwest": {"lat": 19.41169132010728, "lng": -99.21907212989271}}}, "icon": "https://maps.gstatic.com/mapfiles/place_api/icons/v1/png_71/worship_jewish-71.png", "name": "Beth Israel", "permanently_closed": true, "photos": [{"height": 854, "html_attributions": ["<a href=\"https://maps.google.com/maps/contrib/115328775701386830404\">Javier Brenes</a>"], "photo_reference": "CmRaAAAAP-cvipEcYklh4mObNw8USYOCKept6Ua4xtjhGHsS72KqbNOBINdOXJKhDvtt-1KqZCdKsOhmQb3EEaOH0oRYbK3pdiYC4drf4xQ1qiBh6rsIpsjblqlbZcnBpsVyif01EhBT05vl5YrHgMirlxXFMJe-GhQ8SfJG2jGjUWtq4Nk5HABORahHOA", "width": 640}], "place_id": "ChIJf1BqYJEB0oUR2Ks8RBGXLAQ", "plus_code": {"compound_code": "CQ7J+5W Mexico City", "global_code": "76F2CQ7J+5W"}, "rating": 4.7, "reference": "ChIJf1BqYJEB0oUR2Ks8RBGXLAQ", "types": ["synagogue", "place_of_worship", "point_of_interest", "establishment"], "user_ratings_total": 19}, {"business_status": "OPERATIONAL", "formatted_address": "Eugenio Sue 20, Polanco, Polanco IV Secc, Miguel Hidalgo, 11550 Ciudad de M\u00e9xico, CDMX", "geometry": {"location": {"lat": 19.4282992, "lng": -99.1948273}, "viewport": {"northeast": {"lat": 19.42964742989272, "lng": -99.19346562010728}, "southwest": {"lat": 19.42694777010728, "lng": -99.19616527989272}}}, "icon": "https://maps.gstatic.com/mapfiles/place_api/icons/v1/png_71/worship_jewish-71.png", "name": "Beth Itzjak", "photos": [{"height": 3024, "html_attributions": ["<a href=\"https://maps.google.com/maps/contrib/107775554161122371406\">A Google User</a>"], "photo_reference": "CmRaAAAA-Ffn1WpFH88yIv7fnbgrPUTiDP6FAgFXrCoLf7aKznbZV3VviGovE3S9kZWwBfr6zWO2OX5NOyXIeAyfpzgjZ5cthobBP3xib-xs7GV-WoJhwp68TNxCyPQ5BARelRlJEhDp50UH8NZsZxK2qIIkqz6qGhQz4Q8_Atj7gxj9bapr0A-ruIjrhg", "width": 4032}], "place_id": "ChIJiz_KMP8B0oURGBTx3jaPAdk", "plus_code": {"compound_code": "CRH4+83 Mexico City", "global_code": "76F2CRH4+83"}, "rating": 4.4, "reference": "ChIJiz_KMP8B0oURGBTx3jaPAdk", "types": ["synagogue", "place_of_worship", "point_of_interest", "establishment"], "user_ratings_total": 28}, {"business_status": "CLOSED_TEMPORARILY", "formatted_address": "Amsterdam, Hip\u00f3dromo, Cuauht\u00e9moc, 06100 Ciudad de M\u00e9xico, CDMX", "geometry": {"location": {"lat": 19.4130698, "lng": -99.170645}, "viewport": {"northeast": {"lat": 19.41443237989272, "lng": -99.16932572010728}, "southwest": {"lat": 19.41173272010728, "lng": -99.17202537989272}}}, "icon": "https://maps.gstatic.com/mapfiles/place_api/icons/v1/png_71/worship_jewish-71.png", "name": "Beit Kneset Etz Haim", "permanently_closed": true, "place_id": "ChIJQYsZbuD_0YUR8zadmE5roMk", "plus_code": {"compound_code": "CR7H+6P Mexico City", "global_code": "76F2CR7H+6P"}, "rating": 2, "reference": "ChIJQYsZbuD_0YUR8zadmE5roMk", "types": ["synagogue", "place_of_worship", "point_of_interest", "establishment"], "user_ratings_total": 1}, {"business_status": "CLOSED_TEMPORARILY", "formatted_address": "Av. Horacio 1722, Polanco, Polanco I Secc, Miguel Hidalgo, 10000 Ciudad de M\u00e9xico, CDMX", "geometry": {"location": {"lat": 19.4350523, "lng": -99.20915989999999}, "viewport": {"northeast": {"lat": 19.43657857989272, "lng": -99.20779802010728}, "southwest": {"lat": 19.43387892010728, "lng": -99.21049767989271}}}, "icon": "https://maps.gstatic.com/mapfiles/place_api/icons/v1/png_71/worship_jewish-71.png", "name": "Comunidad Bet-El", "permanently_closed": true, "place_id": "ChIJydCXLB8C0oURcfeyew_nSXg", "plus_code": {"compound_code": "CQPR+28 Mexico City", "global_code": "76F2CQPR+28"}, "rating": 4.9, "reference": "ChIJydCXLB8C0oURcfeyew_nSXg", "types": ["synagogue", "place_of_worship", "point_of_interest", "establishment"], "user_ratings_total": 22}, {"business_status": "OPERATIONAL", "formatted_address": "Calle Calder\u00f3n de la Barca 339, Polanco, Polanco II Secc, Miguel Hidalgo, 11550 Ciudad de M\u00e9xico, CDMX", "geometry": {"location": {"lat": 19.4373251, "lng": -99.198702}, "viewport": {"northeast": {"lat": 19.43867802989272, "lng": -99.19742467010728}, "southwest": {"lat": 19.43597837010728, "lng": -99.20012432989272}}}, "icon": "https://maps.gstatic.com/mapfiles/place_api/icons/v1/png_71/worship_jewish-71.png", "name": "Chabad Mexico", "photos": [{"height": 2160, "html_attributions": ["<a href=\"https://maps.google.com/maps/contrib/103628495717910063747\">\u05ea\u05d3\u05d4\u05e8 \u05e7\u05d0\u05e8\u05d5</a>"], "photo_reference": "CmRZAAAAz9-3AIeW1SK5Syx_lETfNF03hZXtX8W8ukBuiZeUNVN6GrX0NFVx1tijqk2Qghsn6y5amd244HisksWU4DiJKBegiiH5mKbMs6ihcPmIXcBfbjHnWa6sEDemSnQohtQKEhCAbwtIJ3PCtx4Tqow4F-5RGhSZHVtm1aNPIkQqDajvfsgdrLlSig", "width": 3840}], "place_id": "ChIJC11pjQQC0oUR0cOtTc5jV_Q", "plus_code": {"compound_code": "CRP2+WG Mexico City", "global_code": "76F2CRP2+WG"}, "rating": 4.8, "reference": "ChIJC11pjQQC0oUR0cOtTc5jV_Q", "types": ["synagogue", "place_of_worship", "point_of_interest", "establishment"], "user_ratings_total": 47}, {"business_status": "OPERATIONAL", "formatted_address": "Calle, Fuente del Pescador 35, Lomas de Tecamachalco, 53950 Naucalpan de Ju\u00e1rez, M\u00e9x.", "geometry": {"location": {"lat": 19.4116328, "lng": -99.242673}, "viewport": {"northeast": {"lat": 19.41304832989272, "lng": -99.2413820201073}, "southwest": {"lat": 19.41034867010728, "lng": -99.24408167989273}}}, "icon": "https://maps.gstatic.com/mapfiles/place_api/icons/v1/png_71/worship_jewish-71.png", "name": "Ramat Shalom Synagogue", "photos": [{"height": 3264, "html_attributions": ["<a href=\"https://maps.google.com/maps/contrib/108642646937430257681\">A Google User</a>"], "photo_reference": "CmRaAAAA4u0fU5UxNkxsGU0x2KlA2XHN7Z3BWrNB90FxG0FR4G3v3M1nbfyqnD9ycSsBasP8tyNwCTvz1A0w0_XnFjF-WJofryfUSxyojAt9Mhf71-cKnSVvjKiDNnuMj9AErod4EhAigWWQhVg_b8cfdl9QAYKLGhQmz5Rio69BA8DXN4VK8tJpp1_X6A", "width": 2448}], "place_id": "ChIJo5eLo3EB0oUR4hGdZJe5xBY", "plus_code": {"compound_code": "CQ64+MW Naucalpan de Ju\u00e1rez, State of Mexico", "global_code": "76F2CQ64+MW"}, "rating": 4.6, "reference": "ChIJo5eLo3EB0oUR4hGdZJe5xBY", "types": ["synagogue", "place_of_worship", "point_of_interest", "establishment"], "user_ratings_total": 136}, {"business_status": "CLOSED_TEMPORARILY", "formatted_address": "Av. Horacio 1722, Polanco, Polanco I Secc, Miguel Hidalgo, 11550 Ciudad de M\u00e9xico, CDMX", "geometry": {"location": {"lat": 19.4350927, "lng": -99.209136}, "viewport": {"northeast": {"lat": 19.43659817989272, "lng": -99.20777557010727}, "southwest": {"lat": 19.43389852010728, "lng": -99.21047522989271}}}, "icon": "https://maps.gstatic.com/mapfiles/place_api/icons/v1/png_71/worship_jewish-71.png", "name": "Beth El", "permanently_closed": true, "photos": [{"height": 4160, "html_attributions": ["<a href=\"https://maps.google.com/maps/contrib/116092427302593002931\">A Google User</a>"], "photo_reference": "CmRaAAAAtapPPa-SLua8Ix5Ylw9BO7yWCCL0cpo3MiPWoEhvmNQIiXa-lV32rcqd56bEIGA5NXrDdykCDjJOsdwMwXjgfHAKs11XtTNjNH4q5EVzp5Ok1eyxv9sifuYcRHow5tCSEhAMSzt1qF-lyzv3Y_19hbt6GhThAMTaPUmWP36fVOabsCXVuPDDrw", "width": 2340}], "place_id": "ChIJ1XwS1R4C0oURViGwKXks1kg", "plus_code": {"compound_code": "CQPR+28 Mexico City", "global_code": "76F2CQPR+28"}, "rating": 4.1, "reference": "ChIJ1XwS1R4C0oURViGwKXks1kg", "types": ["synagogue", "place_of_worship", "point_of_interest", "establishment"], "user_ratings_total": 11}, {"business_status": "CLOSED_TEMPORARILY", "formatted_address": "Av. loma de la Palma 133, Lomas de Vista Hermosa, Cuajimalpa de Morelos, 05100 Ciudad de M\u00e9xico, CDMX", "geometry": {"location": {"lat": 19.383055, "lng": -99.2735457}, "viewport": {"northeast": {"lat": 19.38467777989272, "lng": -99.27221322010729}, "southwest": {"lat": 19.38197812010728, "lng": -99.27491287989274}}}, "icon": "https://maps.gstatic.com/mapfiles/place_api/icons/v1/png_71/worship_jewish-71.png", "name": "SINAGOGA", "permanently_closed": true, "place_id": "ChIJSyCXvisB0oURgY1l3QAtB8Y", "plus_code": {"compound_code": "9PMG+6H Mexico City", "global_code": "76F29PMG+6H"}, "rating": 4.6, "reference": "ChIJSyCXvisB0oURgY1l3QAtB8Y", "types": ["synagogue", "place_of_worship", "point_of_interest", "establishment"], "user_ratings_total": 10}, {"business_status": "CLOSED_TEMPORARILY", "formatted_address": "Av. Horacio 1220, Polanco, Polanco III Secc, Miguel Hidalgo, 11550 Ciudad de M\u00e9xico, CDMX", "geometry": {"location": {"lat": 19.4341227, "lng": -99.2011792}, "viewport": {"northeast": {"lat": 19.43550627989272, "lng": -99.19982457010727}, "southwest": {"lat": 19.43280662010728, "lng": -99.20252422989272}}}, "icon": "https://maps.gstatic.com/mapfiles/place_api/icons/v1/png_71/worship_jewish-71.png", "name": "Kolel Dirshu", "permanently_closed": true, "photos": [{"height": 585, "html_attributions": ["<a href=\"https://maps.google.com/maps/contrib/102879326221939623434\">A Google User</a>"], "photo_reference": "CmRaAAAABYIA3Fqo7FY1z1liAAPRzQau8MVVjUokpWZfLfOfFbVtvwf3XL_Mx_TKqysHBWAtm5R16fv1NKvm8UgskR3yK8Sss4NAbsltVNayOuMQpcmZAPz-ggDo9PXH2RqoPF0eEhDi0-eAzEly2e2rtyR0O0DjGhT_CA0GogGyawT9O_1uHo2OIhdpMw", "width": 1040}], "place_id": "ChIJo8dCvJ8D0oUReIKvEaZF028", "plus_code": {"compound_code": "CQMX+JG Mexico City", "global_code": "76F2CQMX+JG"}, "rating": 4.4, "reference": "ChIJo8dCvJ8D0oUReIKvEaZF028", "types": ["synagogue", "place_of_worship", "point_of_interest", "establishment"], "user_ratings_total": 7}, {"business_status": "CLOSED_TEMPORARILY", "formatted_address": "53950, Fuente de San Sulpicio 16, Lomas de Tecamachalco, Naucalpan de Ju\u00e1rez, M\u00e9x.", "geometry": {"location": {"lat": 19.4235131, "lng": -99.2381963}, "viewport": {"northeast": {"lat": 19.42486337989272, "lng": -99.23688202010729}, "southwest": {"lat": 19.42216372010728, "lng": -99.23958167989272}}}, "icon": "https://maps.gstatic.com/mapfiles/place_api/icons/v1/png_71/worship_jewish-71.png", "name": "Sinagoga Beth Yehoshua Monte Sinai", "permanently_closed": true, "place_id": "ChIJp2erwX4B0oURs-mXf59S88A", "plus_code": {"compound_code": "CQF6+CP Naucalpan de Ju\u00e1rez, State of Mexico", "global_code": "76F2CQF6+CP"}, "rating": 4.9, "reference": "ChIJp2erwX4B0oURs-mXf59S88A", "types": ["synagogue", "place_of_worship", "point_of_interest", "establishment"], "user_ratings_total": 8}, {"business_status": "CLOSED_TEMPORARILY", "formatted_address": "Bosque de Sabinos 180, Bosque de las Lomas, Miguel Hidalgo, 11700 Ciudad de M\u00e9xico, CDMX", "geometry": {"location": {"lat": 19.4003511, "lng": -99.2424028}, "viewport": {"northeast": {"lat": 19.40177337989272, "lng": -99.24102917010727}, "southwest": {"lat": 19.39907372010728, "lng": -99.24372882989272}}}, "icon": "https://maps.gstatic.com/mapfiles/place_api/icons/v1/png_71/worship_jewish-71.png", "name": "Templo sabinos Maguen David", "permanently_closed": true, "photos": [{"height": 3456, "html_attributions": ["<a href=\"https://maps.google.com/maps/contrib/105020488801673945690\">rodrigo barreiro</a>"], "photo_reference": "CmRaAAAAkjWz09BGXli_AOypLh9g2OsX9xn8keThzEX3P4qBVva8d9ejPn7y-aAzLH7uAIRV1FG2BlS4S9IzJJsuKLxD4kaujgSse5D2jLhnCzu7Co-4VUVbAnTIaIOW21i4pZQtEhD84FuTmrWb_Qaz4wq7fdRBGhRh7afdTLnXukqfYuFZTSn7zE0Lag", "width": 4608}], "place_id": "ChIJ26OSTAwB0oURn9tV-MTzSXI", "plus_code": {"compound_code": "CQ25+42 Mexico City", "global_code": "76F2CQ25+42"}, "rating": 4.8, "reference": "ChIJ26OSTAwB0oURn9tV-MTzSXI", "types": ["synagogue", "place_of_worship", "point_of_interest", "establishment"], "user_ratings_total": 34}, {"business_status": "CLOSED_TEMPORARILY", "formatted_address": "\u00c1guilas, 01710 Mexico City, CDMX", "geometry": {"location": {"lat": 19.3626441, "lng": -99.20004139999999}, "viewport": {"northeast": {"lat": 19.36402647989273, "lng": -99.19869047010728}, "southwest": {"lat": 19.36132682010728, "lng": -99.20139012989272}}}, "icon": "https://maps.gstatic.com/mapfiles/place_api/icons/v1/png_71/worship_jewish-71.png", "name": "RE-CREO", "permanently_closed": true, "place_id": "ChIJt5RzLCMA0oUROMUXS5CRu7k", "plus_code": {"compound_code": "9Q7X+3X Mexico City", "global_code": "76F29Q7X+3X"}, "rating": 0, "reference": "ChIJt5RzLCMA0oUROMUXS5CRu7k", "types": ["synagogue", "place_of_worship", "gym", "health", "point_of_interest", "establishment"], "user_ratings_total": 0}, {"business_status": "CLOSED_TEMPORARILY", "formatted_address": "Av. Secretar\u00eda de Marina 580, Lomas del Chamizal, Cuajimalpa de Morelos, 05129 Ciudad de M\u00e9xico, CDMX", "geometry": {"location": {"lat": 19.3933562, "lng": -99.26522460000001}, "viewport": {"northeast": {"lat": 19.39470632989272, "lng": -99.26381262010729}, "southwest": {"lat": 19.39200667010727, "lng": -99.26651227989272}}}, "icon": "https://maps.gstatic.com/mapfiles/place_api/icons/v1/png_71/worship_jewish-71.png", "name": "Birkat Itzhak", "permanently_closed": true, "place_id": "ChIJ8yGt5ToB0oURpmLvab5inA8", "plus_code": {"compound_code": "9PVM+8W Mexico City", "global_code": "76F29PVM+8W"}, "rating": 4.3, "reference": "ChIJ8yGt5ToB0oURpmLvab5inA8", "types": ["synagogue", "place_of_worship", "point_of_interest", "establishment"], "user_ratings_total": 6}, {"business_status": "CLOSED_TEMPORARILY", "formatted_address": "52787, Pje. Interlomas 2, Bosque de las Palmas, Naucalpan de Ju\u00e1rez, M\u00e9x.", "geometry": {"location": {"lat": 19.4014456, "lng": -99.2756451}, "viewport": {"northeast": {"lat": 19.40293397989272, "lng": -99.27426977010727}, "southwest": {"lat": 19.40023432010728, "lng": -99.2769694298927}}}, "icon": "https://maps.gstatic.com/mapfiles/place_api/icons/v1/png_71/worship_jewish-71.png", "name": "Templo Shaare Tzion", "permanently_closed": true, "photos": [{"height": 2592, "html_attributions": ["<a href=\"https://maps.google.com/maps/contrib/106342096683876567533\">Jos\u00e9 Marcos</a>"], "photo_reference": "CmRaAAAAzUpSbT4P98NXGKrepznecOuoB9KA9jIT4GCyFvYarXaClXZKo-AerI3VXwjdBFtaqdj-iT74VnkdNTqAxhBM_2VrKydNZufzM_J1uUg-PK6OXebM4m9obgCHzJe-Eh-MEhAkm7UlHqTyGei5hwXbVGMZGhSuehRibCaqLniCoWctvzI0vBzGmw", "width": 3872}], "place_id": "ChIJhzJknjUB0oURpkcdur8y2ZI", "plus_code": {"compound_code": "CP2F+HP Naucalpan de Ju\u00e1rez, State of Mexico", "global_code": "76F2CP2F+HP"}, "rating": 4.6, "reference": "ChIJhzJknjUB0oURpkcdur8y2ZI", "types": ["synagogue", "place_of_worship", "point_of_interest", "establishment"], "user_ratings_total": 25}]