[{"business_status": "OPERATIONAL", "geometry": {"location": {"lat": 19.3527448, "lng": -99.0997421}, "viewport": {"northeast": {"lat": 19.3540951802915, "lng": -99.09839701970849}, "southwest": {"lat": 19.3513972197085, "lng": -99.1010949802915}}}, "icon": "https://maps.gstatic.com/mapfiles/place_api/icons/v1/png_71/generic_business-71.png", "name": "MAKE FEHU", "opening_hours": {"open_now": true}, "photos": [{"height": 567, "html_attributions": ["<a href=\"https://maps.google.com/maps/contrib/115600077794702299705\">MAKE FEHU</a>"], "photo_reference": "CmRaAAAAIeOUssmK61jRdKSA5csOa7eRJWGXYK1kESAO8r3S9Ugcy-xJsuAzlZ8GLHuie9f8HDqeWXNFhU22_qwyqX6DS2W1AR7jokasOcGFzeVGdOMzsZm4k6vWXE_ncatCe9kYEhB3M2x2QUvuapYDB2IKREU-GhTn-aZ8VZnk2PX50qElI210t0_WMQ", "width": 1007}], "place_id": "ChIJGXq0zuL90YURFQnARv_KpzY", "plus_code": {"compound_code": "9W32+34 Mexico City, CDMX, Mexico", "global_code": "76F29W32+34"}, "rating": 5, "reference": "ChIJGXq0zuL90YURFQnARv_KpzY", "scope": "GOOGLE", "types": ["spa", "point_of_interest", "establishment"], "user_ratings_total": 3, "vicinity": "Puentetitla 84, Ricardo Flores Mag\u00f3n, Ciudad de M\u00e9xico"}, {"business_status": "OPERATIONAL", "geometry": {"location": {"lat": 19.3515132, "lng": -99.09922139999999}, "viewport": {"northeast": {"lat": 19.3528819802915, "lng": -99.0979326197085}, "southwest": {"lat": 19.3501840197085, "lng": -99.10063058029151}}}, "icon": "https://maps.gstatic.com/mapfiles/place_api/icons/v1/png_71/generic_business-71.png", "name": "Massage Relax", "place_id": "ChIJHdtN4fL90YURakfKDX_iy9k", "plus_code": {"compound_code": "9W22+J8 Mexico City, CDMX, Mexico", "global_code": "76F29W22+J8"}, "reference": "ChIJHdtN4fL90YURakfKDX_iy9k", "scope": "GOOGLE", "types": ["spa", "point_of_interest", "establishment"], "vicinity": "Xochipilli #23 Col, Estrella del Sur, Ciudad de M\u00e9xico"}, {"business_status": "CLOSED_TEMPORARILY", "geometry": {"location": {"lat": 19.3535096, "lng": -99.1002354}, "viewport": {"northeast": {"lat": 19.3548644802915, "lng": -99.0989059697085}, "southwest": {"lat": 19.3521665197085, "lng": -99.1016039302915}}}, "icon": "https://maps.gstatic.com/mapfiles/place_api/icons/v1/png_71/generic_business-71.png", "name": "BLUE SPA", "permanently_closed": true, "photos": [{"height": 3968, "html_attributions": ["<a href=\"https://maps.google.com/maps/contrib/110495679320760372858\">SINERGIA EMPRESARIAL</a>"], "photo_reference": "CmRaAAAAASGmTVf5PQDEXS3BPYH41bsERT93EVDknR3Gp16YMCxIEgMr3bJ9jAL50tte3tdDQPI8Wxv83Nr36FjZ8l8yaRgWcpYIePr5Z5fG1yqJotnx1m7kGltZzZlDLI8rwH9oEhBROypRaZEJLSeymKD4Ka0WGhQ77kW4wYaFW4EBMge1S8OGfRd9ZQ", "width": 2976}], "place_id": "ChIJb2aDbPP90YURwhg1NpvbIZE", "plus_code": {"compound_code": "9V3X+CW Mexico City, CDMX, Mexico", "global_code": "76F29V3X+CW"}, "rating": 4.2, "reference": "ChIJb2aDbPP90YURwhg1NpvbIZE", "scope": "GOOGLE", "types": ["spa", "point_of_interest", "establishment"], "user_ratings_total": 5, "vicinity": "Privada Ermita Iztapalapa MZ3 LT35, Ampliaci\u00f3n Ricardo Flores Mag\u00f3n, Ciudad de M\u00e9xico"}, {"business_status": "OPERATIONAL", "geometry": {"location": {"lat": 19.3526334, "lng": -99.09882309999999}, "viewport": {"northeast": {"lat": 19.3539956302915, "lng": -99.0974647697085}, "southwest": {"lat": 19.3512976697085, "lng": -99.10016273029152}}}, "icon": "https://maps.gstatic.com/mapfiles/place_api/icons/v1/png_71/generic_business-71.png", "name": "Cynthia Cabina Estetica", "opening_hours": {"open_now": false}, "photos": [{"height": 2752, "html_attributions": ["<a href=\"https://maps.google.com/maps/contrib/113299504802300199962\">Cynthia De La Rosa</a>"], "photo_reference": "CmRaAAAAy1X_baOTpyVAkCmwGpr0fGdts9RUXpdyxXY9e_exTyFahM1w5b_ibp68yCh4ZYw-aodMajCNKSacNhME324pCFGyoh3cU0jidaYpAvDGyGLxQb-rl1d2gXHXQ-7dw8d1EhAndHa4aiRVNQoEAwWg8y_bGhSK6M9eGpjKG0mnkcj9TpAQwvO8bQ", "width": 2752}], "place_id": "ChIJMfQgEhH90YUR5bNbvmzWeVk", "plus_code": {"compound_code": "9W32+3F Mexico City, CDMX, Mexico", "global_code": "76F29W32+3F"}, "rating": 5, "reference": "ChIJMfQgEhH90YUR5bNbvmzWeVk", "scope": "GOOGLE", "types": ["beauty_salon", "spa", "point_of_interest", "establishment"], "user_ratings_total": 1, "vicinity": "Estrella del Sur, Ciudad de M\u00e9xico"}]