[{"business_status": "CLOSED_TEMPORARILY", "formatted_address": "Calz. de Tlalpan 3465, Sta. \u00darsula Coapa, Coyoac\u00e1n, 04650 Ciudad de M\u00e9xico, CDMX", "geometry": {"location": {"lat": 19.3028607, "lng": -99.1505277}, "viewport": {"northeast": {"lat": 19.3074599, "lng": -99.1447498}, "southwest": {"lat": 19.29962949999999, "lng": -99.15854300000001}}}, "icon": "https://maps.gstatic.com/mapfiles/place_api/icons/v1/png_71/stadium-71.png", "name": "Aztec Stadium", "permanently_closed": true, "photos": [{"height": 3132, "html_attributions": ["<a href=\"https://maps.google.com/maps/contrib/117203853644612829532\">luisrobertofutbol@hotmail.com</a>"], "photo_reference": "CmRaAAAAXy8wGCgEVbWhzBs5kqwk7fR79gWSgoFRVDN6pEDwGzk8SNGWdLvuoD9n37y71tw1iqME-siYISK0ELTeZahz3R_5Rsrzb7qN4qnlVUs5rOdRNnWguV_wL10w4kJ2fPg8EhBs0wBbTXTO2jH_5KgYTubPGhQsuoOlztwc7lVGH7Z09nBCWz4ZUg", "width": 5108}], "place_id": "ChIJGQkBCFIAzoURlLaQUWnuYZc", "plus_code": {"compound_code": "8R3X+4Q Mexico City", "global_code": "76F28R3X+4Q"}, "rating": 4.5, "reference": "ChIJGQkBCFIAzoURlLaQUWnuYZc", "types": ["stadium", "point_of_interest", "establishment"], "user_ratings_total": 56920}, {"business_status": "OPERATIONAL", "formatted_address": "Fernando Iglesias Calder\u00f3n S/N, Venustiano Carranza, Jard\u00edn Balbuena, 15900 Ciudad de M\u00e9xico, CDMX", "geometry": {"location": {"lat": 19.4102766, "lng": -99.1095521}, "viewport": {"northeast": {"lat": 19.41320545, "lng": -99.1081322}, "southwest": {"lat": 19.40669644999999, "lng": -99.11085259999999}}}, "icon": "https://maps.gstatic.com/mapfiles/place_api/icons/v1/png_71/stadium-71.png", "name": "Baseball Stadium Fray Nano", "photos": [{"height": 3936, "html_attributions": ["<a href=\"https://maps.google.com/maps/contrib/101664238304783501788\">Ramon Leon</a>"], "photo_reference": "CmRaAAAAHsoTV1tNrO9Az7MjU1FpBNjCoAVAO3bSXyfam1Lho7DssgigXAlwyhy8qnQUzvs0sKOrL2OrA1Edo_Bdct3zPQ5p8D2nJt4oHvuRc0XH60-DjCAZw9_dn9m1mHSonq2VEhCVIleDceY7CaYfDnkL0HWKGhSn1hKw5uxnAp_vf6zk33cqSEhyFA", "width": 5344}], "place_id": "ChIJ-VOrkpj-0YURixXUrTZIKpk", "plus_code": {"compound_code": "CV6R+45 Mexico City", "global_code": "76F2CV6R+45"}, "rating": 4.4, "reference": "ChIJ-VOrkpj-0YURixXUrTZIKpk", "types": ["stadium", "point_of_interest", "establishment"], "user_ratings_total": 5490}, {"business_status": "OPERATIONAL", "formatted_address": "Av. Viaducto Rio de la Piedad Ciudad de los Deportes Magdalena Mixihuca, Granjas M\u00e9xico, 08400 Ciudad de M\u00e9xico, CDMX", "geometry": {"location": {"lat": 19.4042943, "lng": -99.08574650000001}, "viewport": {"northeast": {"lat": 19.40564412989272, "lng": -99.08439667010728}, "southwest": {"lat": 19.40294447010728, "lng": -99.08709632989273}}}, "icon": "https://maps.gstatic.com/mapfiles/place_api/icons/v1/png_71/stadium-71.png", "name": "Estadio Alfredo Harp Hel\u00fa", "opening_hours": {"open_now": true}, "photos": [{"height": 2448, "html_attributions": ["<a href=\"https://maps.google.com/maps/contrib/101115047168761529286\">Jos\u00e9 Luis Fragoso</a>"], "photo_reference": "CmRaAAAA8EjsdxdMW9apqFaujlkSDnhBdlQmk7NEyMduV-SE_pLWZyTvMt0nvxZaxJb_ABysPvKhFgZm_RNm35EU307K1Va20S903cA9DuXrjtWFZWI8G3-cooAVM7FNmjB3d10qEhC8TADnsn6cSMqdOdYG7MHWGhStx3PFlArfRrxxmAKijnRA5jeOkw", "width": 3264}], "place_id": "ChIJi3mnaTn80YURx9zrrX9yv6M", "plus_code": {"compound_code": "CW37+PP Mexico City", "global_code": "76F2CW37+PP"}, "rating": 4.8, "reference": "ChIJi3mnaTn80YURx9zrrX9yv6M", "types": ["stadium", "point_of_interest", "establishment"], "user_ratings_total": 8189}, {"business_status": "CLOSED_TEMPORARILY", "formatted_address": "Calle Indiana 255, Cd. de los Deportes, Benito Ju\u00e1rez, 03710 Ciudad de M\u00e9xico, CDMX", "geometry": {"location": {"lat": 19.3834469, "lng": -99.1782654}, "viewport": {"northeast": {"lat": 19.38547475, "lng": -99.17651995000001}, "southwest": {"lat": 19.38133855, "lng": -99.18001575}}}, "icon": "https://maps.gstatic.com/mapfiles/place_api/icons/v1/png_71/stadium-71.png", "name": "Estadio Azul", "permanently_closed": true, "photos": [{"height": 2322, "html_attributions": ["<a href=\"https://maps.google.com/maps/contrib/113784461632749031085\">josari .</a>"], "photo_reference": "CmRaAAAAveDiTYY2KN5sZ9-vj_IHlGq-wqww9Tp8P0Izy_wVrVtagMbTwlEtn7nUX6MNc8FrNrEjMprkBoLaT8l0Ei2QVnyEwfeEJyDn8ZJNwcEn5OXm3b_rj3I4QAWcoxlTLANNEhDNLYPAiaflIY3g6a8bXtGsGhRngb4TQeguc3tEbDBRf7ZJG1VFuw", "width": 4128}], "place_id": "ChIJu_WbZ53_0YURJKUxXtIlvOk", "plus_code": {"compound_code": "9RMC+9M Mexico City", "global_code": "76F29RMC+9M"}, "rating": 4.3, "reference": "ChIJu_WbZ53_0YURJKUxXtIlvOk", "types": ["stadium", "point_of_interest", "establishment"], "user_ratings_total": 14237}, {"business_status": "CLOSED_TEMPORARILY", "formatted_address": "Av de los Insurgentes Sur S/N, C.U., Coyoac\u00e1n, 04510 Ciudad de M\u00e9xico, CDMX", "geometry": {"location": {"lat": 19.3319125, "lng": -99.1921777}, "viewport": {"northeast": {"lat": 19.33647864999999, "lng": -99.1875148}, "southwest": {"lat": 19.32672645, "lng": -99.1974748}}}, "icon": "https://maps.gstatic.com/mapfiles/place_api/icons/v1/png_71/stadium-71.png", "name": "Estadio Ol\u00edmpico Universitario", "permanently_closed": true, "photos": [{"height": 1840, "html_attributions": ["<a href=\"https://maps.google.com/maps/contrib/101239517767046041332\">A Google User</a>"], "photo_reference": "CmRaAAAAebmfFKyiLKgES7wn7OeVdQewlmBvRNNomDgpbUF-PELKT_jK9TG4cXNycZzk5QXtyDtviZ_TxpvdVvkHpYFg8Gz__fXqGXh_UISVh3fxocUNIdh0gDch9HjetrOGuAOQEhCMfKTVHxIcBXJBn7h5dYkAGhSPTcYoE33uJ-pm8k7YXuSIbFPAvA", "width": 3264}], "place_id": "ChIJz9X9XP7_zYUR4gSAZe8hcrg", "plus_code": {"compound_code": "8RJ5+Q4 Mexico City", "global_code": "76F28RJ5+Q4"}, "rating": 4.7, "reference": "ChIJz9X9XP7_zYUR4gSAZe8hcrg", "types": ["stadium", "point_of_interest", "establishment"], "user_ratings_total": 23962}, {"business_status": "OPERATIONAL", "formatted_address": "Calz Taxque\u00f1a 1961-C, San Francisco Culhuacan, San Francisco Culhuacan de Sta Ana, Coyoac\u00e1n, 04260 Ciudad de M\u00e9xico, CDMX", "geometry": {"location": {"lat": 19.3381307, "lng": -99.1183935}, "viewport": {"northeast": {"lat": 19.33950842989272, "lng": -99.11708397010727}, "southwest": {"lat": 19.33680877010728, "lng": -99.11978362989272}}}, "icon": "https://maps.gstatic.com/mapfiles/place_api/icons/v1/png_71/stadium-71.png", "name": "BASE Trolebuses Estadio CU-San Francisco Culhuac\u00e1n (Metro Taxque\u00f1a, Metro MIguel \u00c1ngel de Quevedo)", "photos": [{"height": 3264, "html_attributions": ["<a href=\"https://maps.google.com/maps/contrib/110395064743155494836\">Estrella Rosas</a>"], "photo_reference": "CmRaAAAATRAMHaweGl19i_3aCzzIsED6TbDqoIneRu_mFHVxWyf6v_iZpEM-QwV-RHrnMmhalCpXye4UPZpDSdaiZHgamYPTbATy3gungM8U9qnQlJf7fmmI-4gsOXwtX1OwMQFGEhDD_RDw6djQSIRUKgr7eEfoGhR9JAzsDFBBheQXohgfycxwbeYpoQ", "width": 1632}], "place_id": "ChIJS9tLjOEBzoUR1OlbSPmcy10", "plus_code": {"compound_code": "8VQJ+7J Mexico City", "global_code": "76F28VQJ+7J"}, "rating": 3.9, "reference": "ChIJS9tLjOEBzoUR1OlbSPmcy10", "types": ["stadium", "point_of_interest", "establishment"], "user_ratings_total": 109}, {"business_status": "CLOSED_TEMPORARILY", "formatted_address": "Calle 1 Ricardo Jaime 3, Iztapalapa, 09200 Ciudad de M\u00e9xico, CDMX", "geometry": {"location": {"lat": 19.3614793, "lng": -99.059292}, "viewport": {"northeast": {"lat": 19.36297702989272, "lng": -99.05791232010726}, "southwest": {"lat": 19.36027737010728, "lng": -99.06061197989271}}}, "icon": "https://maps.gstatic.com/mapfiles/place_api/icons/v1/png_71/stadium-71.png", "name": "Canchas chanchas", "permanently_closed": true, "place_id": "ChIJVZ2OsH_90YUR6_iJX4KFQPg", "plus_code": {"compound_code": "9W6R+H7 Mexico City", "global_code": "76F29W6R+H7"}, "rating": 4, "reference": "ChIJVZ2OsH_90YUR6_iJX4KFQPg", "types": ["stadium", "point_of_interest", "establishment"], "user_ratings_total": 1}, {"business_status": "CLOSED_TEMPORARILY", "formatted_address": "Estadio, Vista Azul, Benito Ju\u00e1rez, 03710 Santiago de Quer\u00e9taro, Qro.", "geometry": {"location": {"lat": 19.3834469, "lng": -99.1782654}, "viewport": {"northeast": {"lat": 19.38493857989273, "lng": -99.17648452010728}, "southwest": {"lat": 19.38223892010728, "lng": -99.17918417989273}}}, "icon": "https://maps.gstatic.com/mapfiles/place_api/icons/v1/png_71/stadium-71.png", "name": "Estadio Azul Y Plaza De Toros Desde Lo Alto", "permanently_closed": true, "photos": [{"height": 3120, "html_attributions": ["<a href=\"https://maps.google.com/maps/contrib/114725943743702721241\">Robert Diaz</a>"], "photo_reference": "CmRaAAAA0KypRGu04bdtCX7K378OqMCGYDRfBNKQoTY93-ZxrNQFg-O6FLg7BxhGP9m_M_ENPW8VbEk5SaDCeEpJ_6ZFqvDwp0bWKKkZLFs3hW06DxjODf8LuQifoLotI4yQpgIdEhA-xOsds8uV-xLccExC4p-EGhQ8vmUOofrATSH77Z7N3sgvi1VT3A", "width": 4160}], "place_id": "ChIJHRhYUJ3_0YUR5npJ1bhP6z8", "plus_code": {"compound_code": "9RMC+9M Mexico City", "global_code": "76F29RMC+9M"}, "rating": 4.3, "reference": "ChIJHRhYUJ3_0YUR5npJ1bhP6z8", "types": ["stadium", "point_of_interest", "establishment"], "user_ratings_total": 43}, {"business_status": "OPERATIONAL", "formatted_address": "Av, Viad. R\u00edo de la Piedad S/N, Granjas M\u00e9xico, Iztacalco, 08400 Ciudad de M\u00e9xico, CDMX", "geometry": {"location": {"lat": 19.405162, "lng": -99.09558870000001}, "viewport": {"northeast": {"lat": 19.40927010000001, "lng": -99.08792639999997}, "southwest": {"lat": 19.4004209, "lng": -99.10023360000001}}}, "icon": "https://maps.gstatic.com/mapfiles/place_api/icons/v1/png_71/stadium-71.png", "name": "Foro Sol", "photos": [{"height": 1952, "html_attributions": ["<a href=\"https://maps.google.com/maps/contrib/106851416375466626646\">Cristian</a>"], "photo_reference": "CmRaAAAAfwugtbPd6eFeHq-F20X7rZ_Oql7u3zTyXxdh1QYHv57y1JGfK2ub9xxB0MbhQZyH9VnuaO8JnzhbhBdK6wE96diZiq4y4_EJsHSJOHvPsbVcFqx2fi1WW-n-mq7o27QWEhAeEUnC0tzLrsnfb3nAiT7fGhTjaF3E2UN95TYuPbmpVDxNGCfEXw", "width": 3264}], "place_id": "ChIJYczSHCT80YURcAFpPX1ZlNk", "plus_code": {"compound_code": "CW43+3Q Mexico City", "global_code": "76F2CW43+3Q"}, "rating": 4.6, "reference": "ChIJYczSHCT80YURcAFpPX1ZlNk", "types": ["stadium", "point_of_interest", "establishment"], "user_ratings_total": 30573}, {"business_status": "OPERATIONAL", "formatted_address": "Av. Gral. L\u00e1zaro C\u00e1rdenas s/n, Benito Ju\u00e1rez, 57940 Nezahualc\u00f3yotl, M\u00e9x.", "geometry": {"location": {"lat": 19.4057897, "lng": -98.9870692}, "viewport": {"northeast": {"lat": 19.40695357989272, "lng": -98.98611677010729}, "southwest": {"lat": 19.40425392010728, "lng": -98.98881642989272}}}, "icon": "https://maps.gstatic.com/mapfiles/place_api/icons/v1/png_71/stadium-71.png", "name": "Estadio Neza 86", "photos": [{"height": 2988, "html_attributions": ["<a href=\"https://maps.google.com/maps/contrib/105143792918166207379\">German Mora</a>"], "photo_reference": "CmRaAAAAFOss-nqXQBfSkBKW1gnlub-ucMJIB8OEKRmHMsWfMwVDFML9ZisEGZb2WQKs7mkYfxT22fEVbn4o1tDmR9viK2zxa1I47SJkTTkKiOxqyNt58RW2rEasNchuImBTCEfLEhCwi4lEz5APbdy15DHmPKKhGhSMSGHjhFOKsCMJbZvvq0AmFzk5vg", "width": 5312}], "place_id": "ChIJL9scZBfj0YURdMcW9_uJWSA", "plus_code": {"compound_code": "C247+85 Ciudad Nezahualc\u00f3yotl, State of Mexico", "global_code": "76F3C247+85"}, "rating": 3.8, "reference": "ChIJL9scZBfj0YURdMcW9_uJWSA", "types": ["stadium", "point_of_interest", "establishment"], "user_ratings_total": 2048}, {"business_status": "CLOSED_TEMPORARILY", "formatted_address": "Calz Acoxpa 14, Coapa, Villa L\u00e1zaro C\u00e1rdenas, Tlalpan, 14370 L\u00e1zaro C\u00e1rdenas, CDMX", "geometry": {"location": {"lat": 19.2996136, "lng": -99.14106819999999}, "viewport": {"northeast": {"lat": 19.30073932989272, "lng": -99.13981457010728}, "southwest": {"lat": 19.29803967010728, "lng": -99.14251422989273}}}, "icon": "https://maps.gstatic.com/mapfiles/place_api/icons/v1/png_71/stadium-71.png", "name": "Estadio Centenario Marista", "permanently_closed": true, "photos": [{"height": 1920, "html_attributions": ["<a href=\"https://maps.google.com/maps/contrib/102014645445526508889\">Cesar Cortes</a>"], "photo_reference": "CmRaAAAA6eIgR4Ujm3_xBqZWwmss5uLg1cpqVaB3170wM16t9IUwsG_DKNxoXyghS73Ys28MEW-w__DbmZacMn8DyKyTJ6iRr1tCEagVp_af34YX_G-ktrSDquGV6zJeqTLATYj_EhBKZ6QIVN-m6_QG6ybUnWK-GhR1XGEu6hwtlwk4BQI5JP9_YHHhOQ", "width": 3200}], "place_id": "ChIJOxE9OqwBzoURGZnsJs_X2Uw", "plus_code": {"compound_code": "7VX5+RH Villa L\u00e1zaro C\u00e1rdenas, Mexico City", "global_code": "76F27VX5+RH"}, "rating": 4.7, "reference": "ChIJOxE9OqwBzoURGZnsJs_X2Uw", "types": ["stadium", "point_of_interest", "establishment"], "user_ratings_total": 3}, {"business_status": "OPERATIONAL", "formatted_address": "Cto. Estadio Ol\u00edmpico, C.U., Coyoac\u00e1n, 04510 Ciudad de M\u00e9xico, CDMX", "geometry": {"location": {"lat": 19.3336151, "lng": -99.19213239999999}, "viewport": {"northeast": {"lat": 19.33501367989273, "lng": -99.19078177010728}, "southwest": {"lat": 19.33231402010728, "lng": -99.19348142989273}}}, "icon": "https://maps.gstatic.com/mapfiles/place_api/icons/v1/png_71/stadium-71.png", "name": "Estadio Universitario Cu", "photos": [{"height": 2322, "html_attributions": ["<a href=\"https://maps.google.com/maps/contrib/110577834851046947574\">Carlos Valencia</a>"], "photo_reference": "CmRaAAAAicxCEcLa3swivviwKxkXYBiFDubePWBkkFaLgpAcP2AFKywdn3JlJpJubcvbZcAJ1XSYX-XHPE53ED3AF1UkXMysmG8lW58iK8EPI_HTXZy1a0GisPaVPaLi8aD36_vjEhA2h2H1c99O0sZLAb3HQm5hGhTZf-3KzW4uVsmgm4yFFSSpTf7Kzw", "width": 4128}], "place_id": "ChIJbbqQpf7_zYURnsC3ajkdjHU", "plus_code": {"compound_code": "8RM5+C4 Mexico City", "global_code": "76F28RM5+C4"}, "rating": 4.8, "reference": "ChIJbbqQpf7_zYURnsC3ajkdjHU", "types": ["stadium", "point_of_interest", "establishment"], "user_ratings_total": 451}, {"business_status": "CLOSED_TEMPORARILY", "formatted_address": "Palacio Nacional 157, Metropolitana 2da Secc, 57740 Nezahualc\u00f3yotl, M\u00e9x.", "geometry": {"location": {"lat": 19.3921868, "lng": -99.0250027}, "viewport": {"northeast": {"lat": 19.39346217989272, "lng": -99.02349167010729}, "southwest": {"lat": 19.39076252010727, "lng": -99.02619132989273}}}, "icon": "https://maps.gstatic.com/mapfiles/place_api/icons/v1/png_71/stadium-71.png", "name": "Estadio Metropolitano", "permanently_closed": true, "place_id": "ChIJkZWsznv90YURn-l1aoOsMDY", "plus_code": {"compound_code": "9XRF+VX Ciudad Nezahualc\u00f3yotl, State of Mexico", "global_code": "76F29XRF+VX"}, "rating": 0, "reference": "ChIJkZWsznv90YURn-l1aoOsMDY", "types": ["stadium", "point_of_interest", "establishment"], "user_ratings_total": 0}, {"business_status": "CLOSED_TEMPORARILY", "formatted_address": "Boulevard 4, Granjas M\u00e9xico, Iztacalco, 08400 Ciudad de M\u00e9xico, CDMX", "geometry": {"location": {"lat": 19.4075425, "lng": -99.10051729999999}, "viewport": {"northeast": {"lat": 19.40889232989272, "lng": -99.09916747010729}, "southwest": {"lat": 19.40619267010728, "lng": -99.10186712989272}}}, "icon": "https://maps.gstatic.com/mapfiles/place_api/icons/v1/png_71/stadium-71.png", "name": "Arena Gamos", "permanently_closed": true, "photos": [{"height": 2268, "html_attributions": ["<a href=\"https://maps.google.com/maps/contrib/116841598789110091172\">pabel octavio rosas montero</a>"], "photo_reference": "CmRaAAAA9ZQjX28VFD-Yz_QqxRS1gbseEwylIy5Devs3DOaw5wdGzcBJxWSDgQUNM4rMQ84hs5tXZQU0ugLjN1lAUGDXWrBtuaPKxP953oCdGPZM-UOCWfZCoNHAyAqPEHvXtTC9EhBQfz3RlSu9OzOgV5KpJy6QGhTjiRZ_SYGyQ_Ni3fZS7EN4c-uHgw", "width": 4032}], "place_id": "ChIJYxl8DYT90YURRGPuaRQ8kDc", "plus_code": {"compound_code": "CV5X+2Q Mexico City", "global_code": "76F2CV5X+2Q"}, "rating": 3.8, "reference": "ChIJYxl8DYT90YURRGPuaRQ8kDc", "types": ["stadium", "point_of_interest", "establishment"], "user_ratings_total": 4}, {"business_status": "CLOSED_TEMPORARILY", "formatted_address": "Calz. del Hueso #388, Coapa, Girasoles III, Coyoac\u00e1n, 04920 Ciudad de M\u00e9xico, CDMX", "geometry": {"location": {"lat": 19.3088201, "lng": -99.1273435}, "viewport": {"northeast": {"lat": 19.31005472989272, "lng": -99.12559372010728}, "southwest": {"lat": 19.30735507010728, "lng": -99.12829337989272}}}, "icon": "https://maps.gstatic.com/mapfiles/place_api/icons/v1/png_71/stadium-71.png", "name": "Campo RAYOS", "permanently_closed": true, "photos": [{"height": 1080, "html_attributions": ["<a href=\"https://maps.google.com/maps/contrib/101254300168083655681\">A Google User</a>"], "photo_reference": "CmRaAAAAAi75y7BfBNsKfcTdQPxoutnET6k6DvO9Ih0PLpuL5mdtJ5UiHyU7FSUAhdjIRpH-UZhqdI6k60QmD7Fzb4FWgZpch8zWsPJRa2nuaqfdHg9tmlDu7aIOSs8rfJjC4vKGEhAB8bb3G4G6d-DqgehQj724GhTufMZjaDa6m3AIw33pX-5XbMF1YQ", "width": 1920}], "place_id": "ChIJRfBEdT0BzoURzx1ZcYEG6Xk", "plus_code": {"compound_code": "8V5F+G3 Mexico City", "global_code": "76F28V5F+G3"}, "rating": 0, "reference": "ChIJRfBEdT0BzoURzx1ZcYEG6Xk", "types": ["stadium", "point_of_interest", "establishment"], "user_ratings_total": 0}, {"business_status": "OPERATIONAL", "formatted_address": "Escolar D, C.U., Coyoac\u00e1n, 04510 Coyac\u00e1n, CDMX", "geometry": {"location": {"lat": 19.3265633, "lng": -99.1868126}, "viewport": {"northeast": {"lat": 19.32821015, "lng": -99.18525975}, "southwest": {"lat": 19.32503235, "lng": -99.18906234999999}}}, "icon": "https://maps.gstatic.com/mapfiles/place_api/icons/v1/png_71/stadium-71.png", "name": "Roberto stadium \"Tapatio\" Mendez", "photos": [{"height": 3072, "html_attributions": ["<a href=\"https://maps.google.com/maps/contrib/104098212109388624391\">A Google User</a>"], "photo_reference": "CmRaAAAAkN1Bp54STtnyFoh45sHigJ8VAi6UkEvi6DjxtDmbH9J5g9asB7-pueT84lutdzt9tDk55ZFMz63ohOKEUxQDycPgBHUCMV9DH-4_5nxBeZlSvZLW7THKhP4Sx-swQvKLEhBBcJs8n5cQLuf4PvYx-YBRGhQ4JsZwsp0H_uJVYPbnalv4Rx6eDA", "width": 4096}], "place_id": "ChIJQxSqTgYAzoURs9NLVsbu2dY", "plus_code": {"compound_code": "8RG7+J7 University City, Mexico City", "global_code": "76F28RG7+J7"}, "rating": 4.5, "reference": "ChIJQxSqTgYAzoURs9NLVsbu2dY", "types": ["stadium", "point_of_interest", "establishment"], "user_ratings_total": 885}, {"business_status": "CLOSED_TEMPORARILY", "formatted_address": "Xalpa, Iztapalapa, 09640 Mexico City, CDMX", "geometry": {"location": {"lat": 19.3373564, "lng": -99.013117}, "viewport": {"northeast": {"lat": 19.33873397989273, "lng": -99.01174917010728}, "southwest": {"lat": 19.33603432010728, "lng": -99.01444882989273}}}, "icon": "https://maps.gstatic.com/mapfiles/place_api/icons/v1/png_71/stadium-71.png", "name": "Liga Las Canchas", "permanently_closed": true, "photos": [{"height": 2448, "html_attributions": ["<a href=\"https://maps.google.com/maps/contrib/112983080699927292420\">A Google User</a>"], "photo_reference": "CmRaAAAAdlAyQrQoCRU0cKKThfMDrgQgU1s2C5V4hOeRxVJ42GvAEFa7IEWWA469IGn9PyIiBaxefz0VN1gYJPpVy8JL7dSxkPjbu4hXImpxakAfwtWihw1QVDrOejmz-CH5DwRkEhCw3ZuJ2Oo4Jvp02J8SEvYjGhQgXh7Okd8ULscRGaglL4eWsgldUg", "width": 3264}], "place_id": "ChIJkZQOzKwCzoURFumIWjLxdY8", "plus_code": {"compound_code": "8XPP+WQ Mexico City", "global_code": "76F28XPP+WQ"}, "rating": 3.6, "reference": "ChIJkZQOzKwCzoURFumIWjLxdY8", "types": ["stadium", "point_of_interest", "establishment"], "user_ratings_total": 30}, {"business_status": "CLOSED_TEMPORARILY", "formatted_address": "Nte. 1 3, Isidro Fabela, Tlalpan, 14030 Ciudad de M\u00e9xico, CDMX", "geometry": {"location": {"lat": 19.2987143, "lng": -99.1762608}, "viewport": {"northeast": {"lat": 19.30001577989272, "lng": -99.17480667010729}, "southwest": {"lat": 19.29731612010728, "lng": -99.17750632989272}}}, "icon": "https://maps.gstatic.com/mapfiles/place_api/icons/v1/png_71/stadium-71.png", "name": "Estadio de B\u00e9isbol \"Chicote Ayala\"", "permanently_closed": true, "photos": [{"height": 2592, "html_attributions": ["<a href=\"https://maps.google.com/maps/contrib/111040372072033880839\">Airmara Guardado</a>"], "photo_reference": "CmRaAAAARBWB02Mxnz9ghAEvH40Iq1Rpp7HgGxAsPXvJQC32iLmDKqecC-KosH5d_G7aZCNXFfBzI_P-Eay51KjPNfiajkD6gbSE9CEt9icMK2palWF5CNgva9GqndTa-7b5xg48EhCe3O8VUDZF3zSOGb_P6A1zGhSD1KMVJ9RchzQeboMZxHOGLzQLGA", "width": 1944}], "place_id": "ChIJrZ2Ya6cluoYRDauTwY8iV_A", "plus_code": {"compound_code": "7RXF+FF Mexico City", "global_code": "76F27RXF+FF"}, "rating": 3.9, "reference": "ChIJrZ2Ya6cluoYRDauTwY8iV_A", "types": ["stadium", "point_of_interest", "establishment"], "user_ratings_total": 10}, {"business_status": "CLOSED_TEMPORARILY", "formatted_address": "Calz. de Tlalpan 3465, Sta. \u00darsula Coapa, Coyoac\u00e1n, 04650 Ciudad de M\u00e9xico, CDMX", "geometry": {"location": {"lat": 19.3022081, "lng": -99.1485143}, "viewport": {"northeast": {"lat": 19.30345947989272, "lng": -99.14710667010728}, "southwest": {"lat": 19.30075982010727, "lng": -99.14980632989271}}}, "icon": "https://maps.gstatic.com/mapfiles/place_api/icons/v1/png_71/stadium-71.png", "name": "Palco3236", "permanently_closed": true, "place_id": "ChIJV87cYlIAzoURkejvZ98z7mg", "plus_code": {"compound_code": "8V22+VH Mexico City", "global_code": "76F28V22+VH"}, "rating": 0, "reference": "ChIJV87cYlIAzoURkejvZ98z7mg", "types": ["stadium", "point_of_interest", "establishment"], "user_ratings_total": 0}, {"business_status": "CLOSED_TEMPORARILY", "formatted_address": "Av. Luis Enrique Erro s/n, Zacatenco, Gustavo A. Madero, 07738 Ciudad de M\u00e9xico, CDMX", "geometry": {"location": {"lat": 19.5018761, "lng": -99.1385581}, "viewport": {"northeast": {"lat": 19.50329927989272, "lng": -99.13764197010728}, "southwest": {"lat": 19.50059962010728, "lng": -99.14034162989273}}}, "icon": "https://maps.gstatic.com/mapfiles/place_api/icons/v1/png_71/stadium-71.png", "name": "Estadio Wilfrido Massieu", "permanently_closed": true, "photos": [{"height": 2448, "html_attributions": ["<a href=\"https://maps.google.com/maps/contrib/101106335386366421819\">Gerardo L\u00f3pez Osorio</a>"], "photo_reference": "CmRaAAAAXYB1gIWLePC5VkTmgrrIr-d3mVRvEdZNN9fT4W4hcPStNih80sZzJ7o4AOe5OoM1Emk2kbz0wsn2vw3lBNXAxEjZ62J7_htqNw94Ga4z5d0HwFiD0uUamE6v69HCyJxIEhByxYT2ke7J3t2S1OJ3smZ3GhQSaxVKSZZxNGV0ipNuZtCm6ZXSAg", "width": 3264}], "place_id": "ChIJo99QQrb50YURjBuwzYewDRo", "plus_code": {"compound_code": "GV26+QH Mexico City", "global_code": "76F2GV26+QH"}, "rating": 4.7, "reference": "ChIJo99QQrb50YURjBuwzYewDRo", "types": ["stadium", "point_of_interest", "establishment"], "user_ratings_total": 2870}]