[{"business_status": "OPERATIONAL", "formatted_address": "Acoxpa SN, Amp Ricardo Flores Mag\u00f3n, Iztapalapa, 09310 Ciudad de M\u00e9xico, CDMX", "geometry": {"location": {"lat": 19.354909, "lng": -99.0994375}, "viewport": {"northeast": {"lat": 19.35624982989272, "lng": -99.09806937010727}, "southwest": {"lat": 19.35355017010728, "lng": -99.10076902989272}}}, "icon": "https://maps.gstatic.com/mapfiles/place_api/icons/v1/png_71/generic_business-71.png", "name": "Transportes Ejecutivos Albatros", "place_id": "ChIJ-Sky8OL90YURUkIKxTCGO8g", "plus_code": {"compound_code": "9W32+X6 Mexico City", "global_code": "76F29W32+X6"}, "rating": 0, "reference": "ChIJ-Sky8OL90YURUkIKxTCGO8g", "types": ["taxi_stand", "point_of_interest", "establishment"], "user_ratings_total": 0}, {"business_status": "OPERATIONAL", "formatted_address": "Entrada principal UAM-1, Sur 21, Leyes de Reforma 1ra Secc, 09310 Ciudad de M\u00e9xico, CDMX", "geometry": {"location": {"lat": 19.3619586, "lng": -99.07102049999999}, "viewport": {"northeast": {"lat": 19.36326567989272, "lng": -99.06968452010729}, "southwest": {"lat": 19.36056602010728, "lng": -99.07238417989272}}}, "icon": "https://maps.gstatic.com/mapfiles/place_api/icons/v1/png_71/generic_business-71.png", "name": "Base de Taxis UAM-I", "opening_hours": {"open_now": true}, "place_id": "ChIJBxlu4pb90YURtkGgknci_K0", "plus_code": {"compound_code": "9W6H+QH Mexico City", "global_code": "76F29W6H+QH"}, "rating": 3.9, "reference": "ChIJBxlu4pb90YURtkGgknci_K0", "types": ["taxi_stand", "point_of_interest", "establishment"], "user_ratings_total": 7}, {"business_status": "OPERATIONAL", "formatted_address": "Huitzilopochtli S/n, Coapa, Culhuacan CTM VII, Coyoac\u00e1n, 04430 Ciudad de M\u00e9xico, CDMX", "geometry": {"location": {"lat": 19.3234855, "lng": -99.112258}, "viewport": {"northeast": {"lat": 19.32484982989272, "lng": -99.11090712010727}, "southwest": {"lat": 19.32215017010728, "lng": -99.11360677989272}}}, "icon": "https://maps.gstatic.com/mapfiles/place_api/icons/v1/png_71/generic_business-71.png", "name": "Sitio Culhuacan", "place_id": "ChIJN4qTMssBzoURttXduKC8DtY", "plus_code": {"compound_code": "8VFQ+93 Mexico City", "global_code": "76F28VFQ+93"}, "rating": 0, "reference": "ChIJN4qTMssBzoURttXduKC8DtY", "types": ["taxi_stand", "point_of_interest", "establishment"], "user_ratings_total": 0}, {"business_status": "OPERATIONAL", "formatted_address": "Lateral de Viaducto Tlalpan S/n, Coapa, Velisario Dominguez, Tlalpan, 14080 Ciudad de M\u00e9xico, CDMX", "geometry": {"location": {"lat": 19.3130653, "lng": -99.1070113}, "viewport": {"northeast": {"lat": 19.31442902989273, "lng": -99.10563272010728}, "southwest": {"lat": 19.31172937010728, "lng": -99.10833237989273}}}, "icon": "https://maps.gstatic.com/mapfiles/place_api/icons/v1/png_71/generic_business-71.png", "name": "Uni\u00f3n de Taxistas de la Zona de Hospitales del Sur Sitio 293 A.C.", "place_id": "ChIJr3f5tfkAzoURM5BQBPrfMms", "rating": 0, "reference": "ChIJr3f5tfkAzoURM5BQBPrfMms", "types": ["taxi_stand", "point_of_interest", "establishment"], "user_ratings_total": 0}, {"business_status": "OPERATIONAL", "formatted_address": "Calz de la Virgen, Coapa, Ex-Ejido de San Pablo Tepetlapa, Coyoac\u00e1n, 04800 Ciudad de M\u00e9xico, CDMX", "geometry": {"location": {"lat": 19.3201422, "lng": -99.11600740000002}, "viewport": {"northeast": {"lat": 19.32147997989272, "lng": -99.11465537010729}, "southwest": {"lat": 19.31878032010728, "lng": -99.11735502989272}}}, "icon": "https://maps.gstatic.com/mapfiles/place_api/icons/v1/png_71/generic_business-71.png", "name": "Taxis escuela m\u00e9dica naval", "opening_hours": {"open_now": true}, "place_id": "ChIJGSmYOiABzoUROaXOs1_BWLg", "plus_code": {"compound_code": "8VCM+3H Mexico City", "global_code": "76F28VCM+3H"}, "rating": 5, "reference": "ChIJGSmYOiABzoUROaXOs1_BWLg", "types": ["taxi_stand", "point_of_interest", "establishment"], "user_ratings_total": 1}, {"business_status": "OPERATIONAL", "formatted_address": "13219 de, Providencia 26, \u00c1rea Federal Pante\u00f3n San Lorenzo Tezonco, Iztapalapa, Ciudad de M\u00e9xico, CDMX", "geometry": {"location": {"lat": 19.3066189, "lng": -99.0593153}, "viewport": {"northeast": {"lat": 19.30769007989272, "lng": -99.05758547010727}, "southwest": {"lat": 19.30499042010728, "lng": -99.0602851298927}}}, "icon": "https://maps.gstatic.com/mapfiles/place_api/icons/v1/png_71/generic_business-71.png", "name": "Taxi station", "place_id": "ChIJ8ZDimlcCzoURUamf5bg7bF0", "plus_code": {"compound_code": "8W4R+J7 Mexico City", "global_code": "76F28W4R+J7"}, "rating": 3, "reference": "ChIJ8ZDimlcCzoURUamf5bg7bF0", "types": ["taxi_stand", "point_of_interest", "establishment"], "user_ratings_total": 1}, {"business_status": "OPERATIONAL", "formatted_address": "Canal de Miramontes SN, Coapa, Prado Coyoac\u00e1n, Coyoac\u00e1n, 04890 Ciudad de M\u00e9xico, CDMX", "geometry": {"location": {"lat": 19.318212, "lng": -99.1302081}, "viewport": {"northeast": {"lat": 19.31960602989272, "lng": -99.12883532010729}, "southwest": {"lat": 19.31690637010728, "lng": -99.13153497989273}}}, "icon": "https://maps.gstatic.com/mapfiles/place_api/icons/v1/png_71/generic_business-71.png", "name": "Base de Taxis Organizaci\u00f3n 4 de Mayo", "place_id": "ChIJF4_W1Q4BzoURK7TYl6e-cn4", "plus_code": {"compound_code": "8V99+7W Mexico City", "global_code": "76F28V99+7W"}, "rating": 0, "reference": "ChIJF4_W1Q4BzoURK7TYl6e-cn4", "types": ["taxi_stand", "point_of_interest", "establishment"], "user_ratings_total": 0}, {"business_status": "OPERATIONAL", "formatted_address": "Chinam Pac de Ju\u00e1rez, Iztapalapa, 09208 Mexico City", "geometry": {"location": {"lat": 19.376081, "lng": -99.0571439}, "viewport": {"northeast": {"lat": 19.37743082989272, "lng": -99.0557940701073}, "southwest": {"lat": 19.37473117010728, "lng": -99.05849372989273}}}, "icon": "https://maps.gstatic.com/mapfiles/place_api/icons/v1/png_71/generic_business-71.png", "name": "Base Taxis Hacienda de las Flores", "opening_hours": {"open_now": true}, "photos": [{"height": 1040, "html_attributions": ["<a href=\"https://maps.google.com/maps/contrib/113544594659159268370\">Arturo Flores V</a>"], "photo_reference": "CmRaAAAAP_UXkIWddAXoMuzHtXhprWHqVIDefNwC2ePm10EcqRTKVQOCM1G2it_rbja0lyPKmJdTWnFubJSkoleMv0T3JcjcqfRE6BWULhxIVPX41H8FlD_yKzhNjn6jcMMHixjsEhAStcrGThJ8KkU5vZgo2pxqGhTgPyv5r8SIZu4Ynwvv6YEsJbSNgg", "width": 780}], "place_id": "ChIJXdfjcBz90YURruo0UxQg_Vg", "plus_code": {"compound_code": "9WGV+C4 Mexico City", "global_code": "76F29WGV+C4"}, "rating": 0, "reference": "ChIJXdfjcBz90YURruo0UxQg_Vg", "types": ["taxi_stand", "point_of_interest", "establishment"], "user_ratings_total": 0}, {"business_status": "OPERATIONAL", "formatted_address": "Eje 5 Sur (Prol., Calle 12, Cabeza de Ju\u00e1rez VIII, Ciudad de M\u00e9xico, CDMX", "geometry": {"location": {"lat": 19.3742149, "lng": -99.0525298}, "viewport": {"northeast": {"lat": 19.37551347989272, "lng": -99.05118222010728}, "southwest": {"lat": 19.37281382010728, "lng": -99.05388187989273}}}, "icon": "https://maps.gstatic.com/mapfiles/place_api/icons/v1/png_71/generic_business-71.png", "name": "Bas\u00e9 de Taxis \"Frentes\"", "place_id": "ChIJJ7O9OAn90YURVSetkBV8ipU", "plus_code": {"compound_code": "9WFW+MX Mexico City", "global_code": "76F29WFW+MX"}, "rating": 3.4, "reference": "ChIJJ7O9OAn90YURVSetkBV8ipU", "types": ["taxi_stand", "point_of_interest", "establishment"], "user_ratings_total": 7}, {"business_status": "OPERATIONAL", "formatted_address": "Eje 1 Ote 151, Campestre Churubusco, Coyoac\u00e1n, 04200 Ciudad de M\u00e9xico, CDMX", "geometry": {"location": {"lat": 19.341481, "lng": -99.1376306}, "viewport": {"northeast": {"lat": 19.34282967989272, "lng": -99.13622392010727}, "southwest": {"lat": 19.34013002010728, "lng": -99.13892357989272}}}, "icon": "https://maps.gstatic.com/mapfiles/place_api/icons/v1/png_71/generic_business-71.png", "name": "Sitio De Taxis 174 Genesis", "photos": [{"height": 3264, "html_attributions": ["<a href=\"https://maps.google.com/maps/contrib/108229608170158715086\">Ricardo Salvador</a>"], "photo_reference": "CmRaAAAAYC16cTXYr7QdtiTO3noWcPPJP5HMcewBZx5oS4ln-iwFrrfVJOcudtc3QfaFo-n3XLzXFYCIFt4lfvkVu69lWN3UuY71Sa8pFwFG12VnuqpXnpXAHInwve9CeYvekW3oEhCOcghag-5zeoNO_rAhhPG5GhQSSeaYpRGLGHkD9gUa_jjARLk1GA", "width": 2448}], "place_id": "ChIJEe8GrCn-0YURMfiMH7T-kIs", "plus_code": {"compound_code": "8VR6+HW Mexico City", "global_code": "76F28VR6+HW"}, "rating": 3.3, "reference": "ChIJEe8GrCn-0YURMfiMH7T-kIs", "types": ["taxi_stand", "point_of_interest", "establishment"], "user_ratings_total": 3}, {"business_status": "OPERATIONAL", "formatted_address": "Bulgaria 70, Portales Nte, Benito Ju\u00e1rez, 03300 Ciudad de M\u00e9xico, CDMX", "geometry": {"location": {"lat": 19.3653738, "lng": -99.1477397}, "viewport": {"northeast": {"lat": 19.36675672989272, "lng": -99.14633372010728}, "southwest": {"lat": 19.36405707010728, "lng": -99.14903337989273}}}, "icon": "https://maps.gstatic.com/mapfiles/place_api/icons/v1/png_71/generic_business-71.png", "name": "Taxis del Valle", "place_id": "ChIJPc225LT_0YURNAEfX3_v2ao", "plus_code": {"compound_code": "9V82+4W Mexico City", "global_code": "76F29V82+4W"}, "rating": 2.7, "reference": "ChIJPc225LT_0YURNAEfX3_v2ao", "types": ["taxi_stand", "point_of_interest", "establishment"], "user_ratings_total": 3}, {"business_status": "OPERATIONAL", "formatted_address": "Santa Ana y Eje 3 Oriente 590, Ctm Culuhac\u00e1n, Coyoac\u00e1n, 04480 Ciudad de M\u00e9xico, CDMX", "geometry": {"location": {"lat": 19.348532, "lng": -99.0692512}, "viewport": {"northeast": {"lat": 19.34988607989272, "lng": -99.06789957010729}, "southwest": {"lat": 19.34718642010728, "lng": -99.07059922989274}}}, "icon": "https://maps.gstatic.com/mapfiles/place_api/icons/v1/png_71/generic_business-71.png", "name": "Servicio Trice", "place_id": "ChIJX-btS4_90YURtBwpOUkjXH0", "rating": 0, "reference": "ChIJX-btS4_90YURtBwpOUkjXH0", "types": ["taxi_stand", "point_of_interest", "establishment"], "user_ratings_total": 0}, {"business_status": "OPERATIONAL", "formatted_address": "Av Ej\u00e9rcito Nacional SN, Apatlaco, Iztapalapa, 11510 Ciudad de M\u00e9xico, CDMX", "geometry": {"location": {"lat": 19.3798323, "lng": -99.1113889}, "viewport": {"northeast": {"lat": 19.38114832989272, "lng": -99.11004722010729}, "southwest": {"lat": 19.37844867010728, "lng": -99.11274687989273}}}, "icon": "https://maps.gstatic.com/mapfiles/place_api/icons/v1/png_71/generic_business-71.png", "name": "Taxis Prestige", "place_id": "ChIJS6XWOHv-0YURFQd2nN4Sjdk", "rating": 0, "reference": "ChIJS6XWOHv-0YURFQd2nN4Sjdk", "types": ["taxi_stand", "point_of_interest", "establishment"], "user_ratings_total": 0}, {"business_status": "OPERATIONAL", "formatted_address": "Rancho Vista Hermosa 170, Coapa, Los Sauces, Coyoac\u00e1n, 04940 Ciudad de M\u00e9xico, CDMX", "geometry": {"location": {"lat": 19.3065347, "lng": -99.1185574}, "viewport": {"northeast": {"lat": 19.30793127989272, "lng": -99.11720517010728}, "southwest": {"lat": 19.30523162010728, "lng": -99.11990482989273}}}, "icon": "https://maps.gstatic.com/mapfiles/place_api/icons/v1/png_71/generic_business-71.png", "name": "268 ZAETAS taxi stand COAPA", "place_id": "ChIJlReLMJcBzoURyGXvHPI8fUk", "plus_code": {"compound_code": "8V4J+JH Mexico City", "global_code": "76F28V4J+JH"}, "rating": 3.6, "reference": "ChIJlReLMJcBzoURyGXvHPI8fUk", "types": ["taxi_stand", "point_of_interest", "establishment"], "user_ratings_total": 12}, {"business_status": "OPERATIONAL", "formatted_address": "Calz Taxque\u00f1a 1320, Campestre Churubusco, Coyoac\u00e1n, 04200 Ciudad de M\u00e9xico, CDMX", "geometry": {"location": {"lat": 19.3423914, "lng": -99.13899169999999}, "viewport": {"northeast": {"lat": 19.34374687989272, "lng": -99.13768537010728}, "southwest": {"lat": 19.34104722010727, "lng": -99.14038502989273}}}, "icon": "https://maps.gstatic.com/mapfiles/place_api/icons/v1/png_71/generic_business-71.png", "name": "CDMX TERMINAL TAXIS Taxque\u00f1a", "opening_hours": {"open_now": true}, "photos": [{"height": 2988, "html_attributions": ["<a href=\"https://maps.google.com/maps/contrib/100874750907866404397\">A Google User</a>"], "photo_reference": "CmRaAAAAdM8rRgVRA3hoHCosKweZ1nRQmwTTdZdJJWlP0bcCjn5GYXQzISIfzMJXglLS8CR0la-PDGNnZi3ZX_GCQC8j3eom5R6inlcOwlpXLAsUZsed2mWxiS20Gv_CW2bWzKY3EhC-XVAipTvQG-ScWhFfQGZiGhStAuuamXH_vJDXKCOPVqJ0RBD7JA", "width": 5312}], "place_id": "ChIJrTYmcin-0YURONjxuhn6uqg", "plus_code": {"compound_code": "8VR6+XC Mexico City", "global_code": "76F28VR6+XC"}, "rating": 2.6, "reference": "ChIJrTYmcin-0YURONjxuhn6uqg", "types": ["taxi_stand", "point_of_interest", "establishment"], "user_ratings_total": 55}, {"business_status": "OPERATIONAL", "formatted_address": "Calz de las Brujas, Coapa, Tres Fuentes, Tlalpan, 14309 Ciudad de M\u00e9xico, CDMX", "geometry": {"location": {"lat": 19.2981835, "lng": -99.1197517}, "viewport": {"northeast": {"lat": 19.29954127989272, "lng": -99.11840562010728}, "southwest": {"lat": 19.29684162010728, "lng": -99.12110527989273}}}, "icon": "https://maps.gstatic.com/mapfiles/place_api/icons/v1/png_71/generic_business-71.png", "name": "Taxis Glocar 421", "opening_hours": {"open_now": true}, "place_id": "ChIJ15mCpagBzoURWkE_DcOKb5A", "plus_code": {"compound_code": "7VXJ+73 Mexico City", "global_code": "76F27VXJ+73"}, "rating": 0, "reference": "ChIJ15mCpagBzoURWkE_DcOKb5A", "types": ["taxi_stand", "point_of_interest", "establishment"], "user_ratings_total": 0}, {"business_status": "OPERATIONAL", "formatted_address": "Calz. del Hueso, Coapa, Bald\u00edo Canal Nacional, Tlalpan, 14339 Ciudad de M\u00e9xico, CDMX", "geometry": {"location": {"lat": 19.2997983, "lng": -99.10262379999999}, "viewport": {"northeast": {"lat": 19.30117647989272, "lng": -99.10127567010728}, "southwest": {"lat": 19.29847682010728, "lng": -99.10397532989273}}}, "icon": "https://maps.gstatic.com/mapfiles/place_api/icons/v1/png_71/generic_business-71.png", "name": "Taxis Naval UAM", "opening_hours": {"open_now": true}, "place_id": "ChIJu7Bz3csBzoURqCOcWHLDGKI", "plus_code": {"compound_code": "7VXW+WX Mexico City", "global_code": "76F27VXW+WX"}, "rating": 0, "reference": "ChIJu7Bz3csBzoURqCOcWHLDGKI", "types": ["taxi_stand", "point_of_interest", "establishment"], "user_ratings_total": 0}, {"business_status": "OPERATIONAL", "formatted_address": "Calle 19 176, Ignacio Zaragoza, Venustiano Carranza, 15000 Ciudad de M\u00e9xico, CDMX", "geometry": {"location": {"lat": 19.4112782, "lng": -99.0960992}, "viewport": {"northeast": {"lat": 19.41265147989272, "lng": -99.09479642010729}, "southwest": {"lat": 19.40995182010728, "lng": -99.09749607989272}}}, "icon": "https://maps.gstatic.com/mapfiles/place_api/icons/v1/png_71/generic_business-71.png", "name": "Sitios Unidos De Taxis En Terminales", "photos": [{"height": 1080, "html_attributions": ["<a href=\"https://maps.google.com/maps/contrib/104403613409459215029\">Octavo Orlando Guerrero Martinez</a>"], "photo_reference": "CmRaAAAAPZ2VCUST3JIlAavdE0YztYvXX4vD9fWG9MUZK2BT6Xfbyi5i-HLXKYCwoWaNvWExAZ8ChaApmHBcpBU4XzzKLK-YaMcuzOqihguGhgd8xYveGbUx7uHVYzk6J607b0v2EhCYaf0ktyLdn8za5cs6z1RJGhSk7RvSdhxKM49y3qcNK2zvs7ITVg", "width": 1920}], "place_id": "ChIJ-Q40-SH80YURb3x6jSMQaYc", "plus_code": {"compound_code": "CW63+GH Mexico City", "global_code": "76F2CW63+GH"}, "rating": 4, "reference": "ChIJ-Q40-SH80YURb3x6jSMQaYc", "types": ["taxi_stand", "point_of_interest", "establishment"], "user_ratings_total": 50}, {"business_status": "OPERATIONAL", "formatted_address": "Jos\u00e9 Luis Lagranje Sn, Los Morales, Miguel Hidalgo, 11550 Ciudad de M\u00e9xico, CDMX", "geometry": {"location": {"lat": 19.3798323, "lng": -99.1113889}, "viewport": {"northeast": {"lat": 19.38114832989272, "lng": -99.11004722010729}, "southwest": {"lat": 19.37844867010728, "lng": -99.11274687989273}}}, "icon": "https://maps.gstatic.com/mapfiles/place_api/icons/v1/png_71/generic_business-71.png", "name": "Base de Taxistas Independientes de Polanco", "place_id": "ChIJS6XWOHv-0YUR47d9sMTX0sI", "rating": 0, "reference": "ChIJS6XWOHv-0YUR47d9sMTX0sI", "types": ["taxi_stand", "point_of_interest", "establishment"], "user_ratings_total": 0}, {"business_status": "OPERATIONAL", "formatted_address": "Aldebaran 6, Coapa, Prado Coyoac\u00e1n, Coyoac\u00e1n, 04810 Ciudad de M\u00e9xico, CDMX", "geometry": {"location": {"lat": 19.3212356, "lng": -99.1333415}, "viewport": {"northeast": {"lat": 19.32262472989272, "lng": -99.13199142010728}, "southwest": {"lat": 19.31992507010728, "lng": -99.13469107989272}}}, "icon": "https://maps.gstatic.com/mapfiles/place_api/icons/v1/png_71/generic_business-71.png", "name": "Radio Taxi Diamante", "opening_hours": {"open_now": true}, "place_id": "ChIJcRjhCMYBzoUR6bI0BIKwq-I", "plus_code": {"compound_code": "8VC8+FM Mexico City", "global_code": "76F28VC8+FM"}, "rating": 3.7, "reference": "ChIJcRjhCMYBzoUR6bI0BIKwq-I", "types": ["taxi_stand", "point_of_interest", "establishment"], "user_ratings_total": 19}]