[{"business_status": "OPERATIONAL", "formatted_address": "5 de Mayo No.122, San Lucas, Iztapalapa, 09000 Ciudad de M\u00e9xico, CDMX", "geometry": {"location": {"lat": 19.3620152, "lng": -99.0974469}, "viewport": {"northeast": {"lat": 19.36346487989272, "lng": -99.09606547010728}, "southwest": {"lat": 19.36076522010728, "lng": -99.09876512989271}}}, "icon": "https://maps.gstatic.com/mapfiles/place_api/icons/v1/png_71/school-71.png", "name": "Centro Universitario C\u00faspide de M\u00e9xico", "opening_hours": {"open_now": false}, "photos": [{"height": 960, "html_attributions": ["<a href=\"https://maps.google.com/maps/contrib/109288346460595390204\">Fernando Cordero</a>"], "photo_reference": "CmRaAAAA_qwWypkTBvWUFi9WolqLAUndQE5af8m9JqUZvGdegvRbt1wu6j0TUFQxHR8RZnOg2k8QVsdstE4gvGvJm3X5gMyru0IzRjw33g17OX6jjFKxOBlIGIo2DwM82gIRBFGEEhC0w68vTCrRvzArAWm-4pikGhR6DpS5vHG67ap4yAGbPDie_Nf6Cg", "width": 1280}], "place_id": "ChIJ6cxwvFv90YURhJZnxX-OMa4", "plus_code": {"compound_code": "9W63+R2 Mexico City", "global_code": "76F29W63+R2"}, "rating": 4.2, "reference": "ChIJ6cxwvFv90YURhJZnxX-OMa4", "types": ["university", "school", "point_of_interest", "establishment"], "user_ratings_total": 6}, {"business_status": "OPERATIONAL", "formatted_address": "Ermita Iztapalapa 557, Granjas Esmeralda, Iztapalapa, 09810 Ciudad de M\u00e9xico, CDMX", "geometry": {"location": {"lat": 19.3571714, "lng": -99.11759350000001}, "viewport": {"northeast": {"lat": 19.3581384, "lng": -99.11596795}, "southwest": {"lat": 19.354746, "lng": -99.11986495}}}, "icon": "https://maps.gstatic.com/mapfiles/place_api/icons/v1/png_71/school-71.png", "name": "UNITEC Sur - Universidad Tecnol\u00f3gica de M\u00e9xico", "opening_hours": {"open_now": false}, "photos": [{"height": 525, "html_attributions": ["<a href=\"https://maps.google.com/maps/contrib/114567017953357112577\">UNITEC Sur</a>"], "photo_reference": "CmRaAAAABDCYDOUwmuW4Bp444quDRmAevM3FXBQKjvXHKSWwtOQK3T_mIkBTHLz6lxXGeSOMuPNXaB4BDlUjJrl9Qtph7uFVW3bsOzmd_9J9k9KlsaamYGum5eU1osv6CQIvsQNxEhCWAJ92SFF0PVUyR8d4JxYhGhTFFU1REawE5h-Prr5nQXa3Gco_Gg", "width": 787}], "place_id": "ChIJtQB_rhb-0YURbqSWVyVLFSY", "plus_code": {"compound_code": "9V4J+VX Mexico City", "global_code": "76F29V4J+VX"}, "rating": 4.2, "reference": "ChIJtQB_rhb-0YURbqSWVyVLFSY", "types": ["university", "school", "point_of_interest", "establishment"], "user_ratings_total": 540}, {"business_status": "CLOSED_TEMPORARILY", "formatted_address": "Taxque\u00f1a, Coyoac\u00e1n, 04280 Mexico City", "geometry": {"location": {"lat": 19.3391475, "lng": -99.1252153}, "viewport": {"northeast": {"lat": 19.34044382989272, "lng": -99.12364567010728}, "southwest": {"lat": 19.33774417010728, "lng": -99.12634532989271}}}, "icon": "https://maps.gstatic.com/mapfiles/place_api/icons/v1/png_71/school-71.png", "name": "Instituto de Comunicacion y Filosofia A.C.", "permanently_closed": true, "photos": [{"height": 1920, "html_attributions": ["<a href=\"https://maps.google.com/maps/contrib/106886942707954502497\">Manuel Ayala Lozano</a>"], "photo_reference": "CmRaAAAAHtn_rnJfeFyilNAUx1rdxNjha1k5fesIsWaKCbAo14AlIUTRC6AvqTVxZoO8X6VxxqZ0mTJC35DH4OB5aqNG-dV68MnqAzOpoqjIxZI69SWDzesr3mz2oWiZyeUUUp5eEhBIDAZIPDUPRfUmFET39QsHGhSYwfIttDRUYwaELm2yE8Qy9lbAdg", "width": 1080}], "place_id": "ChIJPf1Rl98BzoURf8Nds-L1HN0", "plus_code": {"compound_code": "8VQF+MW Mexico City", "global_code": "76F28VQF+MW"}, "rating": 4.4, "reference": "ChIJPf1Rl98BzoURf8Nds-L1HN0", "types": ["university", "point_of_interest", "establishment"], "user_ratings_total": 5}, {"business_status": "OPERATIONAL", "formatted_address": "Eje 8 Sur (Calz. Ermita Iztapalapa) Esquina, Fundici\u00f3n 1693, 8va Amp San Miguel, 09360 Ciudad de M\u00e9xico", "geometry": {"location": {"lat": 19.3525526, "lng": -99.0788027}, "viewport": {"northeast": {"lat": 19.35384107989272, "lng": -99.07732967010728}, "southwest": {"lat": 19.35114142010728, "lng": -99.08002932989272}}}, "icon": "https://maps.gstatic.com/mapfiles/place_api/icons/v1/png_71/school-71.png", "name": "UIN - Universidad Insurgentes", "opening_hours": {"open_now": false}, "photos": [{"height": 3096, "html_attributions": ["<a href=\"https://maps.google.com/maps/contrib/116034620482094143826\">CHINO DELPIERO</a>"], "photo_reference": "CmRaAAAA4hfootL0e-8J6tftW5XPyzzZsSeaFpyS5kfTlugbSfCNjr2oRc_5-6vccFJP72_02wx4rJzlPyU3ju73x6llwQrLl_VK0QvFod-65_WKhODw6MinHdQIGTIgjcm81HeYEhBYi3urfPsBIQ2_9ukeBRH9GhQ8UeGOgA9iNYTAF5jsrhFnK5P44A", "width": 4128}], "place_id": "ChIJ9XPDSI390YURq4dAmgV9uKk", "plus_code": {"compound_code": "9W3C+2F Mexico City", "global_code": "76F29W3C+2F"}, "rating": 4.4, "reference": "ChIJ9XPDSI390YURq4dAmgV9uKk", "types": ["university", "point_of_interest", "establishment"], "user_ratings_total": 48}, {"business_status": "CLOSED_TEMPORARILY", "formatted_address": "Coapa, Ex-Ejido de San Pablo Tepetlapa, Coyoac\u00e1n, 04800 Mexico City", "geometry": {"location": {"lat": 19.3200099, "lng": -99.1156415}, "viewport": {"northeast": {"lat": 19.32144502989272, "lng": -99.11430462010729}, "southwest": {"lat": 19.31874537010728, "lng": -99.11700427989274}}}, "icon": "https://maps.gstatic.com/mapfiles/place_api/icons/v1/png_71/school-71.png", "name": "Centro De Estudios Navales En Ciencias De La Salud", "permanently_closed": true, "photos": [{"height": 3120, "html_attributions": ["<a href=\"https://maps.google.com/maps/contrib/100596126158359879080\">ALEJANDRO PE\u00d1A</a>"], "photo_reference": "CmRaAAAAQCIKaC2ffZfxLUj6khMKM1CbJuuVqDYfE7k2T82cggCHuERZABl2op309BQHOBe5ko7Y1aTIBuo2bXaHE_jeLVUFm2ViuhGw2-7_CmPbHVt030mnxaXI8YIChVr5ACtHEhBqdUyJPyJHSFZfgPf8pJMgGhQAhimWBbZ_LUGCPk7ofOivqbB7lA", "width": 4160}], "place_id": "ChIJk3mGpD0BzoUR-s380j2KAWI", "plus_code": {"compound_code": "8VCM+2P Mexico City", "global_code": "76F28VCM+2P"}, "rating": 5, "reference": "ChIJk3mGpD0BzoUR-s380j2KAWI", "types": ["university", "point_of_interest", "establishment"], "user_ratings_total": 4}, {"business_status": "CLOSED_TEMPORARILY", "formatted_address": "Calle 10 203, Leyes de Reforma 1ra Secc, Iztapalapa, Ciudad de M\u00e9xico, CDMX", "geometry": {"location": {"lat": 19.3620616, "lng": -99.07219719999999}, "viewport": {"northeast": {"lat": 19.36347317989272, "lng": -99.07080667010727}, "southwest": {"lat": 19.36077352010728, "lng": -99.07350632989272}}}, "icon": "https://maps.gstatic.com/mapfiles/place_api/icons/v1/png_71/school-71.png", "name": "U.A.M. Iztapalapa.", "permanently_closed": true, "photos": [{"height": 1944, "html_attributions": ["<a href=\"https://maps.google.com/maps/contrib/105925518645932360545\">Juan Jose</a>"], "photo_reference": "CmRaAAAAKsWJBYGgIM0iaeKKaGD5_mIPBZMkMZM-ItpRA1bQ2vJiCkIUZZt5Z_4cO2ML-rRgKv5gRASnPEP0zrbtZEibmHyIixkQDb9yLhpbpQIV7FkQNiXT6Xa1sN0AowW75zYZEhALZ_Z0jj51TTW4KFUa272mGhRHIkznZ_vSb4aDEF69sThZ8jXbvw", "width": 2592}], "place_id": "ChIJ2SMojJb90YURWaAJZ0lZTEQ", "plus_code": {"compound_code": "9W6H+R4 Mexico City", "global_code": "76F29W6H+R4"}, "rating": 4.8, "reference": "ChIJ2SMojJb90YURWaAJZ0lZTEQ", "types": ["university", "point_of_interest", "establishment"], "user_ratings_total": 14}, {"business_status": "CLOSED_TEMPORARILY", "formatted_address": "Coordinaci\u00f3n de Recursos Materiales, Av. San Rafael Atlixco No. 186, Colonia Vicentina, Iztapalapa, 09340 Ciudad de M\u00e9xico, CDMX", "geometry": {"location": {"lat": 19.3596327, "lng": -99.07296939999999}, "viewport": {"northeast": {"lat": 19.36107792989272, "lng": -99.07158742010729}, "southwest": {"lat": 19.35837827010728, "lng": -99.07428707989274}}}, "icon": "https://maps.gstatic.com/mapfiles/place_api/icons/v1/png_71/school-71.png", "name": "CRM (Coordinacion de Recursos Materiales Edif Q)", "permanently_closed": true, "place_id": "ChIJGy4GjEX90YUReNMMtvL99J8", "plus_code": {"compound_code": "9W5G+VR Mexico City", "global_code": "76F29W5G+VR"}, "rating": 0, "reference": "ChIJGy4GjEX90YUReNMMtvL99J8", "types": ["university", "point_of_interest", "establishment"], "user_ratings_total": 0}, {"business_status": "CLOSED_TEMPORARILY", "formatted_address": "Ermita Iztapalapa 506, Mexicaltzingo, Iztapalapa, 09090 Ciudad de M\u00e9xico, CDMX", "geometry": {"location": {"lat": 19.3577811, "lng": -99.11885439999999}, "viewport": {"northeast": {"lat": 19.35905182989272, "lng": -99.11752297010727}, "southwest": {"lat": 19.35635217010728, "lng": -99.12022262989271}}}, "icon": "https://maps.gstatic.com/mapfiles/place_api/icons/v1/png_71/school-71.png", "name": "Centro de Enlace Universidad CNCI", "permanently_closed": true, "photos": [{"height": 3096, "html_attributions": ["<a href=\"https://maps.google.com/maps/contrib/102077409547255023066\">ady tg</a>"], "photo_reference": "CmRaAAAASyD66zMXSxzTU_kcCeNAsNjkp0ukyU_Gz8NO-npYjK8LNahg83Cx8_Hqs8IlfWiX5JjGP760AVcAwfYFOG1HFdEz4fzcS_Pejg3JA_GZ766EqHv7lWhY89FSBchFFpWxEhBH43ILPnWGAYdMUke4G5tgGhTrG5GHp7NBw7Fc4PBTYVZUq09rmw", "width": 4128}], "place_id": "ChIJBewPsI390YUR-yPTDzY4EdY", "plus_code": {"compound_code": "9V5J+4F Mexico City", "global_code": "76F29V5J+4F"}, "rating": 2.2, "reference": "ChIJBewPsI390YUR-yPTDzY4EdY", "types": ["university", "point_of_interest", "establishment"], "user_ratings_total": 5}, {"business_status": "CLOSED_TEMPORARILY", "formatted_address": "Calz de la Virgen 1800, Coapa, Ex-Ejido de San Pablo Tepetlapa, Coyoac\u00e1n, 04800 Ciudad de M\u00e9xico, CDMX", "geometry": {"location": {"lat": 19.3188482, "lng": -99.1175099}, "viewport": {"northeast": {"lat": 19.32072112989272, "lng": -99.11619992010728}, "southwest": {"lat": 19.31802147010728, "lng": -99.11889957989273}}}, "icon": "https://maps.gstatic.com/mapfiles/place_api/icons/v1/png_71/school-71.png", "name": "Universidad naval", "permanently_closed": true, "place_id": "ChIJU3HrhGsBzoURuNm9Qmb_6Ts", "plus_code": {"compound_code": "8V9J+GX Mexico City", "global_code": "76F28V9J+GX"}, "rating": 0, "reference": "ChIJU3HrhGsBzoURuNm9Qmb_6Ts", "types": ["university", "point_of_interest", "establishment"], "user_ratings_total": 0}, {"business_status": "OPERATIONAL", "formatted_address": "Prol. San Isidro 151, San Lorenzo Tezonco, Iztapalapa, 09790 Ciudad de M\u00e9xico, CDMX", "geometry": {"location": {"lat": 19.3131119, "lng": -99.0581023}, "viewport": {"northeast": {"lat": 19.31450992989272, "lng": -99.05662177010728}, "southwest": {"lat": 19.31181027010728, "lng": -99.05932142989272}}}, "icon": "https://maps.gstatic.com/mapfiles/place_api/icons/v1/png_71/school-71.png", "name": "UACM San Lorenzo Tezonco", "photos": [{"height": 1920, "html_attributions": ["<a href=\"https://maps.google.com/maps/contrib/110393573240307179124\">Laura Benaduci</a>"], "photo_reference": "CmRaAAAAiUi3LPQJhEkTs4I7DDARnHxMEw_HN0iQnrIHTGHxU9funWA0bmUuaMNYZ5YZl06b0ykI_0M1ZveunYdTEee6FBJ7NdVGkbde3GDVhL-NnYKfpUuN30HN05WjMr4epN-cEhAXb1itCbMerPi-PyYgp5XiGhRp7mDzV1CO9k1Tlim4FvKc5tEVTQ", "width": 2560}], "place_id": "ChIJN9gZ-V4CzoUR42SQ9mWndok", "plus_code": {"compound_code": "8W7R+6Q Mexico City", "global_code": "76F28W7R+6Q"}, "rating": 4.5, "reference": "ChIJN9gZ-V4CzoUR42SQ9mWndok", "types": ["university", "point_of_interest", "establishment"], "user_ratings_total": 212}, {"business_status": "CLOSED_TEMPORARILY", "formatted_address": "Orinoco 26, Carmen, Benito Ju\u00e1rez, 03540 Ciudad de M\u00e9xico, CDMX", "geometry": {"location": {"lat": 19.3750593, "lng": -99.13934569999999}, "viewport": {"northeast": {"lat": 19.37643977989273, "lng": -99.13815902010728}, "southwest": {"lat": 19.37374012010728, "lng": -99.14085867989272}}}, "icon": "https://maps.gstatic.com/mapfiles/place_api/icons/v1/png_71/school-71.png", "name": "Centro Universitario Emmanuel Kant", "permanently_closed": true, "photos": [{"height": 384, "html_attributions": ["<a href=\"https://maps.google.com/maps/contrib/102029252920364306352\">A Google User</a>"], "photo_reference": "CmRaAAAAWBVBx43uUjJkm008VrYqmGU6ehECC2Bfu-p2k-Kaile20Wd6K7dIsz234BLOIsQmbYnkoGuo6BZcUZl1h3ihyhsB8S3rvYD0LeRCV1TXky7BHZEMdRB3sjf-KlkQbfgDEhCTcu9s51cfg0rH-Qhk1QAlGhQP9Oaurfl8YXgU-Em1tyBLQtnx_w", "width": 750}], "place_id": "ChIJ_____7D_0YURfvwWJSJ1YLU", "plus_code": {"compound_code": "9VG6+27 Mexico City", "global_code": "76F29VG6+27"}, "rating": 4.9, "reference": "ChIJ_____7D_0YURfvwWJSJ1YLU", "types": ["university", "point_of_interest", "establishment"], "user_ratings_total": 55}, {"business_status": "OPERATIONAL", "formatted_address": "San Lorenzo Tezonco 429-A, San Juan Xalpa, 09850 Ciudad de M\u00e9xico, CDMX", "geometry": {"location": {"lat": 19.3331428, "lng": -99.07526419999999}, "viewport": {"northeast": {"lat": 19.33456717989272, "lng": -99.07371387010728}, "southwest": {"lat": 19.33186752010728, "lng": -99.07641352989272}}}, "icon": "https://maps.gstatic.com/mapfiles/place_api/icons/v1/png_71/school-71.png", "name": "EUROPEAN UNIVERSITY CAMPUS IZTAPALAPA", "opening_hours": {"open_now": false}, "place_id": "ChIJzbRiuHMCzoURGdUkfhGiiq0", "plus_code": {"compound_code": "8WMF+7V Mexico City", "global_code": "76F28WMF+7V"}, "rating": 3.9, "reference": "ChIJzbRiuHMCzoURGdUkfhGiiq0", "types": ["university", "point_of_interest", "establishment"], "user_ratings_total": 15}, {"business_status": "CLOSED_TEMPORARILY", "formatted_address": "Granjas M\u00e9xico, Iztacalco, 08400 Mexico City", "geometry": {"location": {"lat": 19.3969515, "lng": -99.09334869999999}, "viewport": {"northeast": {"lat": 19.39842332989272, "lng": -99.09197927010727}, "southwest": {"lat": 19.39572367010728, "lng": -99.09467892989272}}}, "icon": "https://maps.gstatic.com/mapfiles/place_api/icons/v1/png_71/school-71.png", "name": "Edificio De Ciencias Sociales Upiicsa", "permanently_closed": true, "place_id": "ChIJxRZj_i780YURzVJtiZQaTBA", "plus_code": {"compound_code": "9WW4+QM Mexico City", "global_code": "76F29WW4+QM"}, "rating": 0, "reference": "ChIJxRZj_i780YURzVJtiZQaTBA", "types": ["university", "point_of_interest", "establishment"], "user_ratings_total": 0}, {"business_status": "OPERATIONAL", "formatted_address": "AVENIDA 5 No. 134 COL, Escuadr\u00f3n 201, Iztapalapa, 09060 Ciudad de M\u00e9xico, CDMX", "geometry": {"location": {"lat": 19.361298, "lng": -99.110468}, "viewport": {"northeast": {"lat": 19.36263567989272, "lng": -99.10906442010729}, "southwest": {"lat": 19.35993602010728, "lng": -99.11176407989274}}}, "icon": "https://maps.gstatic.com/mapfiles/place_api/icons/v1/png_71/school-71.png", "name": "Educational Group IMEI", "opening_hours": {"open_now": false}, "photos": [{"height": 315, "html_attributions": ["<a href=\"https://maps.google.com/maps/contrib/115786611825948506029\">A Google User</a>"], "photo_reference": "CmRaAAAAoEFw33F6Q4JsZ5DQqAl9GJlIcRWuuV8qK3LnvyZ_E2PwQfoLTvoASrRo-DLX55Fxjk-FvD-ARayqRTu67ScNR8eqScKpv1BTi0nI_DYg3rgmqI-I8l2ycNqQtx6vswLHEhA4cdklxaWPVGTzbd2iW2PyGhQOmomV7Pk0bgTn1hahf4yRu8TCcg", "width": 851}], "place_id": "ChIJ2_0xDw3-0YURlvqqzkYEFhw", "plus_code": {"compound_code": "9V6Q+GR Mexico City", "global_code": "76F29V6Q+GR"}, "rating": 2.3, "reference": "ChIJ2_0xDw3-0YURlvqqzkYEFhw", "types": ["university", "point_of_interest", "establishment"], "user_ratings_total": 4}, {"business_status": "CLOSED_TEMPORARILY", "formatted_address": "Av Cuatro, \u00c1rea Federal Pante\u00f3n San Lorenzo Tezonco, Iztapalapa, Ciudad de M\u00e9xico, CDMX", "geometry": {"location": {"lat": 19.3142597, "lng": -99.0590292}, "viewport": {"northeast": {"lat": 19.31560267989272, "lng": -99.05766812010727}, "southwest": {"lat": 19.31290302010728, "lng": -99.06036777989272}}}, "icon": "https://maps.gstatic.com/mapfiles/place_api/icons/v1/png_71/school-71.png", "name": "UACM San Lorenzo Tezonco (main entrance)", "permanently_closed": true, "photos": [{"height": 1080, "html_attributions": ["<a href=\"https://maps.google.com/maps/contrib/112166781100091361386\">aaron carre\u00f1o</a>"], "photo_reference": "CmRaAAAAbms3sdrwIESAgf3nHt88gzkx3rXmCBlrFsC39I5ESyYp9pu6X9Z5ePYXV8HjJa0nlnM3ySL5lIsuQlvCzS1UnPBCHyqXLeke6xwKGAq7wgHUD5chHFnIFHgvXtfJwhQVEhBvMoZgyJieNzaYOWfJBc56GhSdAVx1EpYjN-Ss6pNrNyZtAtCKxg", "width": 1920}], "place_id": "ChIJJU73Ol8CzoUR3EU8Y0ZpvLw", "plus_code": {"compound_code": "8W7R+P9 Mexico City", "global_code": "76F28W7R+P9"}, "rating": 4.7, "reference": "ChIJJU73Ol8CzoUR3EU8Y0ZpvLw", "types": ["university", "point_of_interest", "establishment"], "user_ratings_total": 15}, {"business_status": "CLOSED_TEMPORARILY", "formatted_address": "Cerro de Jes\u00fas 67, Country Club Churubusco, Coyoac\u00e1n, 04220 Ciudad de M\u00e9xico, CDMX", "geometry": {"location": {"lat": 19.3451603, "lng": -99.139871}, "viewport": {"northeast": {"lat": 19.34637207989272, "lng": -99.13844937010727}, "southwest": {"lat": 19.34367242010727, "lng": -99.14114902989272}}}, "icon": "https://maps.gstatic.com/mapfiles/place_api/icons/v1/png_71/school-71.png", "name": "UNID Campus Taxque\u00f1a", "permanently_closed": true, "photos": [{"height": 3024, "html_attributions": ["<a href=\"https://maps.google.com/maps/contrib/107318811376376887781\">Macs Cantero</a>"], "photo_reference": "CmRaAAAAF6uLmxdYcjCWrcP7zezF1BKvKkfWl74B5TUYASMacpX0x8JoiLjJ0r9GchG5-s8CFqA8W-xiiLLhmQzTV5SAVPDmf6PTrNMVWChNxR_ECr3rU7kyrobyvjCZameed7svEhBzYclLoS50uBufnlYZBLhiGhSHOrd_BoB1HRTDySCZ-IIlcfQuow", "width": 4032}], "place_id": "ChIJBam7qC7-0YUR_I_O6SatxuE", "plus_code": {"compound_code": "8VW6+33 Mexico City", "global_code": "76F28VW6+33"}, "rating": 3.2, "reference": "ChIJBam7qC7-0YUR_I_O6SatxuE", "types": ["university", "point_of_interest", "establishment"], "user_ratings_total": 57}, {"business_status": "CLOSED_TEMPORARILY", "formatted_address": "Avenida R\u00edo Churubusco 405, Paseos de Taxque\u00f1a, Coyoac\u00e1n, 04230 Ciudad de M\u00e9xico, CDMX", "geometry": {"location": {"lat": 19.350565, "lng": -99.121073}, "viewport": {"northeast": {"lat": 19.35192162989272, "lng": -99.11972122010727}, "southwest": {"lat": 19.34922197010728, "lng": -99.12242087989272}}}, "icon": "https://maps.gstatic.com/mapfiles/place_api/icons/v1/png_71/school-71.png", "name": "Colegio Anglo Mexicano de Coyoac\u00e1n", "permanently_closed": true, "photos": [{"height": 1365, "html_attributions": ["<a href=\"https://maps.google.com/maps/contrib/118243568173574361867\">Colegio Anglo Mexicano de Coyoac\u00e1n</a>"], "photo_reference": "CmRaAAAAWi8xpvM2RexzXSkHl9XzWgkaD1JLHppm5iVoSc2rUneMtCl6p-IHbuFcPVMFyCpCoZarYeGGgjzMjNWrMIK3yIRbPfZNx2UPu24n7yvj3-AJg4y030m6C2ekSGHkds_7EhAB27JR_-21pn4ENpq5CLugGhTYz6o126HfJB6UCU-oqH-xAdsqFg", "width": 2048}], "place_id": "ChIJnRZpMRj-0YURQsDUvyhUB0w", "plus_code": {"compound_code": "9V2H+6H Mexico City", "global_code": "76F29V2H+6H"}, "rating": 4, "reference": "ChIJnRZpMRj-0YURQsDUvyhUB0w", "types": ["university", "point_of_interest", "establishment"], "user_ratings_total": 4}, {"business_status": "CLOSED_TEMPORARILY", "formatted_address": "Av. H. Escuela Naval Militar No. 42, Del. Coyoac\u00e1n, Coyoac\u00e1n, 04430 Ciudad de M\u00e9xico, CDMX", "geometry": {"location": {"lat": 19.336099, "lng": -99.1231029}, "viewport": {"northeast": {"lat": 19.33744027989272, "lng": -99.12169072010728}, "southwest": {"lat": 19.33474062010728, "lng": -99.12439037989273}}}, "icon": "https://maps.gstatic.com/mapfiles/place_api/icons/v1/png_71/school-71.png", "name": "Universidad Anglo Mexicana Europea", "permanently_closed": true, "place_id": "ChIJTebsheABzoUROFEyfQxAZCY", "plus_code": {"compound_code": "8VPG+CQ Mexico City", "global_code": "76F28VPG+CQ"}, "rating": 0, "reference": "ChIJTebsheABzoUROFEyfQxAZCY", "types": ["university", "point_of_interest", "establishment"], "user_ratings_total": 0}, {"business_status": "OPERATIONAL", "formatted_address": "Calle Miguel Laurent 719, Col del Valle Sur, Benito Ju\u00e1rez, 03104 Ciudad de M\u00e9xico, CDMX", "geometry": {"location": {"lat": 19.3464253, "lng": -99.05547729999999}, "viewport": {"northeast": {"lat": 19.34778382989272, "lng": -99.05416942010729}, "southwest": {"lat": 19.34508417010728, "lng": -99.05686907989273}}}, "icon": "https://maps.gstatic.com/mapfiles/place_api/icons/v1/png_71/school-71.png", "name": "Universidad Del Desarrollo Empresarial y Pedag\u00f3gico", "place_id": "ChIJQa4d7jn90YURnwKw42wJgDM", "plus_code": {"compound_code": "8WWV+HR Col del Valle Sur, Mexico City", "global_code": "76F28WWV+HR"}, "rating": 0, "reference": "ChIJQa4d7jn90YURnwKw42wJgDM", "types": ["university", "point_of_interest", "establishment"], "user_ratings_total": 0}, {"business_status": "OPERATIONAL", "formatted_address": "Av. San Rafael Atlixco 186, Leyes de Reforma 1ra Secc, Iztapalapa, 09340 Ciudad de M\u00e9xico, CDMX", "geometry": {"location": {"lat": 19.3623565, "lng": -99.0728515}, "viewport": {"northeast": {"lat": 19.3662263, "lng": -99.07204404999999}, "southwest": {"lat": 19.3582735, "lng": -99.07527385000002}}}, "icon": "https://maps.gstatic.com/mapfiles/place_api/icons/v1/png_71/school-71.png", "name": "Universidad Aut\u00f3noma Metropolitana Unidad Iztapalapa", "photos": [{"height": 960, "html_attributions": ["<a href=\"https://maps.google.com/maps/contrib/110607437299286801331\">Juan Albino</a>"], "photo_reference": "CmRaAAAAiLN788LRmTqY0RMI0PSStWmBCiAmV40wl0Rd4EZQcG_PYsWkC0MNXQxX6Dr2XKMExVZ49ttCyxqLmkxclwAV-Rs9sEJPXpvm-ZlO_59LjbUHBAj3UO4t4zz84lScG37OEhDTBCxjYPSZh2ynYDkFRMgwGhSTQcKotgM11igKvVEXDzxE_S0zow", "width": 1304}], "place_id": "ChIJEzemmpb90YUR9P2PFQl39lA", "plus_code": {"compound_code": "9W6G+WV Mexico City", "global_code": "76F29W6G+WV"}, "rating": 4.7, "reference": "ChIJEzemmpb90YUR9P2PFQl39lA", "types": ["university", "point_of_interest", "establishment"], "user_ratings_total": 610}]