[{"business_status": "OPERATIONAL", "formatted_address": "Privada Ermita Iztapalapa 160, Amp Ricardo Flores Mag\u00f3n, Iztapalapa, 09820 Ciudad de M\u00e9xico, CDMX", "geometry": {"location": {"lat": 19.355338, "lng": -99.095557}, "viewport": {"northeast": {"lat": 19.35654077989272, "lng": -99.09418667010726}, "southwest": {"lat": 19.35384112010728, "lng": -99.09688632989271}}}, "icon": "https://maps.gstatic.com/mapfiles/place_api/icons/v1/png_71/atm-71.png", "name": "Atm/Cajero BBVA Suc Ermita464", "opening_hours": {"open_now": true}, "place_id": "ChIJO4AAh-T90YUR3Wryw3bq2mw", "plus_code": {"compound_code": "9W43+4Q Mexico City", "global_code": "76F29W43+4Q"}, "rating": 2.7, "reference": "ChIJO4AAh-T90YUR3Wryw3bq2mw", "types": ["atm", "finance", "point_of_interest", "establishment"], "user_ratings_total": 3}, {"business_status": "OPERATIONAL", "formatted_address": "Ermita Iztapalapa 1029, Amp Ricardo Flores Mag\u00f3n, Iztapalapa, 09828 Ciudad de M\u00e9xico, CDMX", "geometry": {"location": {"lat": 19.3562654, "lng": -99.0987786}, "viewport": {"northeast": {"lat": 19.35723147989272, "lng": -99.09752962010728}, "southwest": {"lat": 19.35453182010728, "lng": -99.10022927989273}}}, "icon": "https://maps.gstatic.com/mapfiles/place_api/icons/v1/png_71/atm-71.png", "name": "Cajero ATM Citibanamex", "opening_hours": {"open_now": true}, "place_id": "ChIJddRnFy_90YURIIO8phGxkrg", "plus_code": {"compound_code": "9W42+GF Mexico City", "global_code": "76F29W42+GF"}, "rating": 4.5, "reference": "ChIJddRnFy_90YURIIO8phGxkrg", "types": ["atm", "finance", "point_of_interest", "establishment"], "user_ratings_total": 2}, {"business_status": "OPERATIONAL", "formatted_address": "Ermita Iztapalapa 1042, San Pablo, Iztapalapa, 09000 Ciudad de M\u00e9xico, CDMX", "geometry": {"location": {"lat": 19.3565911, "lng": -99.09891929999999}, "viewport": {"northeast": {"lat": 19.35785332989272, "lng": -99.09755507010728}, "southwest": {"lat": 19.35515367010728, "lng": -99.10025472989271}}}, "icon": "https://maps.gstatic.com/mapfiles/place_api/icons/v1/png_71/atm-71.png", "name": "ATM / CASHIER BANCOMER SUC IZTAPALAPA", "opening_hours": {"open_now": true}, "place_id": "ChIJQfs9s-P90YUR826hv6IraoY", "plus_code": {"compound_code": "9W42+JC Mexico City", "global_code": "76F29W42+JC"}, "rating": 2.5, "reference": "ChIJQfs9s-P90YUR826hv6IraoY", "types": ["atm", "finance", "point_of_interest", "establishment"], "user_ratings_total": 2}, {"business_status": "OPERATIONAL", "formatted_address": "09000, Ayuntamiento 60, San Pablo, Iztapalapa, Ciudad de M\u00e9xico, CDMX", "geometry": {"location": {"lat": 19.3585691, "lng": -99.0922289}, "viewport": {"northeast": {"lat": 19.35988787989272, "lng": -99.09075872010727}, "southwest": {"lat": 19.35718822010728, "lng": -99.09345837989272}}}, "icon": "https://maps.gstatic.com/mapfiles/place_api/icons/v1/png_71/atm-71.png", "name": "cajero afirme", "opening_hours": {"open_now": true}, "photos": [{"height": 3366, "html_attributions": ["<a href=\"https://maps.google.com/maps/contrib/114642632612407118350\">Roberto Reyes</a>"], "photo_reference": "CmRaAAAAbY1xHgTFEiTIiXbFYsXOJKtZ2i4NAF6vs0sT17QI87MLp5btnM8eQXQl01L5SF_jMhztXDiPrxqt5-P3B1-tjcGCfR7QtCk0QFatPEl5MPE9Sf1y-pjUfvBeLNctobMwEhDVGPMhyQpO7rv2GHmO6UPJGhS6aZjb9wPrOvjcWAd8sNQh4613xw", "width": 5984}], "place_id": "ChIJob8c2OX90YURr3yPNHRms4c", "plus_code": {"compound_code": "9W55+C4 Mexico City", "global_code": "76F29W55+C4"}, "rating": 0, "reference": "ChIJob8c2OX90YURr3yPNHRms4c", "types": ["atm", "finance", "point_of_interest", "establishment"], "user_ratings_total": 0}, {"business_status": "OPERATIONAL", "formatted_address": "Callej\u00f3n Estrella 4, San Pablo, Iztapalapa, 09000 Ciudad de M\u00e9xico, CDMX", "geometry": {"location": {"lat": 19.3585021, "lng": -99.0898079}, "viewport": {"northeast": {"lat": 19.35981502989273, "lng": -99.08825757010729}, "southwest": {"lat": 19.35711537010728, "lng": -99.09095722989274}}}, "icon": "https://maps.gstatic.com/mapfiles/place_api/icons/v1/png_71/atm-71.png", "name": "Atm/Cajero BBVA Suc Ermita El Manto601", "opening_hours": {"open_now": true}, "place_id": "ChIJP6IwUe_90YURTv8I3eBDJFA", "plus_code": {"compound_code": "9W56+C3 Mexico City", "global_code": "76F29W56+C3"}, "rating": 3.3, "reference": "ChIJP6IwUe_90YURTv8I3eBDJFA", "types": ["atm", "finance", "point_of_interest", "establishment"], "user_ratings_total": 3}, {"business_status": "OPERATIONAL", "formatted_address": "Ermita Iztapalapa 939, Santa Isabel Industrial, Iztapalapa, 09820 Ciudad de M\u00e9xico, CDMX", "geometry": {"location": {"lat": 19.3555592, "lng": -99.1023931}, "viewport": {"northeast": {"lat": 19.35701292989272, "lng": -99.10103867010727}, "southwest": {"lat": 19.35431327010728, "lng": -99.10373832989272}}}, "icon": "https://maps.gstatic.com/mapfiles/place_api/icons/v1/png_71/atm-71.png", "name": "Santander ATM", "place_id": "ChIJ6RLk0gn-0YURRu39gk0FJeE", "plus_code": {"compound_code": "9V4X+62 Mexico City", "global_code": "76F29V4X+62"}, "rating": 0, "reference": "ChIJ6RLk0gn-0YURRu39gk0FJeE", "types": ["atm", "finance", "point_of_interest", "establishment"], "user_ratings_total": 0}, {"business_status": "OPERATIONAL", "formatted_address": "Av. Javier Rojo G\u00f3mez 1201, San Pedro, Iztapalapa, 09360 Ciudad de M\u00e9xico, CDMX", "geometry": {"location": {"lat": 19.3652071, "lng": -99.08394009999999}, "viewport": {"northeast": {"lat": 19.36637357989272, "lng": -99.0820455701073}, "southwest": {"lat": 19.36367392010728, "lng": -99.08474522989273}}}, "icon": "https://maps.gstatic.com/mapfiles/place_api/icons/v1/png_71/atm-71.png", "name": "Atm/Cajero BBVA Afina Servicios Advos.", "opening_hours": {"open_now": true}, "place_id": "ChIJz2_24sH90YURVtsoBj-dzK4", "plus_code": {"compound_code": "9W88+3C Mexico City", "global_code": "76F29W88+3C"}, "rating": 2.3, "reference": "ChIJz2_24sH90YURVtsoBj-dzK4", "types": ["atm", "finance", "point_of_interest", "establishment"], "user_ratings_total": 3}, {"business_status": "OPERATIONAL", "formatted_address": "Av. Tlahuac 125, Santa Isabel Industrial, Iztapalapa, 09820 Ciudad de M\u00e9xico, CDMX", "geometry": {"location": {"lat": 19.3520295, "lng": -99.1068841}, "viewport": {"northeast": {"lat": 19.35334472989272, "lng": -99.10531902010727}, "southwest": {"lat": 19.35064507010728, "lng": -99.10801867989271}}}, "icon": "https://maps.gstatic.com/mapfiles/place_api/icons/v1/png_71/atm-71.png", "name": "ATM / CASHIER BANCOMER SUC Tulyehualco", "opening_hours": {"open_now": true}, "place_id": "ChIJCWFpAQb-0YURYh4mMA4lcvY", "plus_code": {"compound_code": "9V2V+R6 Mexico City", "global_code": "76F29V2V+R6"}, "rating": 3, "reference": "ChIJCWFpAQb-0YURYh4mMA4lcvY", "types": ["atm", "finance", "point_of_interest", "establishment"], "user_ratings_total": 2}, {"business_status": "OPERATIONAL", "formatted_address": "Av. Tlahuac 390, Los Reyes Culhuacan, Iztapalapa, 09840 Ciudad de M\u00e9xico, CDMX", "geometry": {"location": {"lat": 19.343104, "lng": -99.10661859999999}, "viewport": {"northeast": {"lat": 19.34465297989272, "lng": -99.10519917010727}, "southwest": {"lat": 19.34195332010728, "lng": -99.10789882989272}}}, "icon": "https://maps.gstatic.com/mapfiles/place_api/icons/v1/png_71/atm-71.png", "name": "Atm/Cajero BBVA Bodega Gigante Tlahuac975", "opening_hours": {"open_now": true}, "photos": [{"height": 3264, "html_attributions": ["<a href=\"https://maps.google.com/maps/contrib/109609653416058430084\">A Google User</a>"], "photo_reference": "CmRaAAAA7bvRjfp3ikKVqUTbGywi0G36TKgcdqlBiRQPXnW2yvK1tlGvZ_OypS8lkMrQmT0u8J_7zw28RtkHxVaBPQPnNaWNbX2m_KyjY1OUYEzWM3ADlMmMEn3vt8ohLleZdS_dEhAvVf-m4qCSlLEFgceMfHOiGhQHuSZMnfnN6iLjgKIyQh-cjgJakg", "width": 2448}], "place_id": "ChIJYdphLAL-0YURZHixz7cOyCU", "plus_code": {"compound_code": "8VVV+69 Mexico City", "global_code": "76F28VVV+69"}, "rating": 3, "reference": "ChIJYdphLAL-0YURZHixz7cOyCU", "types": ["atm", "finance", "point_of_interest", "establishment"], "user_ratings_total": 1}, {"business_status": "OPERATIONAL", "formatted_address": "Av. Tlahuac 320, Culhuacan, Iztapalapa, 09800 Ciudad de M\u00e9xico, CDMX", "geometry": {"location": {"lat": 19.3427296, "lng": -99.10734819999999}, "viewport": {"northeast": {"lat": 19.34414547989272, "lng": -99.10627807010727}, "southwest": {"lat": 19.34144582010727, "lng": -99.10897772989271}}}, "icon": "https://maps.gstatic.com/mapfiles/place_api/icons/v1/png_71/atm-71.png", "name": "ATM BANCOMER", "opening_hours": {"open_now": true}, "photos": [{"height": 1916, "html_attributions": ["<a href=\"https://maps.google.com/maps/contrib/110499894291937238915\">Chiquilinelgrande Elgrande</a>"], "photo_reference": "CmRaAAAAU1hgHSDBgFDV_AzV7iTTIhxKMP9u3IAC6O_02W4M85OYlqd1PHEZB8-09n309kqKvSskhSTOO7hbprxR3BM24IXwuyptw3ZlF8EtAFfArdIBL4l9bkYUWkSziou77rFLEhDxnpyQLCR05LW11VKT-bpTGhTgdgUR4teDtj9QTiCrfutNyRUN-A", "width": 828}], "place_id": "ChIJL08Xjub_0YUR8MO2qvWdCSc", "plus_code": {"compound_code": "8VVV+33 Mexico City", "global_code": "76F28VVV+33"}, "rating": 5, "reference": "ChIJL08Xjub_0YUR8MO2qvWdCSc", "types": ["atm", "finance", "point_of_interest", "establishment"], "user_ratings_total": 1}, {"business_status": "OPERATIONAL", "formatted_address": "Jose Ma. Morelos 1614, Culhuacan, 09800 Iztapalapa, CDMX", "geometry": {"location": {"lat": 19.3393075, "lng": -99.10873420000001}, "viewport": {"northeast": {"lat": 19.34065787989272, "lng": -99.10742672010728}, "southwest": {"lat": 19.33795822010728, "lng": -99.11012637989272}}}, "icon": "https://maps.gstatic.com/mapfiles/place_api/icons/v1/png_71/atm-71.png", "name": "Scotiabank Sucursal con autocajero", "opening_hours": {"open_now": true}, "photos": [{"height": 2992, "html_attributions": ["<a href=\"https://maps.google.com/maps/contrib/115309980913998819036\">Jaime Martinez</a>"], "photo_reference": "CmRaAAAAxTik5L-Xjmtn9yDIj4VS9Bo9C7TUwCO8HVsdaQfFdbN9F2KLofKTIZolOJOQIO7RDfNcRWLvcBLDfSmVxP89OVibk4O3TvT-MwoIMXXIu-zx60P9ozeCsIl2DLXX_royEhA_oNqJn37T7740nD0GonNwGhTTvBL5TB9yF-WOCSYZrKPCC-tZpg", "width": 2992}], "place_id": "ChIJv83okv0BzoURZaRKK6UHw8w", "plus_code": {"compound_code": "8VQR+PG Mexico City", "global_code": "76F28VQR+PG"}, "rating": 5, "reference": "ChIJv83okv0BzoURZaRKK6UHw8w", "types": ["atm", "finance", "point_of_interest", "establishment"], "user_ratings_total": 2}, {"business_status": "OPERATIONAL", "formatted_address": "Calle A 18, 20, Culhuacan, Iztapalapa, 09800 Ciudad de M\u00e9xico, CDMX", "geometry": {"location": {"lat": 19.3431471, "lng": -99.10723039999999}, "viewport": {"northeast": {"lat": 19.34452307989272, "lng": -99.10596107010728}, "southwest": {"lat": 19.34182342010728, "lng": -99.10866072989273}}}, "icon": "https://maps.gstatic.com/mapfiles/place_api/icons/v1/png_71/atm-71.png", "name": "ATM SCOTIABANK", "opening_hours": {"open_now": true}, "photos": [{"height": 1552, "html_attributions": ["<a href=\"https://maps.google.com/maps/contrib/110499894291937238915\">Chiquilinelgrande Elgrande</a>"], "photo_reference": "CmRaAAAA67okS_p4RpUqxufCzrGHS3uDKvGGor0mINil4aDTnDI7b2MvNWdPaZev0gFSTdfHeGwJ9WpSU_nAMKMAPvPqxDzo0EZ0ctvsBqjFC1fZuFRop8MROF4akjBfG7kx9JydEhCblIezfDagEIS77o1eHcNnGhQn5zy4UwCpJ7Ar1Ff68--7T2sg-w", "width": 671}], "place_id": "ChIJIf8ku33_0YURmFESPUbSSZw", "plus_code": {"compound_code": "8VVV+74 Mexico City", "global_code": "76F28VVV+74"}, "rating": 3.5, "reference": "ChIJIf8ku33_0YURmFESPUbSSZw", "types": ["atm", "finance", "point_of_interest", "establishment"], "user_ratings_total": 2}, {"business_status": "OPERATIONAL", "formatted_address": "Ermita Iztapalapa 1835, Los \u00c1ngeles, Iztapalapa, 09830 Ciudad de M\u00e9xico, CDMX", "geometry": {"location": {"lat": 19.3498799, "lng": -99.07436729999999}, "viewport": {"northeast": {"lat": 19.35122972989272, "lng": -99.07301747010727}, "southwest": {"lat": 19.34853007010728, "lng": -99.07571712989271}}}, "icon": "https://maps.gstatic.com/mapfiles/place_api/icons/v1/png_71/atm-71.png", "name": "BBVA Bancomer", "opening_hours": {"open_now": false}, "photos": [{"height": 2250, "html_attributions": ["<a href=\"https://maps.google.com/maps/contrib/100114696847630980224\">gustavo gaytan</a>"], "photo_reference": "CmRaAAAAoEFAWw70zgIum7an3G5EiQCPDL4bSh9rl_YpjZSY6Lrezh5ik5xBJieheLRZrHyTWtVtf4UiSxqYSLw0f2TrWP0_rDBcapRbS6GtgJ-2dFDXAFRShd6tyrCNhWaNC-T9EhCb9z4ussIuKI4nF8A9672WGhRoz8zTX3ry3CsKJW4k4zMaY6VCiw", "width": 4000}], "place_id": "ChIJB7gjnY790YURN-OMYqNBiIQ", "plus_code": {"compound_code": "8WXG+X7 Mexico City", "global_code": "76F28WXG+X7"}, "rating": 2.9, "reference": "ChIJB7gjnY790YURN-OMYqNBiIQ", "types": ["atm", "finance", "point_of_interest", "establishment"], "user_ratings_total": 16}, {"business_status": "OPERATIONAL", "formatted_address": "Aculco, Eje 6 Sur 560, \u00c1rea Federal Central de Abastos, Iztapalapa, 09000 Ciudad de M\u00e9xico, CDMX", "geometry": {"location": {"lat": 19.3677629, "lng": -99.09694820000001}, "viewport": {"northeast": {"lat": 19.36906167989272, "lng": -99.09561552010729}, "southwest": {"lat": 19.36636202010728, "lng": -99.09831517989274}}}, "icon": "https://maps.gstatic.com/mapfiles/place_api/icons/v1/png_71/atm-71.png", "name": "ATM / Cash Bancomer Suc. La Nueva Viga", "opening_hours": {"open_now": true}, "place_id": "ChIJ9QHwi9790YUREXpnf2V3W5k", "plus_code": {"compound_code": "9W93+46 Mexico City", "global_code": "76F29W93+46"}, "rating": 0, "reference": "ChIJ9QHwi9790YUREXpnf2V3W5k", "types": ["atm", "finance", "point_of_interest", "establishment"], "user_ratings_total": 0}, {"business_status": "OPERATIONAL", "formatted_address": "Ermita Iztapalapa 2013, Los \u00c1ngeles, Iztapalapa, 09830 Ciudad de M\u00e9xico, CDMX", "geometry": {"location": {"lat": 19.3457461, "lng": -99.07073539999999}, "viewport": {"northeast": {"lat": 19.34705967989272, "lng": -99.06939587010727}, "southwest": {"lat": 19.34436002010728, "lng": -99.07209552989272}}}, "icon": "https://maps.gstatic.com/mapfiles/place_api/icons/v1/png_71/atm-71.png", "name": "BBVA Bancomer", "opening_hours": {"open_now": true}, "photos": [{"height": 2368, "html_attributions": ["<a href=\"https://maps.google.com/maps/contrib/110499894291937238915\">Chiquilinelgrande Elgrande</a>"], "photo_reference": "CmRaAAAA1Yxfp8BN46vy5W2Zrqk_r3uP4_y0hOkFn4o2MhiUkUiulwu5qSHFPwr-Zh8t6HRwZxZZE-9SywQ1vy_sqS8-YWT8JRMzMqD6As0lOPFhg8dRYs5FLbtPoM15sAR40ccdEhBEe6DLc2tdpqV2VKddIbzVGhT03AZ03QXl35tQhWhKY4A321CVaw", "width": 2198}], "place_id": "ChIJK6lFjoj90YUREt6NDwLGuyw", "plus_code": {"compound_code": "8WWH+7P Los \u00c1ngeles, Mexico City", "global_code": "76F28WWH+7P"}, "rating": 5, "reference": "ChIJK6lFjoj90YUREt6NDwLGuyw", "types": ["atm", "finance", "point_of_interest", "establishment"], "user_ratings_total": 2}, {"business_status": "OPERATIONAL", "formatted_address": "Pueblo Culhuac\u00e1n, Iztapalapa, 09800 Mexico City", "geometry": {"location": {"lat": 19.3426547, "lng": -99.10726939999999}, "viewport": {"northeast": {"lat": 19.34397042989272, "lng": -99.10592962010728}, "southwest": {"lat": 19.34127077010728, "lng": -99.10862927989272}}}, "icon": "https://maps.gstatic.com/mapfiles/place_api/icons/v1/png_71/atm-71.png", "name": "HSBC", "opening_hours": {"open_now": true}, "photos": [{"height": 1352, "html_attributions": ["<a href=\"https://maps.google.com/maps/contrib/110499894291937238915\">Chiquilinelgrande Elgrande</a>"], "photo_reference": "CmRaAAAACVogAtOXiQwzIaBY7-UiQaJpbfJrdCPUmdLPdx29kl-KR_txgFBbWX9gVMpLtXCIE4T0qvYUyuLmb3khaFGiU9aLuE_ASC3owZM2F8RKhK5ZMVmK3b4Di2_QIl4zHP9-EhDjBBDi9je3CZmEbcgKDgXwGhTiil8hR-1S4kLui-0cilMMjwDlzg", "width": 415}], "place_id": "ChIJ5QRor3D_0YURlNL7HaO__po", "plus_code": {"compound_code": "8VVV+33 Mexico City", "global_code": "76F28VVV+33"}, "rating": 0, "reference": "ChIJ5QRor3D_0YURlNL7HaO__po", "types": ["atm", "finance", "point_of_interest", "establishment"], "user_ratings_total": 0}, {"business_status": "OPERATIONAL", "formatted_address": "3a. Cerrada Carril, 2da Amp San Miguel, Iztapalapa, 09360 Ciudad de M\u00e9xico, CDMX", "geometry": {"location": {"lat": 19.3502624, "lng": -99.07149710000002}, "viewport": {"northeast": {"lat": 19.35155052989272, "lng": -99.07019362010729}, "southwest": {"lat": 19.34885087010727, "lng": -99.07289327989274}}}, "icon": "https://maps.gstatic.com/mapfiles/place_api/icons/v1/png_71/atm-71.png", "name": "ATM Bancomer", "opening_hours": {"open_now": true}, "photos": [{"height": 3840, "html_attributions": ["<a href=\"https://maps.google.com/maps/contrib/108691575607238380807\">Nely Leonel</a>"], "photo_reference": "CmRaAAAA9HP_FkiiERIZjQfA0fy61XM740UqrUZ80m0yQXHAqtLEqv6iN9GzblyfkEDmJBTI8J0-NiS9slsSkwH7gI6G4FDfno3DH2OQtII6aObvtvYXvaA4iO9w9cs-UM1VSOsSEhAIjm1R769UephM3Lsv1jNqGhStryaZY438jOeXnj6Z5YmkrX1g6A", "width": 5120}], "place_id": "ChIJmUPr8Y790YUR43rZjhYePwE", "plus_code": {"compound_code": "9W2H+4C Mexico City", "global_code": "76F29W2H+4C"}, "rating": 3, "reference": "ChIJmUPr8Y790YUR43rZjhYePwE", "types": ["atm", "finance", "point_of_interest", "establishment"], "user_ratings_total": 9}, {"business_status": "OPERATIONAL", "formatted_address": "Ermita Iztapalapa 1863, Los \u00c1ngeles, Iztapalapa, 09710 Ciudad de M\u00e9xico, CDMX", "geometry": {"location": {"lat": 19.349795, "lng": -99.0735356}, "viewport": {"northeast": {"lat": 19.35135567989272, "lng": -99.07207482010728}, "southwest": {"lat": 19.34865602010727, "lng": -99.07477447989272}}}, "icon": "https://maps.gstatic.com/mapfiles/place_api/icons/v1/png_71/atm-71.png", "name": "Atm/Cajero BBVA Suc Ermita Rojo Gomez973", "opening_hours": {"open_now": false}, "photos": [{"height": 4224, "html_attributions": ["<a href=\"https://maps.google.com/maps/contrib/113230650033458584004\">osiris lopez</a>"], "photo_reference": "CmRaAAAAu46rulp83iz3Zk98_8eXx9awLuKsJ0CO4kFeB9-vQ6-0h4-1axpRftr8uO0Lf3d5YKEAqtcKCHsOJaJym63ijb91yT65WHEUpgzI5T-LapeR6E_CkmkeQDE_GymlCNEbEhDkvoR_prxIB8aJUhcpAiPnGhRfJo7puXQwQd0dey3wRMNd5wlcBA", "width": 5632}], "place_id": "ChIJF_lsno790YURk2Zu1vuXFaM", "plus_code": {"compound_code": "8WXG+WH Mexico City", "global_code": "76F28WXG+WH"}, "rating": 1.8, "reference": "ChIJF_lsno790YURk2Zu1vuXFaM", "types": ["atm", "finance", "point_of_interest", "establishment"], "user_ratings_total": 11}, {"business_status": "OPERATIONAL", "formatted_address": "Ermita Iztapalapa 2955, 2da Amp San Miguel, Iztapalapa, 09830 Ciudad de M\u00e9xico, CDMX", "geometry": {"location": {"lat": 19.3504094, "lng": -99.0720783}, "viewport": {"northeast": {"lat": 19.35168562989272, "lng": -99.07074922010727}, "southwest": {"lat": 19.34898597010728, "lng": -99.07344887989272}}}, "icon": "https://maps.gstatic.com/mapfiles/place_api/icons/v1/png_71/atm-71.png", "name": "Cajero Banorte", "opening_hours": {"open_now": true}, "place_id": "ChIJDy8bjI790YURqsSFxG6f-TY", "plus_code": {"compound_code": "9W2H+55 Mexico City", "global_code": "76F29W2H+55"}, "rating": 2.6, "reference": "ChIJDy8bjI790YURqsSFxG6f-TY", "types": ["atm", "finance", "point_of_interest", "establishment"], "user_ratings_total": 9}, {"business_status": "OPERATIONAL", "formatted_address": "Calz Taxque\u00f1a 2167, Culhuacan, Iztapalapa, 09790 Ciudad de M\u00e9xico, CDMX", "geometry": {"location": {"lat": 19.3379, "lng": -99.1099}, "viewport": {"northeast": {"lat": 19.33931852989272, "lng": -99.10853627010728}, "southwest": {"lat": 19.33661887010728, "lng": -99.11123592989271}}}, "icon": "https://maps.gstatic.com/mapfiles/place_api/icons/v1/png_71/atm-71.png", "name": "BBVA BANCOMER", "opening_hours": {"open_now": false}, "photos": [{"height": 1280, "html_attributions": ["<a href=\"https://maps.google.com/maps/contrib/109609653416058430084\">A Google User</a>"], "photo_reference": "CmRaAAAAtddE0mCjo80o6SdyJ-Coaz_bikFJK2OWXl49sFcIg1zrh4tEV6SDBAn8OYSAJdrKYxRMiy2gk39OooOCZLwA6cpitti0yXreOpxQPWHHtq5jOMmmae7NI9y8Ref6VNcREhDFW3RRFoIu_6xruce6oXKkGhQxzB3mhtYRf9QJXoAcpwk_4bB1Pg", "width": 720}], "place_id": "ChIJl3MLB_0BzoURkGrZj5znKi8", "plus_code": {"compound_code": "8VQR+52 Mexico City", "global_code": "76F28VQR+52"}, "rating": 2.8, "reference": "ChIJl3MLB_0BzoURkGrZj5znKi8", "types": ["atm", "finance", "point_of_interest", "establishment"], "user_ratings_total": 6}]