[{"business_status": "OPERATIONAL", "geometry": {"location": {"lat": 19.3537345, "lng": -99.09594109999999}, "viewport": {"northeast": {"lat": 19.3550628302915, "lng": -99.09451846970849}, "southwest": {"lat": 19.3523648697085, "lng": -99.0972164302915}}}, "icon": "https://maps.gstatic.com/mapfiles/place_api/icons/v1/png_71/generic_business-71.png", "name": "Silver Mec\u00e1nica", "place_id": "ChIJPfUkq-T90YURjk9sin1elF8", "plus_code": {"compound_code": "9W33+FJ Mexico City, CDMX, Mexico", "global_code": "76F29W33+FJ"}, "rating": 5, "reference": "ChIJPfUkq-T90YURjk9sin1elF8", "scope": "GOOGLE", "types": ["car_repair", "point_of_interest", "establishment"], "user_ratings_total": 1, "vicinity": "La Lomita, El Santuario, Ciudad de M\u00e9xico"}, {"business_status": "OPERATIONAL", "geometry": {"location": {"lat": 19.355475, "lng": -99.093273}, "viewport": {"northeast": {"lat": 19.3568060302915, "lng": -99.0919345697085}, "southwest": {"lat": 19.3541080697085, "lng": -99.0946325302915}}}, "icon": "https://maps.gstatic.com/mapfiles/place_api/icons/v1/png_71/generic_business-71.png", "name": "BERSERK.DESIGN", "opening_hours": {"open_now": false}, "photos": [{"height": 607, "html_attributions": ["<a href=\"https://maps.google.com/maps/contrib/107293277891990382970\">BERSERK.DESIGN</a>"], "photo_reference": "CmRaAAAABGfjUD57Ws1bWs4D2Z4Hs_8eMi9mrcX6yI5u-Yd8gpMPLtNsPbk6P6BWb_g74C-M-zoWOizhCGZ-7NNwoiMNQSzsc_2Eg0o573OVUOonEfK7PDjtTbvXQ_AxEq-O1sKeEhAx4kaSvj-v9-b2rL5L6JK_GhShOfmkrcBTJwpJZvg0LBJBVT0rIQ", "width": 1080}], "place_id": "ChIJq8w__OT90YURzunfIPpLxVY", "plus_code": {"compound_code": "9W44+5M Mexico City, CDMX, Mexico", "global_code": "76F29W44+5M"}, "reference": "ChIJq8w__OT90YURzunfIPpLxVY", "scope": "GOOGLE", "types": ["jewelry_store", "car_repair", "point_of_interest", "store", "establishment"], "vicinity": "Capilla de, San Miguel, El Santuario, Ciudad de M\u00e9xico"}, {"business_status": "OPERATIONAL", "geometry": {"location": {"lat": 19.3503153, "lng": -99.0960052}, "viewport": {"northeast": {"lat": 19.3516657302915, "lng": -99.09466991970848}, "southwest": {"lat": 19.3489677697085, "lng": -99.0973678802915}}}, "icon": "https://maps.gstatic.com/mapfiles/place_api/icons/v1/png_71/generic_business-71.png", "name": "Moto Servicio PiVer", "opening_hours": {"open_now": false}, "place_id": "ChIJd_S2g_z90YURFb9FeL21v6s", "plus_code": {"compound_code": "9W23+4H Mexico City, CDMX, Mexico", "global_code": "76F29W23+4H"}, "rating": 5, "reference": "ChIJd_S2g_z90YURFb9FeL21v6s", "scope": "GOOGLE", "types": ["car_repair", "point_of_interest", "establishment"], "user_ratings_total": 1, "vicinity": "Vista Hermosa Mz-28/ Lote-7, Estrella del Sur, Ciudad de M\u00e9xico"}, {"business_status": "OPERATIONAL", "geometry": {"location": {"lat": 19.35260169999999, "lng": -99.0905225}, "viewport": {"northeast": {"lat": 19.3539678302915, "lng": -99.08914551970848}, "southwest": {"lat": 19.3512698697085, "lng": -99.0918434802915}}}, "icon": "https://maps.gstatic.com/mapfiles/place_api/icons/v1/png_71/generic_business-71.png", "name": "TALLER Y LABORATORIO DIESEL RC", "place_id": "ChIJC1ATqfr90YURYw82b7ELwLs", "plus_code": {"compound_code": "9W35+2Q Mexico City, CDMX, Mexico", "global_code": "76F29W35+2Q"}, "reference": "ChIJC1ATqfr90YURYw82b7ELwLs", "scope": "GOOGLE", "types": ["car_repair", "point_of_interest", "establishment"], "vicinity": "Octavio Morales, M 176, L 4B, Santa Martha Acatitla, Ciudad de M\u00e9xico"}, {"business_status": "OPERATIONAL", "geometry": {"location": {"lat": 19.3519947, "lng": -99.09006040000001}, "viewport": {"northeast": {"lat": 19.3533846802915, "lng": -99.0887231197085}, "southwest": {"lat": 19.3506867197085, "lng": -99.09142108029151}}}, "icon": "https://maps.gstatic.com/mapfiles/place_api/icons/v1/png_71/generic_business-71.png", "name": "Servicio De Hojalateria Y Pintura", "place_id": "ChIJp_-WCfD90YUR3X6QI5WFUnE", "plus_code": {"compound_code": "9W25+QX Mexico City, CDMX, Mexico", "global_code": "76F29W25+QX"}, "rating": 4.3, "reference": "ChIJp_-WCfD90YUR3X6QI5WFUnE", "scope": "GOOGLE", "types": ["car_repair", "point_of_interest", "establishment"], "user_ratings_total": 3, "vicinity": "Lucero 14, Ciudad de M\u00e9xico"}, {"business_status": "OPERATIONAL", "geometry": {"location": {"lat": 19.3496595, "lng": -99.0893475}, "viewport": {"northeast": {"lat": 19.3510067302915, "lng": -99.08793576970851}, "southwest": {"lat": 19.3483087697085, "lng": -99.09063373029151}}}, "icon": "https://maps.gstatic.com/mapfiles/place_api/icons/v1/png_71/generic_business-71.png", "name": "Pti Autoser", "place_id": "ChIJY3IhtUkZzoURXDRq_qdgTY8", "plus_code": {"compound_code": "8WX6+V7 Mexico City, CDMX, Mexico", "global_code": "76F28WX6+V7"}, "reference": "ChIJY3IhtUkZzoURXDRq_qdgTY8", "scope": "GOOGLE", "types": ["car_repair", "point_of_interest", "establishment"], "vicinity": "Tercer Callej\u00f3n de San Jos\u00e9 Manzana 2 Lote 2, Barrio San Jos\u00e9, Ciudad de M\u00e9xico"}, {"business_status": "OPERATIONAL", "geometry": {"location": {"lat": 19.3545832, "lng": -99.0933649}, "viewport": {"northeast": {"lat": 19.3559191302915, "lng": -99.09201001970848}, "southwest": {"lat": 19.35322116970849, "lng": -99.0947079802915}}}, "icon": "https://maps.gstatic.com/mapfiles/place_api/icons/v1/png_71/generic_business-71.png", "name": "Godike Motors", "opening_hours": {"open_now": false}, "photos": [{"height": 2736, "html_attributions": ["<a href=\"https://maps.google.com/maps/contrib/116881284372926447740\">Nikolay Gonz\u00e1lez</a>"], "photo_reference": "CmRaAAAAAvJVVtqGojUG7wlDEDUPumN7tgvWh8RlEXvUdii1pzwlB_EHNoN7Q4ILXBRG0six5vLlNhWW8fCt7DnkyBV_xWBydP_QTxcbLGDS0CKFl0t75X2Wid3Eh5HLV2S_y9BpEhBS7kcaTTw8m7-qFFc3qPeRGhTOLYx0euAevSTns0j8TFjbWLX13g", "width": 3648}], "place_id": "ChIJV8RJvCb90YUR0QPn1-TE8E8", "plus_code": {"compound_code": "9W34+RM Mexico City, CDMX, Mexico", "global_code": "76F29W34+RM"}, "rating": 5, "reference": "ChIJV8RJvCb90YUR0QPn1-TE8E8", "scope": "GOOGLE", "types": ["car_repair", "point_of_interest", "establishment"], "user_ratings_total": 10, "vicinity": "Capilla del Carmen #7, El Santuario, Ciudad de M\u00e9xico"}, {"business_status": "OPERATIONAL", "geometry": {"location": {"lat": 19.3518011, "lng": -99.0976024}, "viewport": {"northeast": {"lat": 19.3531667802915, "lng": -99.0962429697085}, "southwest": {"lat": 19.3504688197085, "lng": -99.0989409302915}}}, "icon": "https://maps.gstatic.com/mapfiles/place_api/icons/v1/png_71/generic_business-71.png", "name": "Service car mecatronics", "opening_hours": {"open_now": true}, "place_id": "ChIJSSU4Gaf90YURXq-Nti5a8L0", "plus_code": {"compound_code": "9W22+PX Mexico City, CDMX, Mexico", "global_code": "76F29W22+PX"}, "reference": "ChIJSSU4Gaf90YURXq-Nti5a8L0", "scope": "GOOGLE", "types": ["car_repair", "point_of_interest", "establishment"], "vicinity": "Avenida Estrella 98BIS, Ricardo Flores Mag\u00f3n, Ciudad de M\u00e9xico"}, {"business_status": "OPERATIONAL", "geometry": {"location": {"lat": 19.3523123, "lng": -99.0981328}, "viewport": {"northeast": {"lat": 19.3536809302915, "lng": -99.0967319197085}, "southwest": {"lat": 19.35098296970849, "lng": -99.09942988029151}}}, "icon": "https://maps.gstatic.com/mapfiles/place_api/icons/v1/png_71/generic_business-71.png", "name": "SERVICIO ROYA", "place_id": "ChIJSd9j0fz90YURJ3ehFG1qsKg", "plus_code": {"compound_code": "9W22+WP Mexico City, CDMX, Mexico", "global_code": "76F29W22+WP"}, "reference": "ChIJSd9j0fz90YURJ3ehFG1qsKg", "scope": "GOOGLE", "types": ["car_repair", "point_of_interest", "establishment"], "vicinity": "Esq. Av. Estrella, Xochiatl, Ricardo Flores Mag\u00f3n, Iztapalapa, Ciudad de M\u00e9xico"}, {"business_status": "OPERATIONAL", "geometry": {"location": {"lat": 19.3519533, "lng": -99.0985348}, "viewport": {"northeast": {"lat": 19.3533019802915, "lng": -99.0971745197085}, "southwest": {"lat": 19.3506040197085, "lng": -99.09987248029151}}}, "icon": "https://maps.gstatic.com/mapfiles/place_api/icons/v1/png_71/generic_business-71.png", "name": "AUTOMOTRIZ FIX REM", "opening_hours": {"open_now": false}, "photos": [{"height": 2268, "html_attributions": ["<a href=\"https://maps.google.com/maps/contrib/101704380934840466771\">juan echenique</a>"], "photo_reference": "CmRaAAAAFFGfdg5yujoOJo0FSk4ViwFnYB4miQ3BTJ_KJ0ffrRfnULaSaYfd4kqJiM3KPoYL6PMzMAXN7bDeo2ixXEJV34MuzfytGhmgJfpXSGYk0ClbAUnqYhS2q6rwzOSsreEtEhDR_MUaZGhcQHgegiI0wfm0GhRUev6kg3KTBK8hc2IJMcXlcHvAEA", "width": 4032}], "place_id": "ChIJX1RDBQf90YURkaEob-oDoUI", "plus_code": {"compound_code": "9W22+QH Mexico City, CDMX, Mexico", "global_code": "76F29W22+QH"}, "rating": 5, "reference": "ChIJX1RDBQf90YURkaEob-oDoUI", "scope": "GOOGLE", "types": ["car_repair", "point_of_interest", "establishment"], "user_ratings_total": 2, "vicinity": "Xochiquetzal 15, Ricardo Flores Mag\u00f3n, Ciudad de M\u00e9xico"}]