[{"business_status": "OPERATIONAL", "formatted_address": "San Pedro 25, El Santuario, Iztapalapa, 09820 Ciudad de M\u00e9xico, CDMX", "geometry": {"location": {"lat": 19.3543264, "lng": -99.09479859999999}, "viewport": {"northeast": {"lat": 19.35568462989272, "lng": -99.09345227010729}, "southwest": {"lat": 19.35298497010728, "lng": -99.09615192989273}}}, "icon": "https://maps.gstatic.com/mapfiles/place_api/icons/v1/png_71/generic_business-71.png", "name": "Farmacia ANGY", "opening_hours": {"open_now": true}, "place_id": "ChIJ_6HhleT90YURkUwA9yYkcug", "plus_code": {"compound_code": "9W34+P3 Mexico City", "global_code": "76F29W34+P3"}, "rating": 5, "reference": "ChIJ_6HhleT90YURkUwA9yYkcug", "types": ["drugstore", "pharmacy", "dentist", "health", "point_of_interest", "store", "establishment"], "user_ratings_total": 3}, {"business_status": "OPERATIONAL", "formatted_address": "Puente Titla MZ 7, Amp el Santuario, Iztapalapa, 09829 Ciudad de M\u00e9xico, CDMX", "geometry": {"location": {"lat": 19.3501632, "lng": -99.0950584}, "viewport": {"northeast": {"lat": 19.35154387989272, "lng": -99.09368837010727}, "southwest": {"lat": 19.34884422010728, "lng": -99.09638802989272}}}, "icon": "https://maps.gstatic.com/mapfiles/place_api/icons/v1/png_71/generic_business-71.png", "name": "FARMACIA LA ESTRELLA", "opening_hours": {"open_now": true}, "place_id": "ChIJ0TMXd_v90YURuD33wpZdtXE", "plus_code": {"compound_code": "9W23+3X Mexico City", "global_code": "76F29W23+3X"}, "rating": 0, "reference": "ChIJ0TMXd_v90YURuD33wpZdtXE", "types": ["drugstore", "health", "point_of_interest", "store", "establishment"], "user_ratings_total": 0}, {"business_status": "OPERATIONAL", "formatted_address": "Calz. Nueva, Ermita Iztapalapa 143, Amp Ricardo Flores Mag\u00f3n, Iztapalapa, 09828 Ciudad de M\u00e9xico, CDMX", "geometry": {"location": {"lat": 19.3553585, "lng": -99.09961349999999}, "viewport": {"northeast": {"lat": 19.35680292989272, "lng": -99.09825417010727}, "southwest": {"lat": 19.35410327010727, "lng": -99.10095382989272}}}, "icon": "https://maps.gstatic.com/mapfiles/place_api/icons/v1/png_71/generic_business-71.png", "name": "Farmacias del Ahorro Atlalilco", "opening_hours": {"open_now": true}, "photos": [{"height": 1280, "html_attributions": ["<a href=\"https://maps.google.com/maps/contrib/115021744655348340027\">A Google User</a>"], "photo_reference": "CmRaAAAArNA6sBTkzLC9RTbDFz8W7GogmC-TF8OaSr-j7y7_3KQ3eU9hvFDSy_Epji-Luyfxoe8sRMXC2z6rq1ruwsFLWFgXLx3SXd8spbYCM9ZT63BlccWvnRuW3bSvORP-hEGSEhCxiKkzZK8docyeHqh4Xyc-GhT-Dtyrie8Ja5_vF4lHPK5nOl5F6g", "width": 1280}], "place_id": "ChIJd5Igynj90YURVHIFK7ybW_A", "plus_code": {"compound_code": "9W42+45 Mexico City", "global_code": "76F29W42+45"}, "rating": 3.7, "reference": "ChIJd5Igynj90YURVHIFK7ybW_A", "types": ["drugstore", "health", "point_of_interest", "store", "establishment"], "user_ratings_total": 3}, {"business_status": "OPERATIONAL", "formatted_address": "Local 1, Cl. Carril 51-B, Iztapalapa, 09850 Ciudad de M\u00e9xico, CDMX", "geometry": {"location": {"lat": 19.3383107, "lng": -99.0823456}, "viewport": {"northeast": {"lat": 19.33986972989272, "lng": -99.0809557701073}, "southwest": {"lat": 19.33717007010728, "lng": -99.08365542989273}}}, "icon": "https://maps.gstatic.com/mapfiles/place_api/icons/v1/png_71/generic_business-71.png", "name": "GENERIC PHARMACY", "opening_hours": {"open_now": true}, "place_id": "ChIJqZJSAAsCzoURWZMhMowi22U", "plus_code": {"compound_code": "8WQ9+83 Mexico City", "global_code": "76F28WQ9+83"}, "rating": 0, "reference": "ChIJqZJSAAsCzoURWZMhMowi22U", "types": ["drugstore", "pharmacy", "health", "point_of_interest", "store", "establishment"], "user_ratings_total": 0}, {"business_status": "OPERATIONAL", "formatted_address": "Privada Ermita Iztapalapa 32, Amp Ricardo Flores Mag\u00f3n, Iztapalapa, 09828 Ciudad de M\u00e9xico, CDMX", "geometry": {"location": {"lat": 19.3532086, "lng": -99.10048239999999}, "viewport": {"northeast": {"lat": 19.35454622989272, "lng": -99.09909412010727}, "southwest": {"lat": 19.35184657010727, "lng": -99.10179377989272}}}, "icon": "https://maps.gstatic.com/mapfiles/place_api/icons/v1/png_71/generic_business-71.png", "name": "La esperanza", "opening_hours": {"open_now": true}, "photos": [{"height": 1600, "html_attributions": ["<a href=\"https://maps.google.com/maps/contrib/108022857891136587917\">A Google User</a>"], "photo_reference": "CmRaAAAAfF9bYt2FECZALkRxLUcTz8lIx8WYn1DZu0biOFYnbEdROe9p9AXhT6jKEkvzxiFhUFJrS7JLiqxyPGBaImASe3eH8Qa-VJXB-FcVEgXtrHvYxTdn7kWeNV6zpDf-zA2qEhBjwnHpdBIZeGnn2jxckepLGhS9SQyJzwk16Bapx__QOrvtvk7E-w", "width": 900}], "place_id": "ChIJxSb_0Wn90YUR8dQi9ukrpmA", "plus_code": {"compound_code": "9V3X+7R Mexico City", "global_code": "76F29V3X+7R"}, "rating": 0, "reference": "ChIJxSb_0Wn90YUR8dQi9ukrpmA", "types": ["drugstore", "health", "point_of_interest", "store", "establishment"], "user_ratings_total": 0}, {"business_status": "OPERATIONAL", "formatted_address": "Metales Diaz, 2DA PRIV DESVIACION E IXTAP # 6 09820, 09821 Ciudad de M\u00e9xico", "geometry": {"location": {"lat": 19.3544036, "lng": -99.09998460000001}, "viewport": {"northeast": {"lat": 19.35575142989272, "lng": -99.09862627010727}, "southwest": {"lat": 19.35305177010728, "lng": -99.10132592989272}}}, "icon": "https://maps.gstatic.com/mapfiles/place_api/icons/v1/png_71/generic_business-71.png", "name": "Pod\u00f3logos 2DA PRIV DESVIACION E IXTAP # 6 COL FLORES MAGON", "opening_hours": {"open_now": true}, "photos": [{"height": 608, "html_attributions": ["<a href=\"https://maps.google.com/maps/contrib/108841439474861872799\">A Google User</a>"], "photo_reference": "CmRaAAAAu57YpFkj83qgJWPw1OabIGebzKluViMq_zcoOb2Kn4XPCYgQY2D7aU6RXaAtRF6k0aY0gXtayzznTNenpVyHAqkAkL4vYxc8eDlIJvSYLXWpI95v7KNkfSuVUouw9O87EhCyrZePsMeErldZywBy6JQ6GhQT40YId2Rdfs3hBX-Fam_Du-rkeQ", "width": 1080}], "place_id": "ChIJ0-YEDnb90YURzl1EQM0mS9I", "plus_code": {"compound_code": "9W32+Q2 Mexico City", "global_code": "76F29W32+Q2"}, "rating": 0, "reference": "ChIJ0-YEDnb90YURzl1EQM0mS9I", "types": ["drugstore", "health", "point_of_interest", "store", "establishment"], "user_ratings_total": 0}, {"business_status": "OPERATIONAL", "formatted_address": "Ermita Iztapalapa 750, Granjas San Antonio, Iztapalapa, 09070 Ciudad de M\u00e9xico, CDMX", "geometry": {"location": {"lat": 19.358334, "lng": -99.10797199999999}, "viewport": {"northeast": {"lat": 19.35936542989272, "lng": -99.10665192010728}, "southwest": {"lat": 19.35666577010728, "lng": -99.10935157989272}}}, "icon": "https://maps.gstatic.com/mapfiles/place_api/icons/v1/png_71/generic_business-71.png", "name": "Distrito Farmacias", "photos": [{"height": 2592, "html_attributions": ["<a href=\"https://maps.google.com/maps/contrib/105847799416761820614\">Greta Garc\u00eda Ochoa</a>"], "photo_reference": "CmRZAAAAABSfgvgT62w7zTR1uWkj_QKM8riDfeU9WvO90Q3CpmFxvPYRRWaNT_glbDJ1ykrge1BI9fbxM4TaXdqU1Yc7Lm5eUlqv0S_QcbUplX6LnBzjXM3Tf-J6OIubKT9a0lGlEhBOEEDvnnIQOSkPEzES1Nm-GhSdZ1y5-GA_zRT4LbmnM4UegIjRJQ", "width": 1456}], "place_id": "ChIJY9eQHgz-0YURC3N4MFBTMDs", "plus_code": {"compound_code": "9V5R+8R Mexico City", "global_code": "76F29V5R+8R"}, "rating": 5, "reference": "ChIJY9eQHgz-0YURC3N4MFBTMDs", "types": ["drugstore", "pharmacy", "health", "point_of_interest", "store", "establishment"], "user_ratings_total": 1}, {"business_status": "OPERATIONAL", "formatted_address": "5 de Mayo, San Lucas, Iztapalapa, 09000 Ciudad de M\u00e9xico, CDMX", "geometry": {"location": {"lat": 19.3626088, "lng": -99.0987816}, "viewport": {"northeast": {"lat": 19.36384897989272, "lng": -99.09725457010728}, "southwest": {"lat": 19.36114932010728, "lng": -99.09995422989272}}}, "icon": "https://maps.gstatic.com/mapfiles/place_api/icons/v1/png_71/generic_business-71.png", "name": "Farmacia del ahorro", "place_id": "ChIJNXFdQA790YUR7jVMCPpYcvQ", "plus_code": {"compound_code": "9W72+2F Mexico City", "global_code": "76F29W72+2F"}, "rating": 0, "reference": "ChIJNXFdQA790YUR7jVMCPpYcvQ", "types": ["drugstore", "health", "point_of_interest", "store", "establishment"], "user_ratings_total": 0}, {"business_status": "OPERATIONAL", "formatted_address": "Vicente Guerrero 41, Zona Urbana Ejidal Estrella Culhuacan, Iztapalapa, 09809 Ciudad de M\u00e9xico, CDMX", "geometry": {"location": {"lat": 19.333839, "lng": -99.1078782}, "viewport": {"northeast": {"lat": 19.33518727989272, "lng": -99.10650597010728}, "southwest": {"lat": 19.33248762010728, "lng": -99.10920562989273}}}, "icon": "https://maps.gstatic.com/mapfiles/place_api/icons/v1/png_71/generic_business-71.png", "name": "Abarrotes vinos y licores Comercial Guerrero", "opening_hours": {"open_now": false}, "photos": [{"height": 1200, "html_attributions": ["<a href=\"https://maps.google.com/maps/contrib/118254684381882855177\">A Google User</a>"], "photo_reference": "CmRaAAAAxGPhjT28cIgVE0FLUSp6UyxjMOjfPc1Ll12aPvgequ9E1b747dsXjNqeYBkExGri3FJUaxezt7-7PKnEm4fU6xw9KqVu7UF7UgB8XQpmg9z663YDvXE4wupeJeiSeK0jEhBLJLHn70hw_mNm-n-F_ZFyGhTdFqJZ2KOZmlkUwvNIiY2obtj3kg", "width": 1600}], "place_id": "ChIJgy3w8fsBzoUR_IvkU3U63TI", "plus_code": {"compound_code": "8VMR+GR Zona Urbana Ejidal Estrella Culhuacan, Mexico City", "global_code": "76F28VMR+GR"}, "rating": 0, "reference": "ChIJgy3w8fsBzoUR_IvkU3U63TI", "types": ["drugstore", "convenience_store", "food", "health", "point_of_interest", "store", "establishment"], "user_ratings_total": 0}, {"business_status": "OPERATIONAL", "formatted_address": "Ganaderos 307, Valle del Sur, Iztapalapa, 09819 Ciudad de M\u00e9xico, CDMX", "geometry": {"location": {"lat": 19.3494249, "lng": -99.1112685}, "viewport": {"northeast": {"lat": 19.35098507989272, "lng": -99.10989247010728}, "southwest": {"lat": 19.34828542010727, "lng": -99.11259212989272}}}, "icon": "https://maps.gstatic.com/mapfiles/place_api/icons/v1/png_71/generic_business-71.png", "name": "Farmacias del Ahorro Ganaderos", "opening_hours": {"open_now": true}, "photos": [{"height": 2988, "html_attributions": ["<a href=\"https://maps.google.com/maps/contrib/105143792918166207379\">German Mora</a>"], "photo_reference": "CmRaAAAAPlrKO9K6X8nsYS9gSKuaNTyioxBoWCFBh2ytNffxQzhxpZxe8Az5gfxquRM112UfxPmpbLoTD7hAGR_UvEQWcCdApKPVtXizyCcwhwRQe3y80MReCCSwIWbg4AKF1FX2EhAhFl26xIFydCTqtwjZl9huGhRPCnoY823sJ_D9IDjK7feGXJ4zFw", "width": 5312}], "place_id": "ChIJhwJnW8P_0YURLULkngxf_eg", "plus_code": {"compound_code": "8VXQ+QF Mexico City", "global_code": "76F28VXQ+QF"}, "rating": 3.8, "reference": "ChIJhwJnW8P_0YURLULkngxf_eg", "types": ["drugstore", "health", "point_of_interest", "store", "establishment"], "user_ratings_total": 111}, {"business_status": "OPERATIONAL", "formatted_address": "Cda. de Olivo 2, El Manto, Iztapalapa, 09830 Ciudad de M\u00e9xico, CDMX", "geometry": {"location": {"lat": 19.3503025, "lng": -99.0819707}, "viewport": {"northeast": {"lat": 19.35164132989272, "lng": -99.08056442010727}, "southwest": {"lat": 19.34894167010728, "lng": -99.08326407989271}}}, "icon": "https://maps.gstatic.com/mapfiles/place_api/icons/v1/png_71/generic_business-71.png", "name": "FARMACIA San Mart\u00edn Caballero", "opening_hours": {"open_now": true}, "photos": [{"height": 2869, "html_attributions": ["<a href=\"https://maps.google.com/maps/contrib/110236560034314517774\">FARMACIA San Mart\u00edn Caballero</a>"], "photo_reference": "CmRaAAAA9ExAKxoCXK4fGYB6aY69gsTQ2AyTk3keBHfV9kOIwjvAl0DciHYWJsomsgmsdyt6KX8G8Km5GhBLMT0Moz8WCUdWPJWgnMrrE5Jgamfs6wwvh4QE1K9yF4baXZYRT_arEhACNPc6P_cfdYe4oXo4ljxyGhS9EeKWKkDyGc1uadRbQnksgjasLA", "width": 3218}], "place_id": "ChIJN8prB_P90YURiJwStsu-MF4", "plus_code": {"compound_code": "9W29+46 Mexico City", "global_code": "76F29W29+46"}, "rating": 0, "reference": "ChIJN8prB_P90YURiJwStsu-MF4", "types": ["drugstore", "pharmacy", "health", "point_of_interest", "store", "establishment"], "user_ratings_total": 0}, {"business_status": "OPERATIONAL", "formatted_address": "Ayuntamiento 31, San Pablo, Iztapalapa, 09000 Ciudad de M\u00e9xico, CDMX", "geometry": {"location": {"lat": 19.3593988, "lng": -99.0916797}, "viewport": {"northeast": {"lat": 19.36075242989272, "lng": -99.09034512010727}, "southwest": {"lat": 19.35805277010728, "lng": -99.09304477989271}}}, "icon": "https://maps.gstatic.com/mapfiles/place_api/icons/v1/png_71/generic_business-71.png", "name": "FARMACIA SAN JUAN", "opening_hours": {"open_now": true}, "place_id": "ChIJpScqc-b90YURycA3DY8Bue8", "plus_code": {"compound_code": "9W55+Q8 Mexico City", "global_code": "76F29W55+Q8"}, "rating": 5, "reference": "ChIJpScqc-b90YURycA3DY8Bue8", "types": ["drugstore", "pharmacy", "health", "point_of_interest", "store", "establishment"], "user_ratings_total": 1}, {"business_status": "OPERATIONAL", "formatted_address": "Privada Germanio 49, 2da Amp San Juan, Iztapalapa, 09858 Ciudad de M\u00e9xico, CDMX", "geometry": {"location": {"lat": 19.3458303, "lng": -99.0773037}, "viewport": {"northeast": {"lat": 19.34721852989272, "lng": -99.07594757010727}, "southwest": {"lat": 19.34451887010728, "lng": -99.07864722989272}}}, "icon": "https://maps.gstatic.com/mapfiles/place_api/icons/v1/png_71/generic_business-71.png", "name": "FARMACIA Y OPTICA 2020", "opening_hours": {"open_now": false}, "place_id": "ChIJf9-2D4v90YUR1XzWc6Vrc04", "plus_code": {"compound_code": "8WWF+83 Mexico City", "global_code": "76F28WWF+83"}, "rating": 0, "reference": "ChIJf9-2D4v90YUR1XzWc6Vrc04", "types": ["drugstore", "pharmacy", "health", "point_of_interest", "store", "establishment"], "user_ratings_total": 0}, {"business_status": "OPERATIONAL", "formatted_address": "Av. 11 30, San Juan Xalpa, Iztapalapa, 09850 Ciudad de M\u00e9xico, CDMX", "geometry": {"location": {"lat": 19.3378459, "lng": -99.0806028}, "viewport": {"northeast": {"lat": 19.33920347989272, "lng": -99.07929552010728}, "southwest": {"lat": 19.33650382010727, "lng": -99.08199517989273}}}, "icon": "https://maps.gstatic.com/mapfiles/place_api/icons/v1/png_71/generic_business-71.png", "name": "NUEVA FARMACIA DE SIMILARES Y GENERICOS", "opening_hours": {"open_now": false}, "place_id": "ChIJz8n8FQsCzoUR6iBzrEgPwBM", "plus_code": {"compound_code": "8WQ9+4Q Mexico City", "global_code": "76F28WQ9+4Q"}, "rating": 3.5, "reference": "ChIJz8n8FQsCzoUR6iBzrEgPwBM", "types": ["drugstore", "health", "point_of_interest", "store", "establishment"], "user_ratings_total": 2}, {"business_status": "OPERATIONAL", "formatted_address": "Trabajadores Sociales 587, San Ignacio, Iztapalapa, 09000 Ciudad de M\u00e9xico, CDMX", "geometry": {"location": {"lat": 19.367925, "lng": -99.09957}, "viewport": {"northeast": {"lat": 19.36933617989272, "lng": -99.09819987010728}, "southwest": {"lat": 19.36663652010728, "lng": -99.10089952989273}}}, "icon": "https://maps.gstatic.com/mapfiles/place_api/icons/v1/png_71/generic_business-71.png", "name": "Farmacias del Ahorro Trabajadoras Sociales", "opening_hours": {"open_now": true}, "place_id": "ChIJscF27Pr90YURE-amtmgevSA", "plus_code": {"compound_code": "9W92+55 Mexico City", "global_code": "76F29W92+55"}, "rating": 4, "reference": "ChIJscF27Pr90YURE-amtmgevSA", "types": ["drugstore", "health", "point_of_interest", "store", "establishment"], "user_ratings_total": 1}, {"business_status": "OPERATIONAL", "formatted_address": "Plaza, Central de Abasto, Iztapalapa, 09040 Ciudad de M\u00e9xico, CDMX", "geometry": {"location": {"lat": 19.3780944, "lng": -99.09562489999999}, "viewport": {"northeast": {"lat": 19.37944422989272, "lng": -99.09427507010726}, "southwest": {"lat": 19.37674457010727, "lng": -99.09697472989271}}}, "icon": "https://maps.gstatic.com/mapfiles/place_api/icons/v1/png_71/generic_business-71.png", "name": "Farmacia Benavides", "opening_hours": {"open_now": true}, "photos": [{"height": 2976, "html_attributions": ["<a href=\"https://maps.google.com/maps/contrib/103724092877683086205\">A Miguel Rivera Gonzalez</a>"], "photo_reference": "CmRaAAAAbJmnMfbuFIlQ9yla0VCv_aLivOBw1pTkuNhLS5aB_JbI3YAZUMIKRhzKf_SIrLlF1CUZm_0FNIrhsFc3whbxVBsJvvA0jbbn306ul8fedB5TR-ISCb1ZaeB1WhDhlsDSEhCE1IX46A-ZWUgWYehkC550GhSjqtlke9obXeFQcEJOgYvwuBi7kQ", "width": 3968}], "place_id": "ChIJs6_MmtP90YURqons0RithNQ", "plus_code": {"compound_code": "9WH3+6Q Mexico City", "global_code": "76F29WH3+6Q"}, "rating": 3.8, "reference": "ChIJs6_MmtP90YURqons0RithNQ", "types": ["drugstore", "pharmacy", "health", "point_of_interest", "store", "establishment"], "user_ratings_total": 5}, {"business_status": "OPERATIONAL", "formatted_address": "Av. 5 332, Escuadr\u00f3n 201, Iztapalapa, 09060 Ciudad de M\u00e9xico, CDMX", "geometry": {"location": {"lat": 19.3684032, "lng": -99.10885119999999}, "viewport": {"northeast": {"lat": 19.36971282989272, "lng": -99.10744957010728}, "southwest": {"lat": 19.36701317010727, "lng": -99.11014922989271}}}, "icon": "https://maps.gstatic.com/mapfiles/place_api/icons/v1/png_71/generic_business-71.png", "name": "Farmacia Fravel", "opening_hours": {"open_now": true}, "photos": [{"height": 4032, "html_attributions": ["<a href=\"https://maps.google.com/maps/contrib/100347606988918384768\">A Google User</a>"], "photo_reference": "CmRaAAAAycu7pLB6DVd9v7i4fvle0pwErEcfnIhVNA9-9pEWocCS27qB5uBvHFiJ7PWgXCLUkKrAvxmEWhyMvY47XlL_SnZn5Q61VgGw9XSm5cBp5yRpw0ZAPGHr4AEC_Nans9eIEhBMCTnpPJaTqOkGGxnPt5WzGhQBs73ibyVCPohVBvEDESiPZw14nw", "width": 3024}], "place_id": "ChIJfZai393_0YURAEWk4PRHoo0", "plus_code": {"compound_code": "9V9R+9F Mexico City", "global_code": "76F29V9R+9F"}, "rating": 0, "reference": "ChIJfZai393_0YURAEWk4PRHoo0", "types": ["drugstore", "health", "point_of_interest", "store", "establishment"], "user_ratings_total": 0}, {"business_status": "OPERATIONAL", "formatted_address": "Anillo Perif. Canal de Garay 591, Cerro de la Estrella, Iztapalapa, 09860 Ciudad de M\u00e9xico, CDMX", "geometry": {"location": {"lat": 19.3229932, "lng": -99.0723987}, "viewport": {"northeast": {"lat": 19.32431367989273, "lng": -99.07100477010728}, "southwest": {"lat": 19.32161402010728, "lng": -99.07370442989273}}}, "icon": "https://maps.gstatic.com/mapfiles/place_api/icons/v1/png_71/generic_business-71.png", "name": "Grupo Equipos Medicos Quirurgicos", "opening_hours": {"open_now": false}, "place_id": "ChIJi9xMFWkCzoURFlYYTwPnyz0", "plus_code": {"compound_code": "8WFH+52 Mexico City", "global_code": "76F28WFH+52"}, "rating": 3.5, "reference": "ChIJi9xMFWkCzoURFlYYTwPnyz0", "types": ["drugstore", "pharmacy", "health", "point_of_interest", "store", "establishment"], "user_ratings_total": 2}, {"business_status": "OPERATIONAL", "formatted_address": "Orion S/N, Prado Churubusco, Coyoac\u00e1n, 04230 Ciudad de M\u00e9xico, CDMX", "geometry": {"location": {"lat": 19.3537383, "lng": -99.12676569999999}, "viewport": {"northeast": {"lat": 19.35508747989272, "lng": -99.12538272010727}, "southwest": {"lat": 19.35238782010727, "lng": -99.12808237989272}}}, "icon": "https://maps.gstatic.com/mapfiles/place_api/icons/v1/png_71/generic_business-71.png", "name": "Peri\u00f3dicos Ori\u00f3n", "opening_hours": {"open_now": false}, "photos": [{"height": 1600, "html_attributions": ["<a href=\"https://maps.google.com/maps/contrib/115333480005916690807\">A Google User</a>"], "photo_reference": "CmRaAAAAvAYd5HJo-QjBGt0Bd3NF6GKE9wbvUcXx0nUJD2kE0GasHW0VQZK0KyZLg3i3IY2zsAJZjBhOPX8qvYjqSGavGiHcFHuSrGPPQtVH1QBnBNK4qnt9BTtPwYeDd3c_u0m0EhDrPrLBiZ6IXS3j8aPLZwdkGhQVTGMgVPVygK-jBl-af0dXXKH0tA", "width": 1200}], "place_id": "ChIJp3ySVj__0YURJGnMTMLNP_4", "plus_code": {"compound_code": "9V3F+F7 Prado Churubusco, Mexico City", "global_code": "76F29V3F+F7"}, "rating": 0, "reference": "ChIJp3ySVj__0YURJGnMTMLNP_4", "types": ["drugstore", "health", "point_of_interest", "store", "establishment"], "user_ratings_total": 0}, {"business_status": "OPERATIONAL", "formatted_address": "Almendros 39, Amanecer Bellavista, Iztapalapa, 09609 Ciudad de M\u00e9xico, CDMX", "geometry": {"location": {"lat": 19.333962, "lng": -99.0871715}, "viewport": {"northeast": {"lat": 19.33531182989272, "lng": -99.08582167010726}, "southwest": {"lat": 19.33261217010728, "lng": -99.08852132989271}}}, "icon": "https://maps.gstatic.com/mapfiles/place_api/icons/v1/png_71/generic_business-71.png", "name": "FARMACIA \"RG\"", "opening_hours": {"open_now": false}, "photos": [{"height": 3000, "html_attributions": ["<a href=\"https://maps.google.com/maps/contrib/100948609864570760709\">canelo roman</a>"], "photo_reference": "CmRaAAAAFRkARYJU6l6trWc3LU62jwxJU4dkLXoErdD_4Uv4mXWxE4AR0PIpYmt9nUH3wT0jTJAP56iMKxS3-JHUcpmvgxeaORyn8R0VkOlY8KyOrNEanyTjwwIx1NuLQLrQsrIZEhB7Qb8gQ8pFgOT7joeT6RMvGhQwGbmLwRwWanREQBtL0YkYnxHuCQ", "width": 4000}], "place_id": "ChIJrRk01GwDzoUR5SzeOUfQt4g", "plus_code": {"compound_code": "8WM7+H4 Mexico City", "global_code": "76F28WM7+H4"}, "rating": 0, "reference": "ChIJrRk01GwDzoUR5SzeOUfQt4g", "types": ["drugstore", "pharmacy", "health", "point_of_interest", "store", "establishment"], "user_ratings_total": 0}]