[{"business_status": "OPERATIONAL", "formatted_address": "Ermita Iztapalapa 205, El Santuario, Iztapalapa, 09836 Ciudad de M\u00e9xico, CDMX", "geometry": {"location": {"lat": 19.3558621, "lng": -99.0937275}, "viewport": {"northeast": {"lat": 19.35727932989272, "lng": -99.09238762010727}, "southwest": {"lat": 19.35457967010728, "lng": -99.09508727989272}}}, "icon": "https://maps.gstatic.com/mapfiles/place_api/icons/v1/png_71/gas_station-71.png", "name": "Gasolinera G500 Operadora Ermita", "opening_hours": {}, "photos": [{"height": 1920, "html_attributions": ["<a href=\"https://maps.google.com/maps/contrib/116304696686178133844\">Eduardo Rufino</a>"], "photo_reference": "CmRaAAAA--U_pvC-vVlZJfAEdSGs4iIEXTdvZ18MNZrRUj1Xnfdj0TK3zKh1DdCACJPmNxKnhOqaIp0vIxer152b_c1JeLJh8xZq3yD8QqXXVyfIP1sCWwCYOOFwI29PzmEElUQcEhC2sZaQ2aCOpL4bXfqEzOojGhSXKUjbSxLkTWXyDlCIl5Moa3gNug", "width": 1080}], "place_id": "ChIJDRLmEu790YURpZRQAv28OWE", "plus_code": {"compound_code": "9W44+8G Mexico City", "global_code": "76F29W44+8G"}, "rating": 4, "reference": "ChIJDRLmEu790YURpZRQAv28OWE", "types": ["gas_station", "point_of_interest", "establishment"], "user_ratings_total": 99}, {"business_status": "OPERATIONAL", "formatted_address": "Ermita Iztapalapa 221, San Lucas, Iztapalapa, 09000 Ciudad de M\u00e9xico, CDMX", "geometry": {"location": {"lat": 19.3566924, "lng": -99.09783859999999}, "viewport": {"northeast": {"lat": 19.35799372989272, "lng": -99.09647632010727}, "southwest": {"lat": 19.35529407010728, "lng": -99.09917597989272}}}, "icon": "https://maps.gstatic.com/mapfiles/place_api/icons/v1/png_71/gas_station-71.png", "name": "Gasolinera", "opening_hours": {}, "photos": [{"height": 2988, "html_attributions": ["<a href=\"https://maps.google.com/maps/contrib/105143792918166207379\">German Mora</a>"], "photo_reference": "CmRaAAAANXZuTc8E9TbQ5hZgCoCAGXzXSMyhKH_AYuc1n47axQa86Xal9l8_ALq_X2cxcQx_iUVdWGvkzslIqOMklkO9SC-897rZJm7_62Ode-gQeaQlUU2VYG0671ss_srYwFF8EhDSFNe3Cv7SXS6DCmYEusidGhT7GTdYR5iDNy4YG6uFUgJdBrwWrw", "width": 5312}], "place_id": "ChIJEx6ksOP90YUR4i6bNQwtGtc", "plus_code": {"compound_code": "9W42+MV Mexico City", "global_code": "76F29W42+MV"}, "rating": 3.5, "reference": "ChIJEx6ksOP90YUR4i6bNQwtGtc", "types": ["gas_station", "point_of_interest", "establishment"], "user_ratings_total": 28}, {"business_status": "OPERATIONAL", "formatted_address": "esq. Porfirio Diaz, Ermita Iztapalapa s/n, San Lucas, Iztapalapa, 09000 Ciudad de M\u00e9xico, CDMX", "geometry": {"location": {"lat": 19.3567934, "lng": -99.09751829999999}, "viewport": {"northeast": {"lat": 19.35808732989272, "lng": -99.09615067010729}, "southwest": {"lat": 19.35538767010728, "lng": -99.09885032989273}}}, "icon": "https://maps.gstatic.com/mapfiles/place_api/icons/v1/png_71/gas_station-71.png", "name": "Pemex", "opening_hours": {"open_now": true}, "photos": [{"height": 2988, "html_attributions": ["<a href=\"https://maps.google.com/maps/contrib/105143792918166207379\">German Mora</a>"], "photo_reference": "CmRaAAAAjIiyuNSW17yObgaU54NIFQfrdHPMJJxwxQtUlcADJ5hrhT76mHrLfUSFdatsHUZE7Jm3UsD0IjOpRrwPY0FKAiKAtPmu_-QIuSfnw0rih6wQNzkkGav07Mvyb9jfG7mTEhDPyiPhaL67Y6n2_nXJ48FWGhRWiX3LCSvFSwk2_xA9G0T_-oJmFQ", "width": 5312}], "place_id": "ChIJPQgmuuP90YUR7Lnp4r8Zqpg", "plus_code": {"compound_code": "9W42+PX Mexico City", "global_code": "76F29W42+PX"}, "rating": 3.4, "reference": "ChIJPQgmuuP90YUR7Lnp4r8Zqpg", "types": ["gas_station", "point_of_interest", "establishment"], "user_ratings_total": 127}, {"business_status": "OPERATIONAL", "formatted_address": "Ermita Iztapalapa No.1565, El Manto, Iztapalapa, 09830 Ciudad de M\u00e9xico, CDMX", "geometry": {"location": {"lat": 19.354233, "lng": -99.0824514}, "viewport": {"northeast": {"lat": 19.35564117989273, "lng": -99.08107182010728}, "southwest": {"lat": 19.35294152010728, "lng": -99.08377147989272}}}, "icon": "https://maps.gstatic.com/mapfiles/place_api/icons/v1/png_71/gas_station-71.png", "name": "Gasolinera Pemex", "opening_hours": {}, "photos": [{"height": 1920, "html_attributions": ["<a href=\"https://maps.google.com/maps/contrib/116248061681006405702\">Naum Garcia</a>"], "photo_reference": "CmRaAAAA4csjmAzBTrTPhScGYGcmmFqkVjThRp274xGwWsAIB9o6XEk3eHLZwl2OXGnQxh0hJPjphnP57yXVe5lBcB5cgTvN22g53bozX1XN6Ug9ymudFcyLSLO2IfKAvA4GzB1zEhDQs7I5zwo9jN-nhlVoZep7GhQfUZ689PxViGOE8WooUnIo-OucWA", "width": 1080}], "place_id": "ChIJi8P_hO390YURcamzTEHBfrI", "plus_code": {"compound_code": "9W39+M2 Mexico City", "global_code": "76F29W39+M2"}, "rating": 3.9, "reference": "ChIJi8P_hO390YURcamzTEHBfrI", "types": ["gas_station", "point_of_interest", "establishment"], "user_ratings_total": 43}, {"business_status": "OPERATIONAL", "formatted_address": "Avenida Tlahuac No. 331 Y 333, Los Reyes Culhuacan, 09800 CDMX", "geometry": {"location": {"lat": 19.3462167, "lng": -99.1075365}, "viewport": {"northeast": {"lat": 19.34756417989272, "lng": -99.10616837010728}, "southwest": {"lat": 19.34486452010728, "lng": -99.10886802989273}}}, "icon": "https://maps.gstatic.com/mapfiles/place_api/icons/v1/png_71/gas_station-71.png", "name": "Gasolinera Pemex", "opening_hours": {"open_now": true}, "photos": [{"height": 3024, "html_attributions": ["<a href=\"https://maps.google.com/maps/contrib/113091431763993262000\">Edgar Jesus Regalado Jimenez</a>"], "photo_reference": "CmRaAAAAa8Fd2t3E2Y49NwVlkeObUnl883I5O6RV6lnHMKwxS7KFlP2rQi3vk2begtGytTci8K9xjLKtkqHh-BhgPalG44loRPd7whYT4iDRxDr56OQzRiZmYNQnTjS7mbOuxvD_EhCkyzLaU_Ckh96ffC1nK_ogGhROYgRLTGArzGh2d0J4h_yInppYtQ", "width": 4032}], "place_id": "ChIJER4j-AP-0YURnswjzNHH9y4", "plus_code": {"compound_code": "8VWR+FX Los Reyes Culhuacan, Mexico City", "global_code": "76F28VWR+FX"}, "rating": 3.3, "reference": "ChIJER4j-AP-0YURnswjzNHH9y4", "types": ["gas_station", "point_of_interest", "establishment"], "user_ratings_total": 136}, {"business_status": "OPERATIONAL", "formatted_address": "Esq San Jose, Eje 6 Sur Trabajadoras Sociales, La Asunci\u00f3n, 09000 Ciudad de M\u00e9xico, CDMX", "geometry": {"location": {"lat": 19.3667386, "lng": -99.0902347}, "viewport": {"northeast": {"lat": 19.36814597989272, "lng": -99.08888277010728}, "southwest": {"lat": 19.36544632010728, "lng": -99.09158242989271}}}, "icon": "https://maps.gstatic.com/mapfiles/place_api/icons/v1/png_71/gas_station-71.png", "name": "Gasolinera PEMEX", "opening_hours": {}, "photos": [{"height": 1836, "html_attributions": ["<a href=\"https://maps.google.com/maps/contrib/107300181147229840454\">Diana Osorio</a>"], "photo_reference": "CmRaAAAAvHt7_ujiQ447OtUqbUn7vRij79l1YLItPmxbSBaAos1I7o80QhZ16wSfQ6hYf3rm1JmMnMAqRShfadMyFIXVVddn1mLj_J0b7CQL40r-95NVKCtkVsGaN4W2Ao40A7fqEhBt7e8fWJFRtwSyShxhbijTGhRUfBg-Ls9U8jzyfV4Qft_BtuVYkQ", "width": 3264}], "place_id": "ChIJYc65zML90YURGvAtHDF45Zs", "plus_code": {"compound_code": "9W85+MW Mexico City", "global_code": "76F29W85+MW"}, "rating": 3.5, "reference": "ChIJYc65zML90YURGvAtHDF45Zs", "types": ["gas_station", "point_of_interest", "establishment"], "user_ratings_total": 144}, {"business_status": "OPERATIONAL", "formatted_address": "Eje 5 Ote 311, San Miguel, Iztapalapa, 09360 Ciudad de M\u00e9xico, CDMX", "geometry": {"location": {"lat": 19.365712, "lng": -99.08229709999999}, "viewport": {"northeast": {"lat": 19.36708187989272, "lng": -99.08100722010727}, "southwest": {"lat": 19.36438222010728, "lng": -99.08370687989272}}}, "icon": "https://maps.gstatic.com/mapfiles/place_api/icons/v1/png_71/gas_station-71.png", "name": "Gasolinera", "opening_hours": {"open_now": true}, "photos": [{"height": 1600, "html_attributions": ["<a href=\"https://maps.google.com/maps/contrib/112428251335404115048\">Oscar M\u00e9ndez</a>"], "photo_reference": "CmRaAAAAeZv4J13Jr5M0ojGkWiniY4-IeNWCemThEN55xEDsQaSkLqTmw-Z1zs0vMkQ_jeA9lg-z3BiHTJWTaOwCgQLG78adaOwH-CTtyEdIZv-5kWOw2qzuKykKND8Bnl0kZS39EhB_Mg8vCmr-RoO8nq5fOBe_GhTSY0B2gF3aNLjaMqOI7LwCHyxmow", "width": 1200}], "place_id": "ChIJz83n08H90YURPzJVLzhlAyQ", "plus_code": {"compound_code": "9W89+73 Mexico City", "global_code": "76F29W89+73"}, "rating": 3.7, "reference": "ChIJz83n08H90YURPzJVLzhlAyQ", "types": ["gas_station", "point_of_interest", "establishment"], "user_ratings_total": 9}, {"business_status": "OPERATIONAL", "formatted_address": "Av. Javier Rojo G\u00f3mez 311, Guadalupe del Moral, Iztapalapa, 09300 Ciudad de M\u00e9xico, CDMX", "geometry": {"location": {"lat": 19.3657243, "lng": -99.0821702}, "viewport": {"northeast": {"lat": 19.36711232989272, "lng": -99.08093462010727}, "southwest": {"lat": 19.36441267010728, "lng": -99.08363427989272}}}, "icon": "https://maps.gstatic.com/mapfiles/place_api/icons/v1/png_71/gas_station-71.png", "name": "PEMEX", "opening_hours": {"open_now": true}, "photos": [{"height": 2004, "html_attributions": ["<a href=\"https://maps.google.com/maps/contrib/103159504945801014480\">Josu\u00e9 Rodr\u00edguez</a>"], "photo_reference": "CmRaAAAAZr_utGOcqQq9KS0UdIhY46H2x-IbC0glEoNq8ajGfQiT5bMvK29xN5eps9TRfTdKz2mlvuEWvIDQ0v00euVwkVdq_4qCa6Z2tekd-iqD8cT61wsg2ypB8PwUQvbD8iAfEhCTXxzUBrP8ZDy-A1DwIfs3GhTUxLH92dRKXu3cFt9N4fEuuU30wg", "width": 3276}], "place_id": "ChIJY0970cH90YURkhhQ3YPLZsA", "plus_code": {"compound_code": "9W89+74 Mexico City", "global_code": "76F29W89+74"}, "rating": 3.5, "reference": "ChIJY0970cH90YURkhhQ3YPLZsA", "types": ["gas_station", "point_of_interest", "establishment"], "user_ratings_total": 162}, {"business_status": "OPERATIONAL", "formatted_address": "Av San Lorenzo 429, San Juan Xalpa, Iztapalapa, 09850 Ciudad de M\u00e9xico, CDMX", "geometry": {"location": {"lat": 19.3335478, "lng": -99.0751803}, "viewport": {"northeast": {"lat": 19.33492827989272, "lng": -99.07378627010728}, "southwest": {"lat": 19.33222862010728, "lng": -99.07648592989271}}}, "icon": "https://maps.gstatic.com/mapfiles/place_api/icons/v1/png_71/gas_station-71.png", "name": "Gasolinera Pemex", "opening_hours": {}, "photos": [{"height": 2336, "html_attributions": ["<a href=\"https://maps.google.com/maps/contrib/115366429384999177094\">juliodelaobreraa torreshummel</a>"], "photo_reference": "CmRaAAAATqyvVYb7HVYWNy7ezOZFmts9eKQeeUeAJ9f9taxG4FSlQ2MQzHzzJLra0YqOoJrx5KHC9zfxYDTdKnlCtNcEDIRN6m6g8cb0u3XJeqJjAT_lPkdmQafzNhdyuTsFV0ZXEhBuASalPUXEM-b5IiGu2TM8GhSnh20v8FSKlkLkyq3zc9jQD41m3A", "width": 4160}], "place_id": "ChIJT5O9lIQDzoURH7S6aH5C2wQ", "plus_code": {"compound_code": "8WMF+CW Mexico City", "global_code": "76F28WMF+CW"}, "rating": 3.7, "reference": "ChIJT5O9lIQDzoURH7S6aH5C2wQ", "types": ["gas_station", "point_of_interest", "establishment"], "user_ratings_total": 437}, {"business_status": "OPERATIONAL", "formatted_address": "Av. Tlahuac 331, Los Reyes Culhuacan, Iztapalapa, 09840 Ciudad de M\u00e9xico, CDMX", "geometry": {"location": {"lat": 19.3462501, "lng": -99.1075759}, "viewport": {"northeast": {"lat": 19.34759387989272, "lng": -99.1061786701073}, "southwest": {"lat": 19.34489422010728, "lng": -99.10887832989273}}}, "icon": "https://maps.gstatic.com/mapfiles/place_api/icons/v1/png_71/gas_station-71.png", "name": "Grupo Gasolinero G500", "opening_hours": {"open_now": true}, "photos": [{"height": 4128, "html_attributions": ["<a href=\"https://maps.google.com/maps/contrib/101175374578878036271\">Estilo M\u00fasica Mixteca!</a>"], "photo_reference": "CmRaAAAAvzmIo-yt7CLvyVOR_dhrp_ARASo8BToT0ThGy7urGNYxmtHFeAiWoc5zuHDw8afNsYRDloRUHJjQr-2zegS1EGzfiAE92Dx59EyqYQSjJTpmKsUfJufM7tAA972mWvLKEhCg-sypp4t-YmJtE0L29coMGhQ_HB0vK6cElRcubRvKf3G1gh6NJA", "width": 2322}], "place_id": "ChIJGezd9wP-0YURZASDGQrCwLE", "plus_code": {"compound_code": "8VWR+GX Mexico City", "global_code": "76F28VWR+GX"}, "rating": 3.6, "reference": "ChIJGezd9wP-0YURZASDGQrCwLE", "types": ["gas_station", "point_of_interest", "establishment"], "user_ratings_total": 43}, {"business_status": "OPERATIONAL", "formatted_address": "Av. Javier Rojo G\u00f3mez 482, Guadalupe del Moral, Iztapalapa, 09300 Ciudad de M\u00e9xico, CDMX", "geometry": {"location": {"lat": 19.3712477, "lng": -99.0800836}, "viewport": {"northeast": {"lat": 19.37263522989272, "lng": -99.07885312010727}, "southwest": {"lat": 19.36993557010728, "lng": -99.08155277989272}}}, "icon": "https://maps.gstatic.com/mapfiles/place_api/icons/v1/png_71/gas_station-71.png", "name": "PEMEX", "opening_hours": {"open_now": true}, "photos": [{"height": 4608, "html_attributions": ["<a href=\"https://maps.google.com/maps/contrib/108335018323530019599\">Patricia Puga</a>"], "photo_reference": "CmRaAAAArC7FMf-OMjUmEprpZ6XjlCpOv9DjW4XkvcgV903c7tUsXreyRhJDWgBQ_9TZvtVRwsobHMbd3tZOdgdidltx4g-7TxNIsnBbrDa1aYsqPapvJG3D2qZSncwa8tnt4PRfEhCMacMQaKA7mct_b963oV9BGhQE28Ougud0UtZL-hx-K4jxC6ffnw", "width": 3456}], "place_id": "ChIJHUMfYOcc0oURbiFLIFRmEWs", "plus_code": {"compound_code": "9WC9+FX Mexico City", "global_code": "76F29WC9+FX"}, "rating": 3.7, "reference": "ChIJHUMfYOcc0oURbiFLIFRmEWs", "types": ["gas_station", "point_of_interest", "establishment"], "user_ratings_total": 548}, {"business_status": "OPERATIONAL", "formatted_address": "\u00c1rea Federal Central de Abastos, Iztapalapa, Mexico City", "geometry": {"location": {"lat": 19.3757837, "lng": -99.0974069}, "viewport": {"northeast": {"lat": 19.37712077989272, "lng": -99.09605877010728}, "southwest": {"lat": 19.37442112010728, "lng": -99.09875842989273}}}, "icon": "https://maps.gstatic.com/mapfiles/place_api/icons/v1/png_71/gas_station-71.png", "name": "Gasolinera PEMEX", "photos": [{"height": 1080, "html_attributions": ["<a href=\"https://maps.google.com/maps/contrib/109270014146315771284\">Juan Mora</a>"], "photo_reference": "CmRaAAAAOtydpygR1q5FgdCfQS_Tsv6X7kf9EAJehaVmyp8t3MTRuqcsiHYRC8WzwL95dUUA8RRwCmPicisja2A4hdO3WIXWFgfKrzazfRWMiJVrEN3Yn7gPRR7cli_i8TDNQxJbEhBB9m7woF4WVbtBFMhLMYDJGhQNaQRFZqMa8VDCBmXYo0JoWzUeWg", "width": 1920}], "place_id": "ChIJbStQ3Nn90YURyfsalxsDPb8", "plus_code": {"compound_code": "9WG3+82 Mexico City", "global_code": "76F29WG3+82"}, "rating": 3, "reference": "ChIJbStQ3Nn90YURyfsalxsDPb8", "types": ["gas_station", "point_of_interest", "establishment"], "user_ratings_total": 25}, {"business_status": "CLOSED_TEMPORARILY", "formatted_address": "Av. San Lorenzo Tezonco, San Juan Xalpa, Iztapalapa, 09850 Ciudad de M\u00e9xico", "geometry": {"location": {"lat": 19.3335005, "lng": -99.0751269}, "viewport": {"northeast": {"lat": 19.33497047989272, "lng": -99.07375452010729}, "southwest": {"lat": 19.33227082010728, "lng": -99.07645417989272}}}, "icon": "https://maps.gstatic.com/mapfiles/place_api/icons/v1/png_71/gas_station-71.png", "name": "Mobil", "permanently_closed": true, "place_id": "ChIJIesXI_QDzoURSyEQbn04Oj0", "plus_code": {"compound_code": "8WMF+CW Mexico City", "global_code": "76F28WMF+CW"}, "rating": 0, "reference": "ChIJIesXI_QDzoURSyEQbn04Oj0", "types": ["gas_station", "point_of_interest", "establishment"], "user_ratings_total": 0}, {"business_status": "OPERATIONAL", "formatted_address": "San Miguel, 09360 Mexico City, CDMX", "geometry": {"location": {"lat": 19.3653833, "lng": -99.08112829999999}, "viewport": {"northeast": {"lat": 19.36682232989272, "lng": -99.07975357010729}, "southwest": {"lat": 19.36412267010728, "lng": -99.08245322989274}}}, "icon": "https://maps.gstatic.com/mapfiles/place_api/icons/v1/png_71/gas_station-71.png", "name": "Estacion Ecologica", "opening_hours": {"open_now": true}, "photos": [{"height": 1920, "html_attributions": ["<a href=\"https://maps.google.com/maps/contrib/107014234518049501381\">A Google User</a>"], "photo_reference": "CmRaAAAAU4khvzOdBXmGJu5Y2RBX7gQp4XLmSnGgFcD7nKF5_GS4W44gW8dObJsYH-2jyvXMY7YdwpWRmd8gbDSD19d8GRszvQbXacKn87NadJ0YShTlaIwMEYCT2tprN4-1hbbCEhCzhwwAPDrVc2JTmXMHZbI2GhTpPgLuLMIy7yNhjsgql4YxwccC1g", "width": 1080}], "place_id": "ChIJa4udJ8D90YURJsBbXm74730", "plus_code": {"compound_code": "9W89+5G Mexico City", "global_code": "76F29W89+5G"}, "rating": 3.8, "reference": "ChIJa4udJ8D90YURJsBbXm74730", "types": ["gas_station", "point_of_interest", "establishment"], "user_ratings_total": 16}, {"business_status": "CLOSED_TEMPORARILY", "formatted_address": "Av. Benito Juarez 1, Presidentes de M\u00e9xico, Iztapalapa, 09740 Ciudad de M\u00e9xico, CDMX", "geometry": {"location": {"lat": 19.3381375, "lng": -99.0640961}, "viewport": {"northeast": {"lat": 19.33953532989272, "lng": -99.06272217010729}, "southwest": {"lat": 19.33683567010727, "lng": -99.06542182989274}}}, "icon": "https://maps.gstatic.com/mapfiles/place_api/icons/v1/png_71/gas_station-71.png", "name": "GASOLINERIA PEMEX Garay", "permanently_closed": true, "photos": [{"height": 3648, "html_attributions": ["<a href=\"https://maps.google.com/maps/contrib/105706413424911051446\">Jessica Avenda\u00f1o Sanchez</a>"], "photo_reference": "CmRaAAAAc73hR4XGj4ah_f_kSOOgZqBOVA40v7yeyB80eMqzGVHm5aMTLAvAmrmbQtvdKMAeu6olSZ-RVwZ0MpNFFJQpkwVsk_e0Au8UqyPWjDEYLBtXvp9oGYhRyUMx5EPAJ7kaEhB046EtTqgnUUtTlO59Shv-GhRX5tvoo6pd0YHEEfApxVvjTnX02Q", "width": 2736}], "place_id": "ChIJT4t0cXkCzoURyWshagjBztQ", "plus_code": {"compound_code": "8WQP+79 Mexico City", "global_code": "76F28WQP+79"}, "rating": 3.5, "reference": "ChIJT4t0cXkCzoURyWshagjBztQ", "types": ["gas_station", "point_of_interest", "establishment"], "user_ratings_total": 492}, {"business_status": "OPERATIONAL", "formatted_address": "09410, Francisco del Paso y Troncoso 34, Jardines de Churubusco, Iztapalapa, Ciudad de M\u00e9xico, CDMX", "geometry": {"location": {"lat": 19.3744294, "lng": -99.10814239999999}, "viewport": {"northeast": {"lat": 19.37580602989272, "lng": -99.10671822010728}, "southwest": {"lat": 19.37310637010728, "lng": -99.10941787989272}}}, "icon": "https://maps.gstatic.com/mapfiles/place_api/icons/v1/png_71/gas_station-71.png", "name": "Gasolinera Pemex", "opening_hours": {}, "photos": [{"height": 4160, "html_attributions": ["<a href=\"https://maps.google.com/maps/contrib/100942778659706309404\">Antonio Esqueda Slim</a>"], "photo_reference": "CmRaAAAATgOPrFXFE-41ICP10N7D8zEYvbX3IMqXI-ceLIj9EUlUCgyaJze_pxBmnU7AYUsK9rgfwExIZB2NmBt6FNu-22iiZ4kDUJY3-iwbVyXOZK3HUtZwb0L7vbkO6W0iDDlIEhBcBBkmcnFVVLaJXjeG7Vw5GhQ2_Faz8psOOkMjiIJXFDn_iXo26g", "width": 3120}], "place_id": "ChIJ1Uywv3D-0YURUYVASr_SM5A", "plus_code": {"compound_code": "9VFR+QP Mexico City", "global_code": "76F29VFR+QP"}, "rating": 3.7, "reference": "ChIJ1Uywv3D-0YURUYVASr_SM5A", "types": ["gas_station", "point_of_interest", "establishment"], "user_ratings_total": 78}, {"business_status": "OPERATIONAL", "formatted_address": "Av Jalisco, Leyes de Reforma 1ra Secc, Iztapalapa, 09310 Ciudad de M\u00e9xico, CDMX", "geometry": {"location": {"lat": 19.3644073, "lng": -99.0679826}, "viewport": {"northeast": {"lat": 19.36573687989273, "lng": -99.06664862010727}, "southwest": {"lat": 19.36303722010728, "lng": -99.06934827989272}}}, "icon": "https://maps.gstatic.com/mapfiles/place_api/icons/v1/png_71/gas_station-71.png", "name": "bp", "opening_hours": {"open_now": true}, "photos": [{"height": 830, "html_attributions": ["<a href=\"https://maps.google.com/maps/contrib/112557164987811529762\">A Google User</a>"], "photo_reference": "CmRaAAAABMgC21T_rLTe67jy5K9OGRC2iQPMwYl5f3OVKas7M0meaQUI1a1JEjn3daKet9DDzjfhqQMfoy6oMeNtKHFTgiE1I76WEDkhs0rocUzMZEMLUl3P010kNCJmC1b5XsGrEhAp-W7Y2VtGpYILrOaQdM8nGhRZzvvlWYUyeiA14QZ320g6xbteFQ", "width": 1700}], "place_id": "ChIJtSCroAz90YURHHvUhR7TrMA", "plus_code": {"compound_code": "9W7J+QR Mexico City", "global_code": "76F29W7J+QR"}, "rating": 4.3, "reference": "ChIJtSCroAz90YURHHvUhR7TrMA", "types": ["gas_station", "point_of_interest", "establishment"], "user_ratings_total": 156}, {"business_status": "OPERATIONAL", "formatted_address": "Anillo Perif. Canal de Garay, Presidentes de M\u00e9xico, Iztapalapa, 09740 Ciudad de M\u00e9xico, CDMX", "geometry": {"location": {"lat": 19.3377894, "lng": -99.06458669999999}, "viewport": {"northeast": {"lat": 19.33913742989272, "lng": -99.06318227010729}, "southwest": {"lat": 19.33643777010728, "lng": -99.06588192989274}}}, "icon": "https://maps.gstatic.com/mapfiles/place_api/icons/v1/png_71/gas_station-71.png", "name": "Servicio Garay gasolinera", "opening_hours": {}, "photos": [{"height": 2448, "html_attributions": ["<a href=\"https://maps.google.com/maps/contrib/109520140013191084098\">A Google User</a>"], "photo_reference": "CmRaAAAAJq09cej5Fj_vh4FGiJPr_ohFROKojSb6DMZjw2NTIgYA7O2KrqYd-FoCdea3le5N_-oiMxrJWRSiUm_x-jkwySqYU7ohSKEdyeEw-Gt45t1ftJzJCdLUjERJjWeH5ph8EhBwsauHss9FqDWnKNb1nDajGhRuEvMNCPfrFOiHBXbfdLq553qrIA", "width": 3264}], "place_id": "ChIJo8XibXkCzoURkAqisq7le7M", "plus_code": {"compound_code": "8WQP+45 Mexico City", "global_code": "76F28WQP+45"}, "rating": 3.3, "reference": "ChIJo8XibXkCzoURkAqisq7le7M", "types": ["gas_station", "point_of_interest", "establishment"], "user_ratings_total": 84}, {"business_status": "OPERATIONAL", "formatted_address": "Marcelino Buend\u00eda No.92, Paseos de Churubusco, Iztapalapa, 09030 Ciudad de M\u00e9xico, CDMX", "geometry": {"location": {"lat": 19.3791578, "lng": -99.0807622}, "viewport": {"northeast": {"lat": 19.38050762989272, "lng": -99.07941237010729}, "southwest": {"lat": 19.37780797010728, "lng": -99.08211202989274}}}, "icon": "https://maps.gstatic.com/mapfiles/place_api/icons/v1/png_71/gas_station-71.png", "name": "Gasolinera Pemex", "place_id": "ChIJA6QXsHv90YURII8nayHgqKQ", "plus_code": {"compound_code": "9WH9+MM Paseos de Churubusco, Mexico City", "global_code": "76F29WH9+MM"}, "rating": 0, "reference": "ChIJA6QXsHv90YURII8nayHgqKQ", "types": ["gas_station", "point_of_interest", "establishment"], "user_ratings_total": 0}, {"business_status": "OPERATIONAL", "formatted_address": "Eje 6 Sur Circuito Frutas y Legumbres No. 955 Col. Barrio, Iztapalapa, San Jos\u00e9, 09000 Ciudad de M\u00e9xico, CDMX", "geometry": {"location": {"lat": 19.366851, "lng": -99.090246}, "viewport": {"northeast": {"lat": 19.36817252989272, "lng": -99.08889722010727}, "southwest": {"lat": 19.36547287010727, "lng": -99.0915968798927}}}, "icon": "https://maps.gstatic.com/mapfiles/place_api/icons/v1/png_71/gas_station-71.png", "name": "Inmobiliaria Aja Gomez, S.A. de C.V.", "opening_hours": {"open_now": true}, "photos": [{"height": 2048, "html_attributions": ["<a href=\"https://maps.google.com/maps/contrib/101687230667796066609\">Inmobiliaria Aja Gomez, S.A. De C.V.</a>"], "photo_reference": "CmRaAAAALwsGRUHvBOwZ9JEucSrx57VPbui5jmYsqV0Ft7LwV7sgWgjI3A-AdXuFMTH6GVILb_dsrhf_f7H2X0BbeVgDHxnkVMMN6ggp_DkI-KqUvB1ujkZTC0aoXhDStrIkrmIjEhAtdzWSS0Sd7nVVrYm0J4UvGhRH6uvYQnd6dh3nJ6xsgWxo_X-ZDg", "width": 1152}], "place_id": "ChIJH42ajvD90YURKbShJYRqUwU", "plus_code": {"compound_code": "9W85+PW Mexico City", "global_code": "76F29W85+PW"}, "rating": 2.7, "reference": "ChIJH42ajvD90YURKbShJYRqUwU", "types": ["gas_station", "point_of_interest", "establishment"], "user_ratings_total": 13}]