[{"business_status": "OPERATIONAL", "geometry": {"location": {"lat": 19.3525949, "lng": -99.09464679999999}, "viewport": {"northeast": {"lat": 19.3539476802915, "lng": -99.09327256970849}, "southwest": {"lat": 19.3512497197085, "lng": -99.09597053029151}}}, "icon": "https://maps.gstatic.com/mapfiles/place_api/icons/v1/png_71/shopping-71.png", "name": "Gris Gray", "place_id": "ChIJER57dcX_0YURXBYeM6xhKbA", "plus_code": {"compound_code": "9W34+24 Mexico City, CDMX, Mexico", "global_code": "76F29W34+24"}, "reference": "ChIJER57dcX_0YURXBYeM6xhKbA", "scope": "GOOGLE", "types": ["electronics_store", "home_goods_store", "point_of_interest", "store", "establishment"], "vicinity": "Es, Convento 57"}, {"business_status": "OPERATIONAL", "geometry": {"location": {"lat": 19.3540633, "lng": -99.0946101}, "viewport": {"northeast": {"lat": 19.3554282302915, "lng": -99.09326906970848}, "southwest": {"lat": 19.3527302697085, "lng": -99.0959670302915}}}, "icon": "https://maps.gstatic.com/mapfiles/place_api/icons/v1/png_71/shopping-71.png", "name": "Cocinas Quantum", "opening_hours": {"open_now": false}, "photos": [{"height": 1546, "html_attributions": ["<a href=\"https://maps.google.com/maps/contrib/113526679310233543312\">Cocinas Quantum</a>"], "photo_reference": "CmRaAAAAjSC1XSLrXMmCLRpg-7xrtle9C18NHgXDgDu1C9AcQ9dzT-zLrlD9Fzbp0_21L5ZBr_53zcV3k-b3MsVKjjm7O2W8mv9TWD875Eq8GbZzptjEQDBx_DB4fFxdY2B2jjHoEhCX_iDgrlQy3uPyADY9rEx5GhSWSuiSkZJnVLzyvRgpOA53YSmETQ", "width": 3264}], "place_id": "ChIJcUxYONr90YURdeB5o1p4FmU", "plus_code": {"compound_code": "9W34+J5 Mexico City, CDMX, Mexico", "global_code": "76F29W34+J5"}, "reference": "ChIJcUxYONr90YURdeB5o1p4FmU", "scope": "GOOGLE", "types": ["furniture_store", "home_goods_store", "point_of_interest", "store", "establishment"], "vicinity": "Capilla del Carmen 31, El Santuario, Ciudad de M\u00e9xico"}, {"business_status": "OPERATIONAL", "geometry": {"location": {"lat": 19.3536787, "lng": -99.0955473}, "viewport": {"northeast": {"lat": 19.3550619802915, "lng": -99.09420361970848}, "southwest": {"lat": 19.3523640197085, "lng": -99.09690158029149}}}, "icon": "https://maps.gstatic.com/mapfiles/place_api/icons/v1/png_71/shopping-71.png", "name": "Cereria Santa Ines", "opening_hours": {"open_now": false}, "photos": [{"height": 1824, "html_attributions": ["<a href=\"https://maps.google.com/maps/contrib/105632804054273087982\">Ganzito Garc\u00eda</a>"], "photo_reference": "CmRaAAAA3gZm5jsPhREA-o_pKRLcfZU7W0j51jfEYfPzkbVsjlU3X9g2jem61a2hF_sxN1iMiS8dwyzgwx6RvOA3KE3zJBTVDgQ3-PcI3fLXrdHpW80KWTE-2FQAAtDPNXHuHdCxEhATjNBRxJlvTvvhEqRi9YAbGhRUwpGIQESCF9P9LbDrVEqy_bqBmQ", "width": 3264}], "place_id": "ChIJ96axp-T90YURGwPGl7-syr0", "plus_code": {"compound_code": "9W33+FQ Mexico City, CDMX, Mexico", "global_code": "76F29W33+FQ"}, "rating": 5, "reference": "ChIJ96axp-T90YURGwPGl7-syr0", "scope": "GOOGLE", "types": ["home_goods_store", "point_of_interest", "store", "establishment"], "user_ratings_total": 1, "vicinity": "09829, Tlaxcanes 154, Ampliaci\u00f3n el Santuario, Ciudad de M\u00e9xico"}, {"business_status": "OPERATIONAL", "geometry": {"location": {"lat": 19.3519763, "lng": -99.0895156}, "viewport": {"northeast": {"lat": 19.3533323802915, "lng": -99.08816631970849}, "southwest": {"lat": 19.3506344197085, "lng": -99.0908642802915}}}, "icon": "https://maps.gstatic.com/mapfiles/place_api/icons/v1/png_71/shopping-71.png", "name": "Materias Primas \"D'miruli\"", "place_id": "ChIJrfMYEvD90YUR6KZyM4VNsQQ", "plus_code": {"compound_code": "9W26+Q5 Mexico City, CDMX, Mexico", "global_code": "76F29W26+Q5"}, "reference": "ChIJrfMYEvD90YUR6KZyM4VNsQQ", "scope": "GOOGLE", "types": ["home_goods_store", "point_of_interest", "store", "establishment"], "vicinity": "Lucero, Santa Mar\u00eda del Monte, Ciudad de M\u00e9xico"}, {"business_status": "OPERATIONAL", "geometry": {"location": {"lat": 19.3535996, "lng": -99.0963972}, "viewport": {"northeast": {"lat": 19.3549218802915, "lng": -99.0950426197085}, "southwest": {"lat": 19.3522239197085, "lng": -99.0977405802915}}}, "icon": "https://maps.gstatic.com/mapfiles/place_api/icons/v1/png_71/shopping-71.png", "name": "Dulces Xime", "opening_hours": {"open_now": false}, "place_id": "ChIJO6B4ReP90YURsrqFW361yF8", "plus_code": {"compound_code": "9W33+CC Mexico City, CDMX, Mexico", "global_code": "76F29W33+CC"}, "rating": 4, "reference": "ChIJO6B4ReP90YURsrqFW361yF8", "scope": "GOOGLE", "types": ["home_goods_store", "point_of_interest", "store", "establishment"], "user_ratings_total": 1, "vicinity": "Tlaxcanes 147, Ampliaci\u00f3n el Santuario, Ciudad de M\u00e9xico"}, {"business_status": "OPERATIONAL", "geometry": {"location": {"lat": 19.3521705, "lng": -99.0979304}, "viewport": {"northeast": {"lat": 19.3534917802915, "lng": -99.09662011970849}, "southwest": {"lat": 19.3507938197085, "lng": -99.0993180802915}}}, "icon": "https://maps.gstatic.com/mapfiles/place_api/icons/v1/png_71/shopping-71.png", "name": "FOTOESTUDIO GOHESA", "place_id": "ChIJJVwk0Pz90YURsdEiU3pRyds", "plus_code": {"compound_code": "9W22+VR Mexico City, CDMX, Mexico", "global_code": "76F29W22+VR"}, "reference": "ChIJJVwk0Pz90YURsdEiU3pRyds", "scope": "GOOGLE", "types": ["electronics_store", "home_goods_store", "point_of_interest", "store", "establishment"], "vicinity": "Avenida Estrella 90, Ricardo Flores Mag\u00f3n, Ciudad de M\u00e9xico"}]