[{"business_status": "OPERATIONAL", "formatted_address": "Cuauht\u00e9moc 6, San Lucas, Iztapalapa, 09000 Ciudad de M\u00e9xico, CDMX", "geometry": {"location": {"lat": 19.3587604, "lng": -99.0911058}, "viewport": {"northeast": {"lat": 19.36009872989272, "lng": -99.08972242010728}, "southwest": {"lat": 19.35739907010728, "lng": -99.09242207989273}}}, "icon": "https://maps.gstatic.com/mapfiles/place_api/icons/v1/png_71/generic_business-71.png", "name": "Qu\u00e0litas", "opening_hours": {"open_now": false}, "photos": [{"height": 3024, "html_attributions": ["<a href=\"https://maps.google.com/maps/contrib/113460253056086061609\">gaby venegas</a>"], "photo_reference": "CmRaAAAAyf9h-9WvuOEb02kfsBCRsPZjyq9-_BOD4e-RDM_dpoveULC1DFhg4iAeqkt_zwGDkd17SNbA9MiTvU9Ii6dXH01yL-ESMYOk9kB8VVHQbIiSTb4EDb19Yadj5eJV-TVpEhBlrIboPNzNhvKczVoI7jqcGhQIr6VbijlAVyZjQNcg5CrEfVRCBw", "width": 4032}], "place_id": "ChIJg2PE4uX90YURgcKPBqzcutU", "plus_code": {"compound_code": "9W55+GH Mexico City", "global_code": "76F29W55+GH"}, "rating": 3.7, "reference": "ChIJg2PE4uX90YURgcKPBqzcutU", "types": ["insurance_agency", "point_of_interest", "establishment"], "user_ratings_total": 61}, {"business_status": "OPERATIONAL", "formatted_address": "Av. Arneses 15, San Antonio Culhuacan, Iztapalapa, 09800 Ciudad de M\u00e9xico, CDMX", "geometry": {"location": {"lat": 19.3407837, "lng": -99.112983}, "viewport": {"northeast": {"lat": 19.34212607989272, "lng": -99.11158057010728}, "southwest": {"lat": 19.33942642010728, "lng": -99.11428022989273}}}, "icon": "https://maps.gstatic.com/mapfiles/place_api/icons/v1/png_71/generic_business-71.png", "name": "SEGURO FERN\u00c1NDEZ", "opening_hours": {"open_now": false}, "place_id": "ChIJn61PUB3-0YUR3ECOsh21i8g", "plus_code": {"compound_code": "8VRP+8R Mexico City", "global_code": "76F28VRP+8R"}, "rating": 3, "reference": "ChIJn61PUB3-0YUR3ECOsh21i8g", "types": ["insurance_agency", "point_of_interest", "establishment"], "user_ratings_total": 2}, {"business_status": "OPERATIONAL", "formatted_address": "Av. Arneses 293, Valle del Sur, Iztapalapa, 09819 Ciudad de M\u00e9xico, CDMX", "geometry": {"location": {"lat": 19.347676, "lng": -99.111633}, "viewport": {"northeast": {"lat": 19.34900907989272, "lng": -99.11020982010727}, "southwest": {"lat": 19.34630942010728, "lng": -99.11290947989272}}}, "icon": "https://maps.gstatic.com/mapfiles/place_api/icons/v1/png_71/generic_business-71.png", "name": "Seguros Arneses", "opening_hours": {"open_now": false}, "photos": [{"height": 3024, "html_attributions": ["<a href=\"https://maps.google.com/maps/contrib/109532370510588188507\">A Google User</a>"], "photo_reference": "CmRaAAAACitvKjcUUR6zESPZ1yOaZ_SakSuWMCkbyM0XhBAn8jndxlImQ_y8LMi-kl1jhXrWzyFaI_CifyEyIIZwhPJs8LaSGciW8H42Mwn9DPkJk1XOzS5btFGr6PeVOywWBmiaEhDl6485qFpnKnCW65CUi1s4GhT5wdp9u4SdOP_Pby6ofZdPNkmPMA", "width": 4032}], "place_id": "ChIJs3kECg7_0YURAysYVVUOOpQ", "plus_code": {"compound_code": "8VXQ+38 Mexico City", "global_code": "76F28VXQ+38"}, "rating": 0, "reference": "ChIJs3kECg7_0YURAysYVVUOOpQ", "types": ["insurance_agency", "point_of_interest", "establishment"], "user_ratings_total": 0}, {"business_status": "OPERATIONAL", "formatted_address": "Calle Trojes 11-47, Minerva, Iztapalapa, 09810 Ciudad de M\u00e9xico, CDMX", "geometry": {"location": {"lat": 19.356049, "lng": -99.1096348}, "viewport": {"northeast": {"lat": 19.35678832989272, "lng": -99.10837472010728}, "southwest": {"lat": 19.35408867010728, "lng": -99.11107437989271}}}, "icon": "https://maps.gstatic.com/mapfiles/place_api/icons/v1/png_71/generic_business-71.png", "name": "Todo en Seguros", "place_id": "ChIJq6quqw_-0YURiW16SGjwm0o", "plus_code": {"compound_code": "9V4R+C4 Mexico City", "global_code": "76F29V4R+C4"}, "rating": 0, "reference": "ChIJq6quqw_-0YURiW16SGjwm0o", "types": ["insurance_agency", "point_of_interest", "establishment"], "user_ratings_total": 0}, {"business_status": "OPERATIONAL", "formatted_address": "Jorge Enciso 1658, H\u00e9roes de Churubusco, Iztapalapa, 09090 Ciudad de M\u00e9xico, CDMX", "geometry": {"location": {"lat": 19.3593497, "lng": -99.1154834}, "viewport": {"northeast": {"lat": 19.36066272989272, "lng": -99.11413837010727}, "southwest": {"lat": 19.35796307010727, "lng": -99.11683802989272}}}, "icon": "https://maps.gstatic.com/mapfiles/place_api/icons/v1/png_71/generic_business-71.png", "name": "Seguros", "place_id": "ChIJu1MctxP-0YURgJqqtURcsag", "plus_code": {"compound_code": "9V5M+PR Mexico City", "global_code": "76F29V5M+PR"}, "rating": 0, "reference": "ChIJu1MctxP-0YURgJqqtURcsag", "types": ["insurance_agency", "point_of_interest", "establishment"], "user_ratings_total": 0}, {"business_status": "OPERATIONAL", "formatted_address": "Av. Arneses 15, San Antonio Culhuacan, Iztapalapa, 09810 Ciudad de M\u00e9xico, CDMX", "geometry": {"location": {"lat": 19.3552892, "lng": -99.11025160000001}, "viewport": {"northeast": {"lat": 19.35663832989272, "lng": -99.10889322010728}, "southwest": {"lat": 19.35393867010728, "lng": -99.11159287989273}}}, "icon": "https://maps.gstatic.com/mapfiles/place_api/icons/v1/png_71/generic_business-71.png", "name": "Seguros Banorte Generali", "place_id": "ChIJVeFtUg7-0YURQUFvuD2t7Z4", "plus_code": {"compound_code": "9V4Q+4V Mexico City", "global_code": "76F29V4Q+4V"}, "rating": 4, "reference": "ChIJVeFtUg7-0YURQUFvuD2t7Z4", "types": ["insurance_agency", "point_of_interest", "establishment"], "user_ratings_total": 4}, {"business_status": "OPERATIONAL", "formatted_address": "Sur 21 96, Leyes de Reforma 1ra Secc, Iztapalapa, 09310 Ciudad de M\u00e9xico, CDMX", "geometry": {"location": {"lat": 19.359249, "lng": -99.0713415}, "viewport": {"northeast": {"lat": 19.36060242989272, "lng": -99.07001317010729}, "southwest": {"lat": 19.35790277010728, "lng": -99.07271282989272}}}, "icon": "https://maps.gstatic.com/mapfiles/place_api/icons/v1/png_71/generic_business-71.png", "name": "Roque Alonso P y A Asociados Agente de Seguros y Fianzas S.A. de C.V.", "place_id": "ChIJF2RBL5H90YURByPhD3g3PkQ", "plus_code": {"compound_code": "9W5H+MF Mexico City", "global_code": "76F29W5H+MF"}, "rating": 0, "reference": "ChIJF2RBL5H90YURByPhD3g3PkQ", "types": ["insurance_agency", "point_of_interest", "establishment"], "user_ratings_total": 0}, {"business_status": "OPERATIONAL", "formatted_address": "Sur 101-B NO. 222, H\u00e9roes de Churubusco, Iztapalapa, 09060 Ciudad de M\u00e9xico, CDMX", "geometry": {"location": {"lat": 19.3581691, "lng": -99.1210629}, "viewport": {"northeast": {"lat": 19.35954257989272, "lng": -99.11974352010729}, "southwest": {"lat": 19.35684292010728, "lng": -99.12244317989274}}}, "icon": "https://maps.gstatic.com/mapfiles/place_api/icons/v1/png_71/generic_business-71.png", "name": "STAR, AGENTE DE SEGUROS Y DE FIANZAS, S.A. DE C.V.", "place_id": "ChIJrRQAzhX-0YURGyc1BI5YRvg", "plus_code": {"compound_code": "9V5H+7H Mexico City", "global_code": "76F29V5H+7H"}, "rating": 0, "reference": "ChIJrRQAzhX-0YURGyc1BI5YRvg", "types": ["insurance_agency", "point_of_interest", "establishment"], "user_ratings_total": 0}, {"business_status": "OPERATIONAL", "formatted_address": "Avenida Trabajadoras Sociales, Eje 6 Sur 89, El Sif\u00f3n, Iztapalapa, 09400 Ciudad de M\u00e9xico, CDMX", "geometry": {"location": {"lat": 19.3734616, "lng": -99.11135550000002}, "viewport": {"northeast": {"lat": 19.37488632989272, "lng": -99.11000292010728}, "southwest": {"lat": 19.37218667010728, "lng": -99.11270257989273}}}, "icon": "https://maps.gstatic.com/mapfiles/place_api/icons/v1/png_71/generic_business-71.png", "name": "Seguros Protege", "opening_hours": {"open_now": false}, "place_id": "ChIJv3caOnD-0YURNPBa7MeWc7c", "plus_code": {"compound_code": "9VFQ+9F Mexico City", "global_code": "76F29VFQ+9F"}, "rating": 0, "reference": "ChIJv3caOnD-0YURNPBa7MeWc7c", "types": ["insurance_agency", "point_of_interest", "establishment"], "user_ratings_total": 0}, {"business_status": "OPERATIONAL", "formatted_address": "Manuela Medina 10 B, Coapa, Carmen Serd\u00e1n, Coyoac\u00e1n, 04489 Ciudad de M\u00e9xico, CDMX", "geometry": {"location": {"lat": 19.3216013, "lng": -99.10577339999999}, "viewport": {"northeast": {"lat": 19.32292277989272, "lng": -99.10428917010726}, "southwest": {"lat": 19.32022312010728, "lng": -99.10698882989271}}}, "icon": "https://maps.gstatic.com/mapfiles/place_api/icons/v1/png_71/generic_business-71.png", "name": "SEGUROS", "opening_hours": {"open_now": false}, "place_id": "ChIJ8YC3FfQBzoUR8URbV10HBUE", "plus_code": {"compound_code": "8VCV+JM Mexico City", "global_code": "76F28VCV+JM"}, "rating": 0, "reference": "ChIJ8YC3FfQBzoUR8URbV10HBUE", "types": ["insurance_agency", "point_of_interest", "establishment"], "user_ratings_total": 0}, {"business_status": "OPERATIONAL", "formatted_address": "Calle Sur 103 649, Sector Popular, Popular, Iztapalapa, 09060 Ciudad de M\u00e9xico, CDMX", "geometry": {"location": {"lat": 19.3674636, "lng": -99.1187461}, "viewport": {"northeast": {"lat": 19.36879652989272, "lng": -99.11731667010726}, "southwest": {"lat": 19.36609687010728, "lng": -99.1200163298927}}}, "icon": "https://maps.gstatic.com/mapfiles/place_api/icons/v1/png_71/generic_business-71.png", "name": "AVC Agente de Seguros S.A. de C.V.", "place_id": "ChIJd6UQjmv-0YURSje1bhFR5WU", "plus_code": {"compound_code": "9V8J+XG Mexico City", "global_code": "76F29V8J+XG"}, "rating": 5, "reference": "ChIJd6UQjmv-0YURSje1bhFR5WU", "types": ["insurance_agency", "point_of_interest", "establishment"], "user_ratings_total": 1}, {"business_status": "OPERATIONAL", "formatted_address": "Av. Javier Rojo G\u00f3mez 398, Agr\u00edcola Oriental, Iztacalco, 08500 Ciudad de M\u00e9xico, CDMX", "geometry": {"location": {"lat": 19.3918076, "lng": -99.0739273}, "viewport": {"northeast": {"lat": 19.39315447989272, "lng": -99.07256312010729}, "southwest": {"lat": 19.39045482010728, "lng": -99.07526277989274}}}, "icon": "https://maps.gstatic.com/mapfiles/place_api/icons/v1/png_71/generic_business-71.png", "name": "Qu\u00e1litas Compa\u00f1\u00eda de Seguros, sucursal Iztacalco CDMX (ventas)", "opening_hours": {"open_now": false}, "photos": [{"height": 1150, "html_attributions": ["<a href=\"https://maps.google.com/maps/contrib/113886710007391212561\">A Google User</a>"], "photo_reference": "CmRaAAAAh-rCrnNJqqz-CCwWbhVN5Rqh-r-Mljix6Cej4ayuZlt9wlrVJA7WofRHshK5ijtVhVYyO19VQBxAtPfhF7KAiAZ9XEBi66vZRyfhIR_Vn3rgt9GHDd9KDuL8VcHfdAbFEhBWBj0xUyhcVbt2qw5iUEX3GhRC83EicuNP-ZoIpRiebPBup30mNg", "width": 2048}], "place_id": "ChIJKSEkfEv80YURzezl7NXMXcM", "plus_code": {"compound_code": "9WRG+PC Mexico City", "global_code": "76F29WRG+PC"}, "rating": 3.2, "reference": "ChIJKSEkfEv80YURzezl7NXMXcM", "types": ["insurance_agency", "point_of_interest", "establishment"], "user_ratings_total": 20}, {"business_status": "OPERATIONAL", "formatted_address": "Av. Tlahuac, Culhuacan, Iztapalapa, 09790 Ciudad de M\u00e9xico, CDMX", "geometry": {"location": {"lat": 19.3421479, "lng": -99.1080199}, "viewport": {"northeast": {"lat": 19.34350372989272, "lng": -99.10669862010728}, "southwest": {"lat": 19.34080407010727, "lng": -99.10939827989272}}}, "icon": "https://maps.gstatic.com/mapfiles/place_api/icons/v1/png_71/generic_business-71.png", "name": "Elevacristales Seguros Electricos", "place_id": "ChIJlWnqPgL-0YURUdnD8ugOfUY", "plus_code": {"compound_code": "8VRR+VQ Mexico City", "global_code": "76F28VRR+VQ"}, "rating": 0, "reference": "ChIJlWnqPgL-0YURUdnD8ugOfUY", "types": ["insurance_agency", "point_of_interest", "establishment"], "user_ratings_total": 0}, {"business_status": "OPERATIONAL", "formatted_address": "Corona Boreal 94, Prado Churubusco, Coyoac\u00e1n, 04200 Ciudad de M\u00e9xico, CDMX", "geometry": {"location": {"lat": 19.3551483, "lng": -99.1313354}, "viewport": {"northeast": {"lat": 19.35650012989273, "lng": -99.13006952010727}, "southwest": {"lat": 19.35380047010728, "lng": -99.13276917989272}}}, "icon": "https://maps.gstatic.com/mapfiles/place_api/icons/v1/png_71/generic_business-71.png", "name": "Bc Seguros y Fianzas", "place_id": "ChIJz4wvtDv-0YUR-HkmbSkJ_gA", "plus_code": {"compound_code": "9V49+3F Mexico City", "global_code": "76F29V49+3F"}, "rating": 0, "reference": "ChIJz4wvtDv-0YUR-HkmbSkJ_gA", "types": ["insurance_agency", "point_of_interest", "establishment"], "user_ratings_total": 0}, {"business_status": "OPERATIONAL", "formatted_address": "Av. Reforma 101, Lomas de San Lorenzo, Iztapalapa, 09780 Ciudad de M\u00e9xico, CDMX", "geometry": {"location": {"lat": 19.3210426, "lng": -99.06889059999999}, "viewport": {"northeast": {"lat": 19.32242677989272, "lng": -99.06752607010728}, "southwest": {"lat": 19.31972712010728, "lng": -99.07022572989273}}}, "icon": "https://maps.gstatic.com/mapfiles/place_api/icons/v1/png_71/generic_business-71.png", "name": "SEGUROS Y FIANZAS", "opening_hours": {"open_now": false}, "place_id": "ChIJRy1QZWgCzoURGeCnMW93Jng", "plus_code": {"compound_code": "8WCJ+CC Mexico City", "global_code": "76F28WCJ+CC"}, "rating": 0, "reference": "ChIJRy1QZWgCzoURGeCnMW93Jng", "types": ["insurance_agency", "point_of_interest", "establishment"], "user_ratings_total": 0}, {"business_status": "OPERATIONAL", "formatted_address": "Arqu\u00edmedes 27, Chapultepec Morales, Apatlaco, Iztapalapa, 11580 Ciudad de M\u00e9xico, CDMX", "geometry": {"location": {"lat": 19.3798323, "lng": -99.1113889}, "viewport": {"northeast": {"lat": 19.38114832989272, "lng": -99.11004722010729}, "southwest": {"lat": 19.37844867010728, "lng": -99.11274687989273}}}, "icon": "https://maps.gstatic.com/mapfiles/place_api/icons/v1/png_71/generic_business-71.png", "name": "Mapfre Seguros", "place_id": "ChIJS6XWOHv-0YUR2pUeQcWm4IQ", "rating": 1, "reference": "ChIJS6XWOHv-0YUR2pUeQcWm4IQ", "types": ["insurance_agency", "health", "point_of_interest", "establishment"], "user_ratings_total": 2}, {"business_status": "OPERATIONAL", "formatted_address": "Privada Ermita Iztapalapa 69, Amp Ricardo Flores Mag\u00f3n, Iztapalapa, 09820 Ciudad de M\u00e9xico, CDMX", "geometry": {"location": {"lat": 19.3517828, "lng": -99.1008379}, "viewport": {"northeast": {"lat": 19.35314452989272, "lng": -99.09951482010727}, "southwest": {"lat": 19.35044487010728, "lng": -99.10221447989272}}}, "icon": "https://maps.gstatic.com/mapfiles/place_api/icons/v1/png_71/generic_business-71.png", "name": "Tiendita de Seguros", "opening_hours": {"open_now": false}, "photos": [{"height": 702, "html_attributions": ["<a href=\"https://maps.google.com/maps/contrib/101893987424745607343\">Tiendita de Seguros</a>"], "photo_reference": "CmRaAAAA0uWtVn-LJKeKVmXIzoYx27z-gpABHrt5st6xp3FW8kMF8PPP8rwEELSs4US_v3gLGJ_QsmpsFlacSKTLjYGYMi8yzQyRA8piYHkXHDdeGaklEoocI0qN7oI-DrWnC7bYEhCGH9q4jTp10ntPTfSYY9hrGhQOPOPvPhtra7OJnToZzXluVQ5WVA", "width": 732}], "place_id": "ChIJaRsxUv390YURKBkGh7O3j60", "plus_code": {"compound_code": "9V2X+PM Mexico City", "global_code": "76F29V2X+PM"}, "rating": 3.7, "reference": "ChIJaRsxUv390YURKBkGh7O3j60", "types": ["insurance_agency", "point_of_interest", "establishment"], "user_ratings_total": 3}, {"business_status": "OPERATIONAL", "formatted_address": "Venado 50, Los Olivos, Iztapalapa, 09790 Ciudad de M\u00e9xico, CDMX", "geometry": {"location": {"lat": 19.3011957, "lng": -99.05750549999999}, "viewport": {"northeast": {"lat": 19.30255992989273, "lng": -99.05617442010728}, "southwest": {"lat": 19.29986027010728, "lng": -99.05887407989273}}}, "icon": "https://maps.gstatic.com/mapfiles/place_api/icons/v1/png_71/generic_business-71.png", "name": "Ana Compa\u00f1\u00eda de Seguros S.A. de C.V. Corral\u00f3n", "photos": [{"height": 3264, "html_attributions": ["<a href=\"https://maps.google.com/maps/contrib/110123578691313789295\">Pedro Garcia</a>"], "photo_reference": "CmRaAAAASL0LLkr8UYxeiqKmTB5XlgQbJXwcxgxXpNQ_9Qj-EkNvv39Sj3uewTIZcDiZCoPwGHtwq2VKcXlIhRPUUTChbd6YIWjr3dsZEKMDX9s94F1AI3KWMriRxQUqSXn8vu06EhA8hEGj-srvDmmT_AerUWdnGhRLQ2Rfn5Gd7dMZ9lWNV1Lu7j1a7Q", "width": 2448}], "place_id": "ChIJhe5XqvgCzoURPxAd7ZtssUI", "plus_code": {"compound_code": "8W2R+FX Mexico City", "global_code": "76F28W2R+FX"}, "rating": 4, "reference": "ChIJhe5XqvgCzoURPxAd7ZtssUI", "types": ["insurance_agency", "point_of_interest", "establishment"], "user_ratings_total": 23}, {"business_status": "OPERATIONAL", "formatted_address": "643, Del Valle, Escuadr\u00f3n 201, Benito Ju\u00e1rez, 03100 Ciudad de M\u00e9xico, CDMX", "geometry": {"location": {"lat": 19.3663573, "lng": -99.1100268}, "viewport": {"northeast": {"lat": 19.36772242989272, "lng": -99.10874287010728}, "southwest": {"lat": 19.36502277010728, "lng": -99.11144252989271}}}, "icon": "https://maps.gstatic.com/mapfiles/place_api/icons/v1/png_71/generic_business-71.png", "name": "AXA", "place_id": "ChIJpXI7GpH_0YURQ7NlqsPxZR0", "plus_code": {"compound_code": "9V8Q+GX Mexico City", "global_code": "76F29V8Q+GX"}, "rating": 2.6, "reference": "ChIJpXI7GpH_0YURQ7NlqsPxZR0", "types": ["insurance_agency", "point_of_interest", "establishment"], "user_ratings_total": 5}, {"business_status": "OPERATIONAL", "formatted_address": "Calle Trojes, Minerva, Iztapalapa, 09810 distrito Federal, CDMX", "geometry": {"location": {"lat": 19.3547541, "lng": -99.11000179999999}, "viewport": {"northeast": {"lat": 19.35607422989272, "lng": -99.10853167010727}, "southwest": {"lat": 19.35337457010727, "lng": -99.11123132989272}}}, "icon": "https://maps.gstatic.com/mapfiles/place_api/icons/v1/png_71/generic_business-71.png", "name": "Amezcua y Asociado", "place_id": "ChIJjUu9nA_-0YURq0YSCyNXbQw", "plus_code": {"compound_code": "9V3Q+WX Minerva, Mexico City", "global_code": "76F29V3Q+WX"}, "rating": 0, "reference": "ChIJjUu9nA_-0YURq0YSCyNXbQw", "types": ["insurance_agency", "point_of_interest", "establishment"], "user_ratings_total": 0}]