[{"business_status": "OPERATIONAL", "formatted_address": "Entre Pino Y Berenjena, Mafafa sn, El Manto, 09830 Iztapalapa, CDMX", "geometry": {"location": {"lat": 19.3508395, "lng": -99.0843245}, "viewport": {"northeast": {"lat": 19.35218097989272, "lng": -99.08294787010729}, "southwest": {"lat": 19.34948132010728, "lng": -99.08564752989274}}}, "icon": "https://maps.gstatic.com/mapfiles/place_api/icons/v1/png_71/generic_business-71.png", "name": "CERRAJERIA Rivera", "opening_hours": {"open_now": true}, "photos": [{"height": 4160, "html_attributions": ["<a href=\"https://maps.google.com/maps/contrib/112808053700542716987\">Sergio Barrientos Rodr\u00edguez</a>"], "photo_reference": "CmRaAAAAxU85mYfWbb0AWZX4CFa9Cf0ZsYH9zCS4PpsY1OzZ7-cjR-7h7xBU0yKdCH13ypwER3lLu9cvRQAVT-Vz4dm9bOV1pS6M6ue8PlC5bxJKxrzLwV-iSxkiNm_zxQwJ-XriEhAUuRk1bbCrCjCd9g8QNtHWGhS08KqN-Sh9NSGJvtXUHtLm6EKSuw", "width": 3120}], "place_id": "ChIJ0ZydLvL90YURgkmfq_jK6LI", "plus_code": {"compound_code": "9W28+87 Mexico City", "global_code": "76F29W28+87"}, "rating": 4.5, "reference": "ChIJ0ZydLvL90YURgkmfq_jK6LI", "types": ["locksmith", "point_of_interest", "establishment"], "user_ratings_total": 2}, {"business_status": "OPERATIONAL", "formatted_address": "Av. Miguel Hidalgo 285, San Miguel, Iztapalapa, 09360 Ciudad de M\u00e9xico, CDMX", "geometry": {"location": {"lat": 19.3564865, "lng": -99.0819065}, "viewport": {"northeast": {"lat": 19.35787007989272, "lng": -99.08054447010728}, "southwest": {"lat": 19.35517042010728, "lng": -99.08324412989273}}}, "icon": "https://maps.gstatic.com/mapfiles/place_api/icons/v1/png_71/generic_business-71.png", "name": "Cerrajer\u00eda Profesional", "place_id": "ChIJ2b-S_-z90YUR2dTDcGwf-aA", "plus_code": {"compound_code": "9W49+H6 Mexico City", "global_code": "76F29W49+H6"}, "rating": 1.5, "reference": "ChIJ2b-S_-z90YUR2dTDcGwf-aA", "types": ["locksmith", "point_of_interest", "establishment"], "user_ratings_total": 8}, {"business_status": "OPERATIONAL", "formatted_address": "Mercado Valle de Luces Local 54, 2da Secc Valle de Luces, 09800 Iztapalapa, CDMX", "geometry": {"location": {"lat": 19.34036, "lng": -99.100265}, "viewport": {"northeast": {"lat": 19.34170367989272, "lng": -99.09889217010728}, "southwest": {"lat": 19.33900402010728, "lng": -99.10159182989271}}}, "icon": "https://maps.gstatic.com/mapfiles/place_api/icons/v1/png_71/generic_business-71.png", "name": "Cerrajeria Automotriz", "opening_hours": {"open_now": true}, "photos": [{"height": 1280, "html_attributions": ["<a href=\"https://maps.google.com/maps/contrib/105744889542622454049\">Ana Esmiazul</a>"], "photo_reference": "CmRaAAAAFvEJ3_s9YJsq96Fs_MkqoaJA_yvPxFNPqA65h6JUXxOjq2ZmAnGy-YpzmzFf-3IKW5ht2eZEloaYNrzDfYPFiiErjz7BQRN0cIS9NpEpInSnlcFOMjUTSrw6EZnkTXUuEhBuDY2l5eyIGhgftSIZ_imYGhTjqAxPOzMydR2RIpXEbBNdz3eq5w", "width": 720}], "place_id": "ChIJ9b4QDAACzoURNsVL0YPqn2w", "plus_code": {"compound_code": "8VRX+4V Mexico City", "global_code": "76F28VRX+4V"}, "rating": 4, "reference": "ChIJ9b4QDAACzoURNsVL0YPqn2w", "types": ["locksmith", "point_of_interest", "establishment"], "user_ratings_total": 7}, {"business_status": "OPERATIONAL", "formatted_address": "Ayuntamiento S/N, San Lucas, Iztapalapa, 09000 Ciudad de M\u00e9xico, CDMX", "geometry": {"location": {"lat": 19.3592692, "lng": -99.09166409999999}, "viewport": {"northeast": {"lat": 19.36063142989272, "lng": -99.09036232010729}, "southwest": {"lat": 19.35793177010728, "lng": -99.09306197989272}}}, "icon": "https://maps.gstatic.com/mapfiles/place_api/icons/v1/png_71/generic_business-71.png", "name": "Cerrajer\u00edas Am\u00e9rica", "place_id": "ChIJzQp7c-b90YURodM9giBz7vE", "plus_code": {"compound_code": "9W55+P8 San Lucas, Mexico City", "global_code": "76F29W55+P8"}, "rating": 0, "reference": "ChIJzQp7c-b90YURodM9giBz7vE", "types": ["locksmith", "point_of_interest", "establishment"], "user_ratings_total": 0}, {"business_status": "OPERATIONAL", "formatted_address": "Primer Callej\u00f3n de Gral. Anaya 48, Sta B\u00e1rbara, Iztapalapa, 09000 Ciudad de M\u00e9xico, CDMX", "geometry": {"location": {"lat": 19.3575834, "lng": -99.1037173}, "viewport": {"northeast": {"lat": 19.35895402989272, "lng": -99.10236117010727}, "southwest": {"lat": 19.35625437010728, "lng": -99.10506082989272}}}, "icon": "https://maps.gstatic.com/mapfiles/place_api/icons/v1/png_71/generic_business-71.png", "name": "Cerrajeria \"Suarez\"", "place_id": "ChIJIaawhAn-0YURadG7IEETzIw", "plus_code": {"compound_code": "9V5W+2G Mexico City", "global_code": "76F29V5W+2G"}, "rating": 0, "reference": "ChIJIaawhAn-0YURadG7IEETzIw", "types": ["locksmith", "point_of_interest", "establishment"], "user_ratings_total": 0}, {"business_status": "OPERATIONAL", "formatted_address": "Av. Luis Hidalgo Monroy 289, San Miguel, Iztapalapa, 09360 Ciudad de M\u00e9xico, CDMX", "geometry": {"location": {"lat": 19.3564877, "lng": -99.0818745}, "viewport": {"northeast": {"lat": 19.35786432989272, "lng": -99.08051342010728}, "southwest": {"lat": 19.35516467010727, "lng": -99.08321307989273}}}, "icon": "https://maps.gstatic.com/mapfiles/place_api/icons/v1/png_71/generic_business-71.png", "name": "Cerrajeria Narvaez", "place_id": "ChIJbSvF_-z90YURjoa6S_SRvX0", "plus_code": {"compound_code": "9W49+H7 Mexico City", "global_code": "76F29W49+H7"}, "rating": 0, "reference": "ChIJbSvF_-z90YURjoa6S_SRvX0", "types": ["locksmith", "point_of_interest", "establishment"], "user_ratings_total": 0}, {"business_status": "OPERATIONAL", "formatted_address": "Av. Tlahuac 3570, Culhuacan, Iztapalapa, 09800 Ciudad de M\u00e9xico, CDMX", "geometry": {"location": {"lat": 19.3389943, "lng": -99.10874659999999}, "viewport": {"northeast": {"lat": 19.34034547989272, "lng": -99.10743517010728}, "southwest": {"lat": 19.33764582010728, "lng": -99.11013482989271}}}, "icon": "https://maps.gstatic.com/mapfiles/place_api/icons/v1/png_71/generic_business-71.png", "name": "llaves culhuacan cerrajeria", "opening_hours": {"open_now": false}, "place_id": "ChIJA-cwlv0BzoURMroPWwttmdU", "plus_code": {"compound_code": "8VQR+HG Mexico City", "global_code": "76F28VQR+HG"}, "rating": 5, "reference": "ChIJA-cwlv0BzoURMroPWwttmdU", "types": ["locksmith", "point_of_interest", "establishment"], "user_ratings_total": 9}, {"business_status": "OPERATIONAL", "formatted_address": "Av. Agust\u00edn Ya\u00f1ez 552, Sector Popular, Popular, Iztapalapa, 09060 Ciudad de M\u00e9xico, CDMX", "geometry": {"location": {"lat": 19.3651056, "lng": -99.1140223}, "viewport": {"northeast": {"lat": 19.36650757989272, "lng": -99.11266647010729}, "southwest": {"lat": 19.36380792010728, "lng": -99.11536612989272}}}, "icon": "https://maps.gstatic.com/mapfiles/place_api/icons/v1/png_71/generic_business-71.png", "name": "Cerrajeros oportunos.2", "opening_hours": {"open_now": false}, "photos": [{"height": 4032, "html_attributions": ["<a href=\"https://maps.google.com/maps/contrib/101357065804203029027\">A Google User</a>"], "photo_reference": "CmRaAAAAoFSWAn2l80yvdre5drGMwxxEzXDl4pBq3m-nNZjFXcXW7pm5iuXoSL2pQHjrsNqsmJVxo9nczIT5Y6KWCZTnMedk6IVnFzT78Lh8XYRgrTKG1MV511rHxygtJ2or6X_hEhCwRw93Y2nuYAIO3Vf0fEebGhSNXtFl1kTwQ5fnTJ5bmu2ShhyS3g", "width": 3024}], "place_id": "ChIJa7L7677_0YURJPkHkZhxHMk", "plus_code": {"compound_code": "9V8P+29 Mexico City", "global_code": "76F29V8P+29"}, "rating": 3.7, "reference": "ChIJa7L7677_0YURJPkHkZhxHMk", "types": ["locksmith", "point_of_interest", "establishment"], "user_ratings_total": 6}, {"business_status": "OPERATIONAL", "formatted_address": "Av. Luis Hidalgo Monroy, San Miguel, 2da Amp San Miguel, Iztapalapa, 09360 Ciudad de M\u00e9xico, CDMX", "geometry": {"location": {"lat": 19.355911, "lng": -99.079914}, "viewport": {"northeast": {"lat": 19.35723937989272, "lng": -99.07857202010729}, "southwest": {"lat": 19.35453972010728, "lng": -99.08127167989272}}}, "icon": "https://maps.gstatic.com/mapfiles/place_api/icons/v1/png_71/generic_business-71.png", "name": "Cerrajer\u00eda vadak", "place_id": "ChIJr2WKL-390YURLcT2_Bj0xRA", "plus_code": {"compound_code": "9W4C+92 Mexico City", "global_code": "76F29W4C+92"}, "rating": 0, "reference": "ChIJr2WKL-390YURLcT2_Bj0xRA", "types": ["locksmith", "point_of_interest", "establishment"], "user_ratings_total": 0}, {"business_status": "OPERATIONAL", "formatted_address": "Cruj\u00eda 3 N Local C Pasillo M - N, Central de Abastos, Iztapalapa, 09040 CDMX", "geometry": {"location": {"lat": 19.3718026, "lng": -99.09048159999999}, "viewport": {"northeast": {"lat": 19.37305352989272, "lng": -99.08913417010726}, "southwest": {"lat": 19.37035387010728, "lng": -99.0918338298927}}}, "icon": "https://maps.gstatic.com/mapfiles/place_api/icons/v1/png_71/generic_business-71.png", "name": "CERRAJERIA CAMPOS", "opening_hours": {"open_now": false}, "photos": [{"height": 1920, "html_attributions": ["<a href=\"https://maps.google.com/maps/contrib/107912994741845938860\">ghostbart1</a>"], "photo_reference": "CmRaAAAAoAxcxFBO13FQ26PsrICyjYvy19YgaUZgduvob9Lh0cI4uFOJTzFGHqO2T1KFp0WBN5GKIiygB-IP8ZBTnJHxpcld32g5Ulr57o0CZ7I6S42aBXfVUEJCw70qyjC_J9C2EhDOj5t4UykZEBWK0s2lWoV_GhRnyn3rnMPgzzkf5Qd_lpms8Wow8w", "width": 1080}], "place_id": "ChIJBVZjTNv90YUREZdW5KBwJMc", "plus_code": {"compound_code": "9WC5+PR Mexico City", "global_code": "76F29WC5+PR"}, "rating": 4.1, "reference": "ChIJBVZjTNv90YUREZdW5KBwJMc", "types": ["locksmith", "point_of_interest", "establishment"], "user_ratings_total": 8}, {"business_status": "OPERATIONAL", "formatted_address": "Ganaderos 185, Valle del Sur, Iztapalapa, 09819 Ciudad de M\u00e9xico, CDMX", "geometry": {"location": {"lat": 19.3498288, "lng": -99.1101552}, "viewport": {"northeast": {"lat": 19.35113607989272, "lng": -99.10880952010729}, "southwest": {"lat": 19.34843642010727, "lng": -99.11150917989272}}}, "icon": "https://maps.gstatic.com/mapfiles/place_api/icons/v1/png_71/generic_business-71.png", "name": "Cerrajer\u00eda Oliv\u00e1res", "place_id": "ChIJQTfRQxr-0YURiPuTh5AD4ls", "plus_code": {"compound_code": "8VXQ+WW Mexico City", "global_code": "76F28VXQ+WW"}, "rating": 0, "reference": "ChIJQTfRQxr-0YURiPuTh5AD4ls", "types": ["locksmith", "point_of_interest", "establishment"], "user_ratings_total": 0}, {"business_status": "OPERATIONAL", "formatted_address": "Sur 125 local 76, Los cipreses, 09810 Iztapalapa, CDMX", "geometry": {"location": {"lat": 19.3504597, "lng": -99.1092695}, "viewport": {"northeast": {"lat": 19.35180362989272, "lng": -99.10784102010729}, "southwest": {"lat": 19.34910397010728, "lng": -99.11054067989272}}}, "icon": "https://maps.gstatic.com/mapfiles/place_api/icons/v1/png_71/generic_business-71.png", "name": "Cerrajer\u00eda Lemus", "opening_hours": {"open_now": false}, "place_id": "ChIJY_3SowX-0YURa1dPQLElmSM", "plus_code": {"compound_code": "9V2R+57 Mexico City", "global_code": "76F29V2R+57"}, "rating": 5, "reference": "ChIJY_3SowX-0YURa1dPQLElmSM", "types": ["locksmith", "point_of_interest", "establishment"], "user_ratings_total": 1}, {"business_status": "OPERATIONAL", "formatted_address": "Av.Luis Hidalgo Monroy, Leyes de Reforma, 09360 Iztapalapa, CDMX", "geometry": {"location": {"lat": 19.3537013, "lng": -99.07298469999999}, "viewport": {"northeast": {"lat": 19.35507727989272, "lng": -99.07161432010729}, "southwest": {"lat": 19.35237762010728, "lng": -99.07431397989274}}}, "icon": "https://maps.gstatic.com/mapfiles/place_api/icons/v1/png_71/generic_business-71.png", "name": "Cerrajer\u00eda Vidreria y Aluminio VADAC", "opening_hours": {"open_now": false}, "place_id": "ChIJmby04pH90YUR--ggs7PHbMg", "plus_code": {"compound_code": "9W3G+FR Mexico City", "global_code": "76F29W3G+FR"}, "rating": 0, "reference": "ChIJmby04pH90YUR--ggs7PHbMg", "types": ["locksmith", "point_of_interest", "establishment"], "user_ratings_total": 0}, {"business_status": "OPERATIONAL", "formatted_address": "Av. del Rosal, Los \u00c1ngeles, Iztapalapa, 09830 Ciudad de M\u00e9xico, CDMX", "geometry": {"location": {"lat": 19.3461942, "lng": -99.07319679999999}, "viewport": {"northeast": {"lat": 19.34757332989272, "lng": -99.07183917010728}, "southwest": {"lat": 19.34487367010728, "lng": -99.07453882989272}}}, "icon": "https://maps.gstatic.com/mapfiles/place_api/icons/v1/png_71/generic_business-71.png", "name": "Cerrajeria Wallage", "place_id": "ChIJfQUqZIn90YURj17ktwN_tCI", "plus_code": {"compound_code": "8WWG+FP Mexico City", "global_code": "76F28WWG+FP"}, "rating": 0, "reference": "ChIJfQUqZIn90YURj17ktwN_tCI", "types": ["locksmith", "point_of_interest", "establishment"], "user_ratings_total": 0}, {"business_status": "OPERATIONAL", "formatted_address": "09830 Av. de las Torres, Av. del Rosal Esquina, Iztapalapa, 09830 Ciudad de M\u00e9xico, CDMX", "geometry": {"location": {"lat": 19.3440351, "lng": -99.064167}, "viewport": {"northeast": {"lat": 19.34542062989272, "lng": -99.06280752010728}, "southwest": {"lat": 19.34272097010728, "lng": -99.06550717989272}}}, "icon": "https://maps.gstatic.com/mapfiles/place_api/icons/v1/png_71/generic_business-71.png", "name": "Cerrajer\u00eda Bifr\u00f6st 24 Hrs.", "opening_hours": {"open_now": true}, "photos": [{"height": 3024, "html_attributions": ["<a href=\"https://maps.google.com/maps/contrib/105138193933100402526\">A Google User</a>"], "photo_reference": "CmRaAAAAYg56_lgIr5wu4gAod1iSOHw-x0_4I9SwwetKMsrGqjPp8VYaGmXspPgrpfJJJn1Vt5QQEV-BEE2cdqGivZvAWkUbuLEsOO5rToqyRuMGaWmy7FQWTGbEA2mxPx8UOp8kEhB9LXVxksBzg3NtZ_on2T23GhRZcmGDe4Ow7iThJgXxHgS9oqBThA", "width": 4032}], "place_id": "ChIJ4fzFn4v90YUR-JQdpeeYT4w", "plus_code": {"compound_code": "8WVP+J8 Mexico City", "global_code": "76F28WVP+J8"}, "rating": 3.7, "reference": "ChIJ4fzFn4v90YUR-JQdpeeYT4w", "types": ["locksmith", "point_of_interest", "establishment"], "user_ratings_total": 11}, {"business_status": "OPERATIONAL", "formatted_address": "Teniente Fausto Vega Santander 425, Escuadr\u00f3n 201, Iztapalapa, 09060 Ciudad de M\u00e9xico, CDMX", "geometry": {"location": {"lat": 19.3616197, "lng": -99.1125735}, "viewport": {"northeast": {"lat": 19.36297922989272, "lng": -99.11127317010728}, "southwest": {"lat": 19.36027957010727, "lng": -99.11397282989273}}}, "icon": "https://maps.gstatic.com/mapfiles/place_api/icons/v1/png_71/generic_business-71.png", "name": "San Pedro Cerrajeria", "place_id": "ChIJZ7AhnRL-0YURWYsbjQtLNHE", "plus_code": {"compound_code": "9V6P+JX Mexico City", "global_code": "76F29V6P+JX"}, "rating": 3, "reference": "ChIJZ7AhnRL-0YURWYsbjQtLNHE", "types": ["locksmith", "point_of_interest", "establishment"], "user_ratings_total": 5}, {"business_status": "OPERATIONAL", "formatted_address": "Gral. Radam\u00e9s Gaxiola Andrade 606, Sector Popular, Escuadr\u00f3n 201, Iztapalapa, 09060 Ciudad de M\u00e9xico, CDMX", "geometry": {"location": {"lat": 19.3654262, "lng": -99.1134065}, "viewport": {"northeast": {"lat": 19.36676442989273, "lng": -99.11199782010729}, "southwest": {"lat": 19.36406477010728, "lng": -99.11469747989273}}}, "icon": "https://maps.gstatic.com/mapfiles/place_api/icons/v1/png_71/generic_business-71.png", "name": "Cerrajeria Yadira", "photos": [{"height": 1320, "html_attributions": ["<a href=\"https://maps.google.com/maps/contrib/106120295076861705386\">Fernando GONZALEZ</a>"], "photo_reference": "CmRaAAAAiRTck2InLOD9qhoy_ITr-z2txNWDP6z5KUaq_9P1r4_toT9kwVqvXI1DlfeIFwhwSLXkchW9g3nLlyIm74ey523KUe2vrZyYEPlHhMEgpGl2wpXGf_GIx0ZSeeo3Ed5iEhBbr3qNbIlpZzxK_VKAKiZJGhQZzUA21x1DyKESVIeULawOK79W5Q", "width": 2200}], "place_id": "ChIJTYw_aW3-0YURd2GxrJaJhYU", "plus_code": {"compound_code": "9V8P+5J Mexico City", "global_code": "76F29V8P+5J"}, "rating": 4.8, "reference": "ChIJTYw_aW3-0YURd2GxrJaJhYU", "types": ["locksmith", "point_of_interest", "establishment"], "user_ratings_total": 5}, {"business_status": "OPERATIONAL", "formatted_address": "16 de Septiembre 138, San Francisco Culhuacan de la Magdalena, Coyoac\u00e1n, 04260 Ciudad de M\u00e9xico, CDMX", "geometry": {"location": {"lat": 19.3400127, "lng": -99.1181639}, "viewport": {"northeast": {"lat": 19.34134717989273, "lng": -99.11681937010728}, "southwest": {"lat": 19.33864752010728, "lng": -99.11951902989273}}}, "icon": "https://maps.gstatic.com/mapfiles/place_api/icons/v1/png_71/generic_business-71.png", "name": "Autocerrajeria Tauro", "opening_hours": {"open_now": true}, "place_id": "ChIJofm5AR7-0YURhlit8ekjxaI", "plus_code": {"compound_code": "8VRJ+2P Mexico City", "global_code": "76F28VRJ+2P"}, "rating": 4.9, "reference": "ChIJofm5AR7-0YURhlit8ekjxaI", "types": ["locksmith", "point_of_interest", "establishment"], "user_ratings_total": 7}, {"business_status": "OPERATIONAL", "formatted_address": "Ermita Iztapalapa 750, Granjas San Antonio, Iztapalapa, 09070 Ciudad de M\u00e9xico, CDMX", "geometry": {"location": {"lat": 19.3565191, "lng": -99.1087656}, "viewport": {"northeast": {"lat": 19.35782777989272, "lng": -99.10742017010728}, "southwest": {"lat": 19.35512812010728, "lng": -99.11011982989272}}}, "icon": "https://maps.gstatic.com/mapfiles/place_api/icons/v1/png_71/generic_business-71.png", "name": "Cerrajeria El Buho", "opening_hours": {"open_now": false}, "place_id": "ChIJJegq7Q7-0YUR04cM4aET6zQ", "plus_code": {"compound_code": "9V4R+JF Mexico City", "global_code": "76F29V4R+JF"}, "rating": 0, "reference": "ChIJJegq7Q7-0YUR04cM4aET6zQ", "types": ["locksmith", "point_of_interest", "establishment"], "user_ratings_total": 0}, {"business_status": "OPERATIONAL", "formatted_address": "Av San Lorenzo 40, Los \u00c1ngeles, Iztapalapa, 09830 Ciudad de M\u00e9xico, CDMX", "geometry": {"location": {"lat": 19.3495919, "lng": -99.075516}, "viewport": {"northeast": {"lat": 19.35098567989273, "lng": -99.07425382010729}, "southwest": {"lat": 19.34828602010728, "lng": -99.07695347989274}}}, "icon": "https://maps.gstatic.com/mapfiles/place_api/icons/v1/png_71/generic_business-71.png", "name": "cerrajeria zeus", "opening_hours": {"open_now": true}, "photos": [{"height": 3120, "html_attributions": ["<a href=\"https://maps.google.com/maps/contrib/116504894939221793970\">A Google User</a>"], "photo_reference": "CmRaAAAAiBZxgmO6rO1IwRrdqsF33YtFqUcDDJ2vYERwudZch4MCUH3jt74XHVnQzz6CdEpRmmF0-z9sQx97iXMQHWoYWHYFuPLpw7ltWTydPgHav4yxQ6XuDMxmyhgCVBT7Vj6fEhCCRYvzQNX1IJ9FitAQTOaxGhRKLO1qrY7EdSjtl0Kld6T2GjtcHg", "width": 4208}], "place_id": "ChIJY3Yb10n90YURjHDq-C7lrro", "plus_code": {"compound_code": "8WXF+RQ Mexico City", "global_code": "76F28WXF+RQ"}, "rating": 4.5, "reference": "ChIJY3Yb10n90YURjHDq-C7lrro", "types": ["locksmith", "point_of_interest", "establishment"], "user_ratings_total": 2}]