[{"business_status": "OPERATIONAL", "formatted_address": "Privada de San Juan 17, El Santuario, Iztapalapa, 09836 Ciudad de M\u00e9xico, CDMX", "geometry": {"location": {"lat": 19.3539075, "lng": -99.09534560000002}, "viewport": {"northeast": {"lat": 19.35546967989272, "lng": -99.09407007010729}, "southwest": {"lat": 19.35277002010728, "lng": -99.09676972989274}}}, "icon": "https://maps.gstatic.com/mapfiles/place_api/icons/v1/png_71/movies-71.png", "name": "BLOCKTONER", "opening_hours": {"open_now": true}, "photos": [{"height": 540, "html_attributions": ["<a href=\"https://maps.google.com/maps/contrib/105217370132968013747\">Toner Castillo</a>"], "photo_reference": "CmRaAAAAqji7oq0MubhUuspB3s20wdsVaKe1PdP786J71iiDrdtIU22fnVuG4GbRrOc_c2ucMauKLhkDRisQOX_StLwxLwZvJi0fsaHFsIAuxRYk9OgPke6hln7NFtoI5F_Y6fg0EhC1TLwz_2jLQuZ1pO_DmN56GhStMWI0SvdEJjlVtaIuQmdYCixIfA", "width": 1153}], "place_id": "ChIJW2jdOTT90YURFOYWInvN0v4", "plus_code": {"compound_code": "9W33+HV Mexico City", "global_code": "76F29W33+HV"}, "rating": 4, "reference": "ChIJW2jdOTT90YURFOYWInvN0v4", "types": ["movie_theater", "point_of_interest", "establishment"], "user_ratings_total": 19}, {"business_status": "OPERATIONAL", "formatted_address": "Canal R\u00edo Churubusco 1635, \u00c1rea Federal Central de Abastos, Iztapalapa, 09040 Ciudad de M\u00e9xico, CDMX", "geometry": {"location": {"lat": 19.3769968, "lng": -99.0952564}, "viewport": {"northeast": {"lat": 19.3805111, "lng": -99.09422614999998}, "southwest": {"lat": 19.3750867, "lng": -99.09697835}}}, "icon": "https://maps.gstatic.com/mapfiles/place_api/icons/v1/png_71/movies-71.png", "name": "Cin\u00e9polis Plaza Central", "photos": [{"height": 3006, "html_attributions": ["<a href=\"https://maps.google.com/maps/contrib/114930199542665899048\">jaime loza</a>"], "photo_reference": "CmRaAAAAQzc7oh1jU-p3iSyCsJhCgcLUfP-FsSya1Cs6zfRE5d7WdPmn6DjBzkBS8XXEuyIsvqxzkaMfiEjL9SrdgM_A_3dNLbJSsUn-gCk42JBoIoFNF9vEJgceQLkzhkfqLRc7EhCVyb4KchrbQU7Cmzx_8S6XGhQYQ6eW2w9ov_R1ZuyqAaB033AiIQ", "width": 5344}], "place_id": "ChIJKRw-qND90YURWKvvTNjSu0w", "plus_code": {"compound_code": "9WG3+QV Mexico City", "global_code": "76F29WG3+QV"}, "rating": 4.3, "reference": "ChIJKRw-qND90YURWKvvTNjSu0w", "types": ["movie_theater", "point_of_interest", "establishment"], "user_ratings_total": 9245}, {"business_status": "OPERATIONAL", "formatted_address": "Av Canal de Tezontle 1512, Dr Alfonso Ortiz Tirado, Iztapalapa, 09020 Ciudad de M\u00e9xico, CDMX", "geometry": {"location": {"lat": 19.3848562, "lng": -99.0817435}, "viewport": {"northeast": {"lat": 19.38614502989272, "lng": -99.08076877010728}, "southwest": {"lat": 19.38344537010728, "lng": -99.08346842989273}}}, "icon": "https://maps.gstatic.com/mapfiles/place_api/icons/v1/png_71/movies-71.png", "name": "Cinemex", "photos": [{"height": 3024, "html_attributions": ["<a href=\"https://maps.google.com/maps/contrib/105662162973957143755\">Alfredo Martinez H.</a>"], "photo_reference": "CmRaAAAAuD5cIp3T-wynjhNDty-ibvGxcRD81SDId_CXUZ0XDdkUWN3Q_xP1l2MFRqchMvOoMs9CbxnNGXZBVLsb9RW7tVmXr8NG_Qw3P9twjBlIyIiSO2mSW_OxZ3QmDL5Sm52MEhA1-_TIKU2fXcIsrB8X2y4KGhT_nl6VeBYZ19-RkmHrka4MtQ4ifA", "width": 4032}], "place_id": "ChIJ8aJlIcr90YURqQlS4UPye2Y", "plus_code": {"compound_code": "9WM9+W8 Mexico City", "global_code": "76F29WM9+W8"}, "rating": 4.3, "reference": "ChIJ8aJlIcr90YURqQlS4UPye2Y", "types": ["movie_theater", "point_of_interest", "establishment"], "user_ratings_total": 9922}, {"business_status": "OPERATIONAL", "formatted_address": "Portal Churubusco, Av. R\u00edo Churubusco 583, Popular, Iztapalapa, 09060 Ciudad de M\u00e9xico, CDMX", "geometry": {"location": {"lat": 19.3686028, "lng": -99.12127679999999}, "viewport": {"northeast": {"lat": 19.37021172989272, "lng": -99.11994637010727}, "southwest": {"lat": 19.36751207010728, "lng": -99.12264602989272}}}, "icon": "https://maps.gstatic.com/mapfiles/place_api/icons/v1/png_71/movies-71.png", "name": "Cin\u00e9polis Portal Churubusco", "photos": [{"height": 1080, "html_attributions": ["<a href=\"https://maps.google.com/maps/contrib/104202789160477698461\">Angel Aguilar</a>"], "photo_reference": "CmRaAAAAfC2ibyzuND6l6XHZdhyYcFErFFMtUlCM81EKIkKrueUQibFdBygQY_M5hqx-hbbbb_wUygmatJFfQ5DM4ialViHuZJBMj3yaaG3Wc6LRCKTcATLT3ieN66EVOFSGDIxcEhDMBQyQI5sxCj0huUl1AG6VGhRekbbV_rKNM30I0WcV510QXf-O8w", "width": 1920}], "place_id": "ChIJb6gqLGr-0YUR4e61zpgoZWE", "plus_code": {"compound_code": "9V9H+CF Mexico City", "global_code": "76F29V9H+CF"}, "rating": 4.3, "reference": "ChIJb6gqLGr-0YUR4e61zpgoZWE", "types": ["movie_theater", "point_of_interest", "establishment"], "user_ratings_total": 7687}, {"business_status": "OPERATIONAL", "formatted_address": "Plaza Oriente, Av Canal de Tezontle 1520, \u00c1rea Federal Central de Abastos, Iztapalapa, 09020 Ciudad de M\u00e9xico, CDMX", "geometry": {"location": {"lat": 19.3834021, "lng": -99.0805494}, "viewport": {"northeast": {"lat": 19.38461882989272, "lng": -99.07919892010727}, "southwest": {"lat": 19.38191917010728, "lng": -99.08189857989272}}}, "icon": "https://maps.gstatic.com/mapfiles/place_api/icons/v1/png_71/movies-71.png", "name": "Cinemex Plaza Oriente", "opening_hours": {"open_now": true}, "photos": [{"height": 1080, "html_attributions": ["<a href=\"https://maps.google.com/maps/contrib/104751133190741296708\">Emslaved Estrada</a>"], "photo_reference": "CmRaAAAAnc8SVXmUcP2s4ifUjX4IbddYRKhb-JrdjJkA1Jkog2sxF_zFVOPzA5fHSsER9TxVAYmLeXQ6soJFmAUtFkIm9nUvRzjX9iKqXbwKTOYqJ18Vkrw_aGfYwsKxq0jw_dNiEhBGhl5EaHsqOiO9e6kCU-AHGhRgRrrpk__YfVIYb7UfAL7-QzLVwQ", "width": 1920}], "place_id": "ChIJ386GfSv90YUR2qpMlshTUQs", "plus_code": {"compound_code": "9WM9+9Q Mexico City", "global_code": "76F29WM9+9Q"}, "rating": 4.2, "reference": "ChIJ386GfSv90YUR2qpMlshTUQs", "types": ["movie_theater", "point_of_interest", "establishment"], "user_ratings_total": 5712}, {"business_status": "OPERATIONAL", "formatted_address": "Av. Arneses, Ganaderos &, Minerva, Iztapalapa, 09810 Ciudad de M\u00e9xico, CDMX", "geometry": {"location": {"lat": 19.349806, "lng": -99.1108481}, "viewport": {"northeast": {"lat": 19.35112487989272, "lng": -99.10950442010729}, "southwest": {"lat": 19.34842522010728, "lng": -99.11220407989273}}}, "icon": "https://maps.gstatic.com/mapfiles/place_api/icons/v1/png_71/movies-71.png", "name": "Balam Arte Esc\u00e9nico", "place_id": "ChIJvwjTGQX-0YURROSrP1Q0944", "plus_code": {"compound_code": "8VXQ+WM Mexico City", "global_code": "76F28VXQ+WM"}, "rating": 4, "reference": "ChIJvwjTGQX-0YURROSrP1Q0944", "types": ["movie_theater", "point_of_interest", "establishment"], "user_ratings_total": 1}, {"business_status": "OPERATIONAL", "formatted_address": "Av. Tlahuac 4409, Lomas Estrella 2da Secc, Iztapalapa, 09890 Ciudad de M\u00e9xico, CDMX", "geometry": {"location": {"lat": 19.3212885, "lng": -99.0941804}, "viewport": {"northeast": {"lat": 19.32295882989272, "lng": -99.09291247010728}, "southwest": {"lat": 19.32025917010728, "lng": -99.09561212989273}}}, "icon": "https://maps.gstatic.com/mapfiles/place_api/icons/v1/png_71/movies-71.png", "name": "Cinemex Lomas Estrella Portal", "photos": [{"height": 4008, "html_attributions": ["<a href=\"https://maps.google.com/maps/contrib/111564591595430951324\">Lasher Mayfair</a>"], "photo_reference": "CmRaAAAAwIkbZ_SpqPsX__Yuoa2w5LW-u8Ut1kQzrrdh6xN7-_84iWDIzI2ml8su58190J-KhLQJsVzLtsbAI1MPy_vcSpGYGmdbeo8lhq3sSb1i53muIYREkQcTbKPwF_3u5UDnEhBEKGCfP2gjSK6lWNVWXDo1GhQ-BMjtU1HDfTRSfhjaz3FzWwMqKA", "width": 5344}], "place_id": "ChIJ_fkhFRkCzoURj7tj1Q63VcY", "plus_code": {"compound_code": "8WC4+G8 Mexico City", "global_code": "76F28WC4+G8"}, "rating": 4.3, "reference": "ChIJ_fkhFRkCzoURj7tj1Q63VcY", "types": ["movie_theater", "point_of_interest", "establishment"], "user_ratings_total": 8800}, {"business_status": "OPERATIONAL", "formatted_address": "Calle Educacion Publica, Zona Urbana Ejidal Estrella Culhuacan, Iztapalapa, 09800 Ciudad de M\u00e9xico, CDMX", "geometry": {"location": {"lat": 19.3317196, "lng": -99.10876999999999}, "viewport": {"northeast": {"lat": 19.33310072989272, "lng": -99.10741662010729}, "southwest": {"lat": 19.33040107010728, "lng": -99.11011627989272}}}, "icon": "https://maps.gstatic.com/mapfiles/place_api/icons/v1/png_71/movies-71.png", "name": "Poliforum Cultural Colonia Federal", "opening_hours": {"open_now": false}, "place_id": "ChIJRVuqs_sBzoURCNHEqMnvN6o", "plus_code": {"compound_code": "8VJR+MF Mexico City", "global_code": "76F28VJR+MF"}, "rating": 4.5, "reference": "ChIJRVuqs_sBzoURCNHEqMnvN6o", "types": ["movie_theater", "point_of_interest", "establishment"], "user_ratings_total": 2}, {"business_status": "OPERATIONAL", "formatted_address": "Periferico Arco Oriente 2141, Chinam Pac de Ju\u00e1rez, Iztapalapa, 09208 Ciudad de M\u00e9xico, CDMX", "geometry": {"location": {"lat": 19.3801091, "lng": -99.0593032}, "viewport": {"northeast": {"lat": 19.38158337989272, "lng": -99.0579276201073}, "southwest": {"lat": 19.37888372010728, "lng": -99.06062727989274}}}, "icon": "https://maps.gstatic.com/mapfiles/place_api/icons/v1/png_71/movies-71.png", "name": "Cinemex Iztapalapa", "photos": [{"height": 3456, "html_attributions": ["<a href=\"https://maps.google.com/maps/contrib/100417917327443560432\">Jesus Davila</a>"], "photo_reference": "CmRaAAAAdB56NkipmMjfhTiLj__4oVj-eUvYWYbyqckIjTI7N2T2OBTsgzDzysRDkLB7jX7NYZbV1pqxtXPYf7KFIMZLutu9yVkaT2S05PNizxPpo6rErOvkeAkkcMJsSq2JxefQEhBCQKpUzwCwlvfKSEM0Cr59GhRpzNUsCvBGPtj2kJF6Iy9mOvLkPQ", "width": 4608}], "place_id": "ChIJf4tIXKj90YURl-Svt2boL3U", "plus_code": {"compound_code": "9WJR+27 Mexico City", "global_code": "76F29WJR+27"}, "rating": 4, "reference": "ChIJf4tIXKj90YURl-Svt2boL3U", "types": ["movie_theater", "point_of_interest", "establishment"], "user_ratings_total": 8943}, {"business_status": "OPERATIONAL", "formatted_address": "Calz. de la Viga 1150, Apatlaco, Iztapalapa, 09430 Ciudad de M\u00e9xico, CDMX", "geometry": {"location": {"lat": 19.3805556, "lng": -99.12166669999999}, "viewport": {"northeast": {"lat": 19.38183912989272, "lng": -99.12072222010727}, "southwest": {"lat": 19.37913947010728, "lng": -99.12342187989272}}}, "icon": "https://maps.gstatic.com/mapfiles/place_api/icons/v1/png_71/movies-71.png", "name": "Cinemex La Viga", "photos": [{"height": 1080, "html_attributions": ["<a href=\"https://maps.google.com/maps/contrib/103990465866052592480\">Oliver Cadena</a>"], "photo_reference": "CmRaAAAA9mBpJ122PiViqkNp9nLSC2gEgZtBUOFBYfV1RC2-ECZDWkMU2gEdXhZVc_Q7W_yZV4UccgFrXnoCjh-51zsqb371fYCfhlt6OmyuWe7u47psDziyZU4OnLNUsvgjbRs9EhB5YPs_SfBF44PIWRIfVD-bGhRBQwY5Llt07D5tBXmOZNqspeotCQ", "width": 1920}], "place_id": "ChIJ1RyzSWf-0YURNRIYnyWGWx4", "plus_code": {"compound_code": "9VJH+68 Mexico City", "global_code": "76F29VJH+68"}, "rating": 4.2, "reference": "ChIJ1RyzSWf-0YURNRIYnyWGWx4", "types": ["movie_theater", "point_of_interest", "establishment"], "user_ratings_total": 5777}, {"business_status": "OPERATIONAL", "formatted_address": "Av. Canal de Garay 3278, La Esperanza, Iztapalapa, 09910 Ciudad de M\u00e9xico, CDMX", "geometry": {"location": {"lat": 19.3130532, "lng": -99.0750034}, "viewport": {"northeast": {"lat": 19.31411832989272, "lng": -99.07387902010728}, "southwest": {"lat": 19.31141867010728, "lng": -99.07657867989272}}}, "icon": "https://maps.gstatic.com/mapfiles/place_api/icons/v1/png_71/movies-71.png", "name": "Cin\u00e9polis", "photos": [{"height": 2250, "html_attributions": ["<a href=\"https://maps.google.com/maps/contrib/112462151327228511135\">Soy PattoO!</a>"], "photo_reference": "CmRaAAAALGKZc9mO07Uox-sgIe_rZ76gkEe7sSXW_H5YBMMT2206jRCdJ8PHEf5BOotgJYwVrRY1hfKdY6a8C9Wdr2cuvuyWyO3WXH3Gb_RhePNtv8CoZM5DKwYPi89agTPqDPOgEhAVcp4FgTjBjkZrwrCE15AZGhTtImsrGuyjn3acd0HGqbr95XkGYg", "width": 4000}], "place_id": "ChIJsQoG-MkDzoURxbG6EVhA1Uk", "plus_code": {"compound_code": "8W7F+6X Mexico City", "global_code": "76F28W7F+6X"}, "rating": 4.5, "reference": "ChIJsQoG-MkDzoURxbG6EVhA1Uk", "types": ["movie_theater", "point_of_interest", "establishment"], "user_ratings_total": 7399}, {"business_status": "OPERATIONAL", "formatted_address": "Av. R\u00edo Churubusco S/N, Country Club Churubusco, Coyoac\u00e1n, 04220 Ciudad de M\u00e9xico, CDMX", "geometry": {"location": {"lat": 19.3558977, "lng": -99.135138}, "viewport": {"northeast": {"lat": 19.35719842989272, "lng": -99.13400592010727}, "southwest": {"lat": 19.35449877010728, "lng": -99.13670557989272}}}, "icon": "https://maps.gstatic.com/mapfiles/place_api/icons/v1/png_71/movies-71.png", "name": "Cinemex CNA", "photos": [{"height": 3000, "html_attributions": ["<a href=\"https://maps.google.com/maps/contrib/112229687900671848787\">Eduardo Valenzuela</a>"], "photo_reference": "CmRaAAAAZYJXtJmeSq-ncOYVtptXAmgy_L4b3GyawT-TBKmcW8pAygZo5Rf_jsInunf8nQl5T7lXqyl-YK8_j-4BqJStRVHCJjjag9Q6NszdF3_75uqgUKrVYj_b3nM7yPgFXHRBEhCenYUigAyrT4MJUmdzJDZ4GhS2I6rBfYdrTdlDP1uXKJ7o1T9KLQ", "width": 4000}], "place_id": "ChIJiULSozP-0YURyeNIfP9LcpQ", "plus_code": {"compound_code": "9V47+9W Mexico City", "global_code": "76F29V47+9W"}, "rating": 4.4, "reference": "ChIJiULSozP-0YURyeNIfP9LcpQ", "types": ["movie_theater", "point_of_interest", "establishment"], "user_ratings_total": 10001}, {"business_status": "OPERATIONAL", "formatted_address": "Cda. Ermita Iztapalapa 1863 C, Sta Cruz Meyehualco, Iztapalapa, 09830 Ciudad de M\u00e9xico, CDMX", "geometry": {"location": {"lat": 19.3424695, "lng": -99.04590139999999}, "viewport": {"northeast": {"lat": 19.34381572989272, "lng": -99.04460167010728}, "southwest": {"lat": 19.34111607010728, "lng": -99.04730132989273}}}, "icon": "https://maps.gstatic.com/mapfiles/place_api/icons/v1/png_71/movies-71.png", "name": "Hombres de Cine", "place_id": "ChIJ7ZLKTJ0CzoURCe3Y-vQxyZ0", "plus_code": {"compound_code": "8XR3+XJ Mexico City", "global_code": "76F28XR3+XJ"}, "rating": 5, "reference": "ChIJ7ZLKTJ0CzoURCe3Y-vQxyZ0", "types": ["movie_theater", "point_of_interest", "establishment"], "user_ratings_total": 7}, {"business_status": "OPERATIONAL", "formatted_address": "Calz. de la Viga 1479, El Reto\u00f1o, Iztapalapa, 09440 Ciudad de M\u00e9xico, CDMX", "geometry": {"location": {"lat": 19.370725, "lng": -99.1227014}, "viewport": {"northeast": {"lat": 19.37207782989272, "lng": -99.12126467010728}, "southwest": {"lat": 19.36937817010728, "lng": -99.12396432989271}}}, "icon": "https://maps.gstatic.com/mapfiles/place_api/icons/v1/png_71/movies-71.png", "name": "Xtreme Cinemas Churubusco", "photos": [{"height": 3456, "html_attributions": ["<a href=\"https://maps.google.com/maps/contrib/101888097273920108137\">daniel alvarez</a>"], "photo_reference": "CmRaAAAA__ks85NUGUTuFn9aaepFEtlp4QLE0pR_2gvj3z6DrgAw5nOcnTalo9AcBb4KIP0GreAO03ixxBOTKc_TH01yDIPCZyQr72uWnFU0BX8CX7GavgA3EL_kikZH4Dscpz5oEhB59cOF_z0hggNcfDQ5EDfOGhQzJcL5VF6i0f7kJbaUCue6otFqzw", "width": 4608}], "place_id": "ChIJOZ_vwmn-0YURYK0YxC_uBfg", "plus_code": {"compound_code": "9VCG+7W Mexico City", "global_code": "76F29VCG+7W"}, "rating": 4.3, "reference": "ChIJOZ_vwmn-0YURYK0YxC_uBfg", "types": ["movie_theater", "point_of_interest", "establishment"], "user_ratings_total": 2632}, {"business_status": "OPERATIONAL", "formatted_address": "Colonia, Calz. Ignacio Zaragoza 1433, Tepalcates, Iztapalapa, 09210 Ciudad de M\u00e9xico, CDMX", "geometry": {"location": {"lat": 19.3913889, "lng": -99.0494444}, "viewport": {"northeast": {"lat": 19.39278412989272, "lng": -99.04803772010729}, "southwest": {"lat": 19.39008447010728, "lng": -99.05073737989274}}}, "icon": "https://maps.gstatic.com/mapfiles/place_api/icons/v1/png_71/movies-71.png", "name": "Cinemex Via San Juan", "photos": [{"height": 3024, "html_attributions": ["<a href=\"https://maps.google.com/maps/contrib/110471335062361618900\">GUS DORANTES</a>"], "photo_reference": "CmRaAAAAfTB8MBuSW-mCOspphquV995S_J8DBVweakuIPmdgi7uTsxO92B-3FOdUUno4fPgRt0nXDPyQOqzSyhmgn8PL1t-u2Bwazopcl5YfpIsah74ZIn21a94AFQyV6qyYdDDSEhCxv_-_A2C1bnCui8uaKJ9CGhRVimjLSupQwcWrz1w2aYPmMnaGKA", "width": 4032}], "place_id": "ChIJH1Tmj_380YURBo-tGzxCdxw", "plus_code": {"compound_code": "9XR2+H6 Mexico City", "global_code": "76F29XR2+H6"}, "rating": 4.3, "reference": "ChIJH1Tmj_380YURBo-tGzxCdxw", "types": ["movie_theater", "point_of_interest", "establishment"], "user_ratings_total": 5338}, {"business_status": "OPERATIONAL", "formatted_address": "Col.San Lorenzo Tezonco Del, Av. Tlahuac 5662, San Lorenzo Tezonco, Iztapalapa, 09790 Ciudad de M\u00e9xico, CDMX", "geometry": {"location": {"lat": 19.305716, "lng": -99.060631}, "viewport": {"northeast": {"lat": 19.30725092989272, "lng": -99.05943607010728}, "southwest": {"lat": 19.30455127010728, "lng": -99.06213572989272}}}, "icon": "https://maps.gstatic.com/mapfiles/place_api/icons/v1/png_71/movies-71.png", "name": "Cinemex", "photos": [{"height": 3024, "html_attributions": ["<a href=\"https://maps.google.com/maps/contrib/114922862028468814311\">David Nicolas</a>"], "photo_reference": "CmRaAAAAZIrrg6F_nYzo8k0kxCieiNv2Y3x7T2ttiDQ2TGhVh9qtWrKIYnWINNJF948y9A2mziK5rSCiVG61feho4gNFd7rJImHo9OewiCzq54lzM38iE4OZAX8JcmgdNVUdJhCVEhDvi_vsR2aFB_AxQe1jYAmYGhQoS_LcdbPnYAOn3SwU610rhOSQMw", "width": 4032}], "place_id": "ChIJi_u1hWoCzoURxlXJwDQJrBU", "plus_code": {"compound_code": "8W4Q+7P Mexico City", "global_code": "76F28W4Q+7P"}, "rating": 4.1, "reference": "ChIJi_u1hWoCzoURxlXJwDQJrBU", "types": ["movie_theater", "point_of_interest", "establishment"], "user_ratings_total": 11456}, {"business_status": "OPERATIONAL", "formatted_address": "Periferico Arco, Av. Exploradores Ejercito de Ote. No. 2141, Ej\u00e9rcito Constitucionalista I II y III, Iztapalapa, Ciudad de M\u00e9xico, CDMX", "geometry": {"location": {"lat": 19.3800693, "lng": -99.059314}, "viewport": {"northeast": {"lat": 19.38131802989272, "lng": -99.05799107010729}, "southwest": {"lat": 19.37861837010728, "lng": -99.06069072989274}}}, "icon": "https://maps.gstatic.com/mapfiles/place_api/icons/v1/png_71/movies-71.png", "name": "Cinemex Iztapalapa", "place_id": "ChIJQzB7W6j90YUR1YrjUMfinAI", "plus_code": {"compound_code": "9WJR+27 Mexico City", "global_code": "76F29WJR+27"}, "rating": 3, "reference": "ChIJQzB7W6j90YUR1YrjUMfinAI", "types": ["movie_theater", "point_of_interest", "establishment"], "user_ratings_total": 2}, {"business_status": "OPERATIONAL", "formatted_address": "Sur 109 a 306, H\u00e9roes de Churubusco, Iztapalapa, 09090 Ciudad de M\u00e9xico, CDMX", "geometry": {"location": {"lat": 19.3597224, "lng": -99.1174588}, "viewport": {"northeast": {"lat": 19.36104982989272, "lng": -99.1160067201073}, "southwest": {"lat": 19.35835017010728, "lng": -99.11870637989273}}}, "icon": "https://maps.gstatic.com/mapfiles/place_api/icons/v1/png_71/movies-71.png", "name": "La Raza Mex Distribution S de RL de CV", "place_id": "ChIJ1_18cRP-0YURRrACJmgT0_U", "plus_code": {"compound_code": "9V5M+V2 Mexico City", "global_code": "76F29V5M+V2"}, "rating": 3, "reference": "ChIJ1_18cRP-0YURRrACJmgT0_U", "types": ["movie_theater", "electronics_store", "home_goods_store", "point_of_interest", "store", "establishment"], "user_ratings_total": 1}, {"business_status": "OPERATIONAL", "formatted_address": "Colonia, Av Canal de Tezontle 1520, Dr Alfonso Ortiz Tirado, Iztapalapa, 09020 Ciudad de M\u00e9xico, CDMX", "geometry": {"location": {"lat": 19.3821564, "lng": -99.08263989999999}, "viewport": {"northeast": {"lat": 19.38349022989272, "lng": -99.08116582010727}, "southwest": {"lat": 19.38079057010728, "lng": -99.08386547989271}}}, "icon": "https://maps.gstatic.com/mapfiles/place_api/icons/v1/png_71/movies-71.png", "name": "Cinemex Tezontle", "place_id": "ChIJMSm5cMn90YURlxhkr3Q7qdk", "plus_code": {"compound_code": "9WJ8+VW Mexico City", "global_code": "76F29WJ8+VW"}, "rating": 5, "reference": "ChIJMSm5cMn90YURlxhkr3Q7qdk", "types": ["movie_theater", "point_of_interest", "establishment"], "user_ratings_total": 3}, {"business_status": "OPERATIONAL", "formatted_address": "Canal de Miramontes 2053, Coapa, Girasoles II, Coyoac\u00e1n, 04920 Ciudad de M\u00e9xico, CDMX", "geometry": {"location": {"lat": 19.3103978, "lng": -99.1244305}, "viewport": {"northeast": {"lat": 19.3118815, "lng": -99.12294122010728}, "southwest": {"lat": 19.3087719, "lng": -99.12564087989271}}}, "icon": "https://maps.gstatic.com/mapfiles/place_api/icons/v1/png_71/movies-71.png", "name": "Cin\u00e9polis - Miramontes", "photos": [{"height": 3024, "html_attributions": ["<a href=\"https://maps.google.com/maps/contrib/105050335576176696988\">Daniel Mora</a>"], "photo_reference": "CmRaAAAAm1Zxzlfs8KvaMtpV1l4JpBGxPLVIne8v0kvCFkcxQCtzwHfIEt8UyfR3vHELwHDFDl9i4hOtA06SDkGcDZYvnUfpxkpfxcfxB1G55D7kDWUwDkjNNx4TsIP_TCrgnj0zEhARSAaN9DAdeV2sNBsg14jVGhRCJverYYEcHmwlTFsogdu5izXgRQ", "width": 4032}], "place_id": "ChIJYT87uAYBzoUROJefaBkFDJE", "plus_code": {"compound_code": "8V6G+56 Mexico City", "global_code": "76F28V6G+56"}, "rating": 4.2, "reference": "ChIJYT87uAYBzoUROJefaBkFDJE", "types": ["movie_theater", "point_of_interest", "establishment"], "user_ratings_total": 6874}]