[{"business_status": "OPERATIONAL", "formatted_address": "Torres Quintero 119, San Miguel, Iztapalapa, 09360 Ciudad de M\u00e9xico, CDMX", "geometry": {"location": {"lat": 19.3596495, "lng": -99.08459909999999}, "viewport": {"northeast": {"lat": 19.36098967989272, "lng": -99.08322722010728}, "southwest": {"lat": 19.35829002010728, "lng": -99.08592687989272}}}, "icon": "https://maps.gstatic.com/mapfiles/place_api/icons/v1/png_71/shopping-71.png", "name": "Tu Gatienda", "place_id": "ChIJsfT71in90YURlNLqHMPMG8o", "plus_code": {"compound_code": "9W58+V5 Mexico City", "global_code": "76F29W58+V5"}, "rating": 0, "reference": "ChIJsfT71in90YURlNLqHMPMG8o", "types": ["pet_store", "point_of_interest", "store", "establishment"], "user_ratings_total": 0}, {"business_status": "OPERATIONAL", "formatted_address": "Av. Hidalgo 40, San Pablo, Iztapalapa, 09000 Ciudad de M\u00e9xico, CDMX", "geometry": {"location": {"lat": 19.3597314, "lng": -99.09029729999999}, "viewport": {"northeast": {"lat": 19.36104892989272, "lng": -99.08895802010728}, "southwest": {"lat": 19.35834927010728, "lng": -99.09165767989273}}}, "icon": "https://maps.gstatic.com/mapfiles/place_api/icons/v1/png_71/shopping-71.png", "name": "Acuario\" El reino de neptuno\"", "opening_hours": {"open_now": true}, "photos": [{"height": 3120, "html_attributions": ["<a href=\"https://maps.google.com/maps/contrib/107494942968353093657\">A Google User</a>"], "photo_reference": "CmRaAAAAqniH__HudnVsLMde5AXr7pkupKQytOE06F4_FFumXvwZcCOLdHFBP-UTpPDD9B6--ys-9YdjNzYrXZLCYaB2Xxh4JtqtWghglC3oZsqhMUtCkvn9i59xDWqRL5u4YCMGEhBXyrE_PXtpsGFgh7WnLA_2GhS7m6qsznN5ei8vGFUFFZc6F9s_8Q", "width": 4160}], "place_id": "ChIJuVOmAub90YURx65rptCFJfQ", "plus_code": {"compound_code": "9W55+VV Mexico City", "global_code": "76F29W55+VV"}, "rating": 4, "reference": "ChIJuVOmAub90YURx65rptCFJfQ", "types": ["pet_store", "point_of_interest", "store", "establishment"], "user_ratings_total": 102}, {"business_status": "OPERATIONAL", "formatted_address": "Fresno 12, El Manto, Iztapalapa, 09830 Ciudad de M\u00e9xico, CDMX", "geometry": {"location": {"lat": 19.3517487, "lng": -99.0837174}, "viewport": {"northeast": {"lat": 19.35312112989272, "lng": -99.08235792010728}, "southwest": {"lat": 19.35042147010728, "lng": -99.08505757989273}}}, "icon": "https://maps.gstatic.com/mapfiles/place_api/icons/v1/png_71/shopping-71.png", "name": "Spa Perron", "opening_hours": {"open_now": false}, "place_id": "ChIJW0ae4P_90YURf0--uTGaFZw", "plus_code": {"compound_code": "9W28+MG Mexico City", "global_code": "76F29W28+MG"}, "rating": 5, "reference": "ChIJW0ae4P_90YURf0--uTGaFZw", "types": ["pet_store", "point_of_interest", "store", "establishment"], "user_ratings_total": 2}, {"business_status": "OPERATIONAL", "formatted_address": "Av Canal de Tezontle 1520, Dr Alfonso Ortiz Tirado, Iztapalapa, 09020 Ciudad de M\u00e9xico, CDMX", "geometry": {"location": {"lat": 19.3836673, "lng": -99.08261669999999}, "viewport": {"northeast": {"lat": 19.38528812989272, "lng": -99.08162257010727}, "southwest": {"lat": 19.38258847010728, "lng": -99.08432222989272}}}, "icon": "https://maps.gstatic.com/mapfiles/place_api/icons/v1/png_71/shopping-71.png", "name": "Maskota", "opening_hours": {"open_now": true}, "photos": [{"height": 2340, "html_attributions": ["<a href=\"https://maps.google.com/maps/contrib/112401807809771960606\">Kevin R V</a>"], "photo_reference": "CmRaAAAAYF-4NL8Lc8t8PXypF_jr_v-vpZVgt-6l_iNM1kMtlRlWjLQP98w5ZWBwtIGlwnwlnCL_nf-16YpOrqLyWPDvM3SmTi8HnydypypIfRCot3oYJVG8gvrSrAruR73sqyEJEhA9pXgiAmQWnBg5hJgk9KXeGhTCEZj2om6maQ7_XukH29vXE1hpIA", "width": 4160}], "place_id": "ChIJfyPY7bX90YUR8fFpvy5Quko", "plus_code": {"compound_code": "9WM8+FX Mexico City", "global_code": "76F29WM8+FX"}, "rating": 3.8, "reference": "ChIJfyPY7bX90YUR8fFpvy5Quko", "types": ["pet_store", "food", "point_of_interest", "store", "establishment"], "user_ratings_total": 721}, {"business_status": "OPERATIONAL", "formatted_address": "Xochiatl 2, Ricardo Flores Mag\u00f3n, Iztapalapa, 09820 Ciudad de M\u00e9xico, CDMX", "geometry": {"location": {"lat": 19.3532238, "lng": -99.0976871}, "viewport": {"northeast": {"lat": 19.35456612989272, "lng": -99.09631797010728}, "southwest": {"lat": 19.35186647010728, "lng": -99.09901762989273}}}, "icon": "https://maps.gstatic.com/mapfiles/place_api/icons/v1/png_71/shopping-71.png", "name": "Acuario Guppys", "opening_hours": {"open_now": true}, "photos": [{"height": 2448, "html_attributions": ["<a href=\"https://maps.google.com/maps/contrib/105008486175028756026\">A Google User</a>"], "photo_reference": "CmRaAAAAsCsfU0sqtzg5r_r22UTIcTP6IhwbmMrDFyzHeeP2QJ8rMa0UZHGgCgFo-ghcw6Y3m2_H8_EQOETzTgbEFQbqP6DOG6P_98O13EVMgJjjIoXDtCJBDLrM3E6EZhMnToPsEhAcim1TrsYrd68dXp2GrDtzGhTRgJisu7ykRZImD2oxI9bGrdtl_A", "width": 3264}], "place_id": "ChIJTxsFMeP90YURFlTGBggFbd4", "plus_code": {"compound_code": "9W32+7W Mexico City", "global_code": "76F29W32+7W"}, "rating": 5, "reference": "ChIJTxsFMeP90YURFlTGBggFbd4", "types": ["pet_store", "point_of_interest", "store", "establishment"], "user_ratings_total": 49}, {"business_status": "OPERATIONAL", "formatted_address": "Sur 125 Local 104, Los cipreses, 09810 Iztapalapa, CDMX", "geometry": {"location": {"lat": 19.3503601, "lng": -99.109501}, "viewport": {"northeast": {"lat": 19.35171382989272, "lng": -99.10819682010727}, "southwest": {"lat": 19.34901417010727, "lng": -99.11089647989272}}}, "icon": "https://maps.gstatic.com/mapfiles/place_api/icons/v1/png_71/shopping-71.png", "name": "Chiquiguaguas Mina", "opening_hours": {"open_now": false}, "place_id": "ChIJU-rdoAX-0YURJ58Dhio63Xg", "plus_code": {"compound_code": "9V2R+45 Mexico City", "global_code": "76F29V2R+45"}, "rating": 5, "reference": "ChIJU-rdoAX-0YURJ58Dhio63Xg", "types": ["pet_store", "point_of_interest", "store", "establishment"], "user_ratings_total": 1}, {"business_status": "OPERATIONAL", "formatted_address": "Jonote 10 Esq, Aloe, 09830 Ciudad de M\u00e9xico", "geometry": {"location": {"lat": 19.3493838, "lng": -99.08377}, "viewport": {"northeast": {"lat": 19.35059252989272, "lng": -99.08264717010728}, "southwest": {"lat": 19.34789287010728, "lng": -99.08534682989271}}}, "icon": "https://maps.gstatic.com/mapfiles/place_api/icons/v1/png_71/shopping-71.png", "name": "Lukumora", "place_id": "ChIJ9VbPBwL90YURjZ5kqCXO7MQ", "plus_code": {"compound_code": "8WX8+QF Mexico City", "global_code": "76F28WX8+QF"}, "rating": 4, "reference": "ChIJ9VbPBwL90YURjZ5kqCXO7MQ", "types": ["pet_store", "point_of_interest", "store", "establishment"], "user_ratings_total": 1}, {"business_status": "OPERATIONAL", "formatted_address": "Av Canal de Tezontle 1512, INFONAVIT Iztacalco, Iztapalapa, 09020 Ciudad de M\u00e9xico, CDMX", "geometry": {"location": {"lat": 19.3848936, "lng": -99.079392}, "viewport": {"northeast": {"lat": 19.38632892989272, "lng": -99.07803022010728}, "southwest": {"lat": 19.38362927010728, "lng": -99.08072987989271}}}, "icon": "https://maps.gstatic.com/mapfiles/place_api/icons/v1/png_71/shopping-71.png", "name": "Maskota", "photos": [{"height": 4128, "html_attributions": ["<a href=\"https://maps.google.com/maps/contrib/110222011330468449417\">A Google User</a>"], "photo_reference": "CmRaAAAAWR5pprOSc3SdWvPS_FJ2pppD5bGHM_EGRxF3ndE4EX5BriNw2IJtIdg0HwG5hc5nWm-TK_JINQwZqzIX5xw8aNACE4Dr0YRhATjRQTQOGG2YoZ2PtiGU_c6M5pYWH5mbEhAz1-ZfVdwVQEFToxM9iLKuGhShK-tit8AUSgXlO68czpKuFYUgOw", "width": 3096}], "place_id": "ChIJObiZ8bX90YURjht4wLq-c1w", "plus_code": {"compound_code": "9WMC+X6 Mexico City", "global_code": "76F29WMC+X6"}, "rating": 3.6, "reference": "ChIJObiZ8bX90YURjht4wLq-c1w", "types": ["pet_store", "point_of_interest", "store", "establishment"], "user_ratings_total": 54}, {"business_status": "OPERATIONAL", "formatted_address": "Lic. Luis Cabrera 24, Jacarandas, Iztapalapa, 09280 Ciudad de M\u00e9xico, CDMX", "geometry": {"location": {"lat": 19.343368, "lng": -99.0511592}, "viewport": {"northeast": {"lat": 19.34471497989272, "lng": -99.04973512010727}, "southwest": {"lat": 19.34201532010728, "lng": -99.05243477989272}}}, "icon": "https://maps.gstatic.com/mapfiles/place_api/icons/v1/png_71/shopping-71.png", "name": "Alimento para mascotas axolotl", "photos": [{"height": 809, "html_attributions": ["<a href=\"https://maps.google.com/maps/contrib/115097502250053535065\">A Google User</a>"], "photo_reference": "CmRaAAAA4P1cPQpwXBz299qesupqBpY4hTgN4Bm_eZClZ8j97Wx6uureSCkvcYrChHAsGgzPzFXdrcDATTJQfFk8lI-2BQFDku7pr4e7JNzVQ5lslySftBGaPYvt8TRR-vHCXtZiEhCif5Sx5s_TbECYUXudxl4oGhTRVC6_dt8oAGguVuPKy0bzhJPw-Q", "width": 1440}], "place_id": "ChIJOZjNOTv90YURqyFn3ToOGVM", "plus_code": {"compound_code": "8WVX+8G Mexico City", "global_code": "76F28WVX+8G"}, "rating": 0, "reference": "ChIJOZjNOTv90YURqyFn3ToOGVM", "types": ["pet_store", "point_of_interest", "store", "establishment"], "user_ratings_total": 0}, {"business_status": "OPERATIONAL", "formatted_address": "Av San Lorenzo 43, Los \u00c1ngeles, Iztapalapa, 09830 Ciudad de M\u00e9xico, CDMX", "geometry": {"location": {"lat": 19.3496371, "lng": -99.0759604}, "viewport": {"northeast": {"lat": 19.35093992989272, "lng": -99.07451602010728}, "southwest": {"lat": 19.34824027010728, "lng": -99.07721567989272}}}, "icon": "https://maps.gstatic.com/mapfiles/place_api/icons/v1/png_71/shopping-71.png", "name": "Consuno L\u00f3pez Hermanos S. de R. L. de C.V.", "photos": [{"height": 4160, "html_attributions": ["<a href=\"https://maps.google.com/maps/contrib/112910383733142756495\">Lizbet dolores benitez</a>"], "photo_reference": "CmRaAAAAjEMDw_9z1xIai7kZLyC0mBw0K9484M4_KEj4CQe42pahqDIl5WXnGQedC80763sHtTefvHrkU33zypi8yxYUE6SUQGS3qDynlHyXw-mzIiLFgw3MTM7nmVk7wy_VoW6nEhBdVO-5jXwzCSyq9nKJ1MrRGhQo4xUCqyj6mFDo7jcpHJnQz_KO9g", "width": 3120}], "place_id": "ChIJ3Zc3XIz90YURZnbkhuKRsHo", "plus_code": {"compound_code": "8WXF+VJ Mexico City", "global_code": "76F28WXF+VJ"}, "rating": 4.1, "reference": "ChIJ3Zc3XIz90YURZnbkhuKRsHo", "types": ["pet_store", "point_of_interest", "store", "establishment"], "user_ratings_total": 140}, {"business_status": "OPERATIONAL", "formatted_address": "Av Canal de Tezontle 135, \u00c1rea Federal Central de Abastos, Iztapalapa, 09020 Ciudad de M\u00e9xico, CDMX", "geometry": {"location": {"lat": 19.3823568, "lng": -99.0774117}, "viewport": {"northeast": {"lat": 19.38380657989272, "lng": -99.07605647010728}, "southwest": {"lat": 19.38110692010727, "lng": -99.07875612989272}}}, "icon": "https://maps.gstatic.com/mapfiles/place_api/icons/v1/png_71/shopping-71.png", "name": "MUNDO CANINO", "opening_hours": {"open_now": true}, "place_id": "ChIJI1BHcLb90YURkE_wOnm_g70", "plus_code": {"compound_code": "9WJF+W2 Mexico City", "global_code": "76F29WJF+W2"}, "rating": 1.6, "reference": "ChIJI1BHcLb90YURkE_wOnm_g70", "types": ["pet_store", "point_of_interest", "store", "establishment"], "user_ratings_total": 7}]