[{"business_status": "OPERATIONAL", "geometry": {"location": {"lat": 19.3534859, "lng": -99.0947048}, "viewport": {"northeast": {"lat": 19.3548337802915, "lng": -99.09336251970849}, "southwest": {"lat": 19.3521358197085, "lng": -99.0960604802915}}}, "icon": "https://maps.gstatic.com/mapfiles/place_api/icons/v1/png_71/pharmacy-71.png", "name": "Farmacia Aries", "place_id": "ChIJGfb_meT90YURgZEegK1bRcw", "plus_code": {"compound_code": "9W34+94 Mexico City, CDMX, Mexico", "global_code": "76F29W34+94"}, "rating": 5, "reference": "ChIJGfb_meT90YURgZEegK1bRcw", "scope": "GOOGLE", "types": ["pharmacy", "health", "point_of_interest", "store", "establishment"], "user_ratings_total": 2, "vicinity": "Convento 74, Ampliaci\u00f3n el Santuario, Ciudad de M\u00e9xico"}, {"business_status": "OPERATIONAL", "geometry": {"location": {"lat": 19.3544031, "lng": -99.09362519999999}, "viewport": {"northeast": {"lat": 19.3557684302915, "lng": -99.09228396970849}, "southwest": {"lat": 19.3530704697085, "lng": -99.0949819302915}}}, "icon": "https://maps.gstatic.com/mapfiles/place_api/icons/v1/png_71/pharmacy-71.png", "name": "Farma-Imagen Genericos", "place_id": "ChIJ-deI5-T90YUREg-fiYQFawA", "plus_code": {"compound_code": "9W34+QG Mexico City, CDMX, Mexico", "global_code": "76F29W34+QG"}, "reference": "ChIJ-deI5-T90YUREg-fiYQFawA", "scope": "GOOGLE", "types": ["pharmacy", "health", "point_of_interest", "store", "establishment"], "vicinity": "Mexico"}, {"business_status": "OPERATIONAL", "geometry": {"location": {"lat": 19.3543264, "lng": -99.09479859999999}, "viewport": {"northeast": {"lat": 19.3556837802915, "lng": -99.09345311970849}, "southwest": {"lat": 19.35298581970849, "lng": -99.0961510802915}}}, "icon": "https://maps.gstatic.com/mapfiles/place_api/icons/v1/png_71/generic_business-71.png", "name": "Farmacia ANGY", "opening_hours": {"open_now": false}, "place_id": "ChIJ_6HhleT90YURkUwA9yYkcug", "plus_code": {"compound_code": "9W34+P3 Mexico City, CDMX, Mexico", "global_code": "76F29W34+P3"}, "rating": 5, "reference": "ChIJ_6HhleT90YURkUwA9yYkcug", "scope": "GOOGLE", "types": ["drugstore", "pharmacy", "dentist", "health", "point_of_interest", "store", "establishment"], "user_ratings_total": 3, "vicinity": "San Pedro 25, El Santuario, Ciudad de M\u00e9xico"}, {"business_status": "OPERATIONAL", "geometry": {"location": {"lat": 19.354585, "lng": -99.0943913}, "viewport": {"northeast": {"lat": 19.3559088802915, "lng": -99.0930318197085}, "southwest": {"lat": 19.3532109197085, "lng": -99.0957297802915}}}, "icon": "https://maps.gstatic.com/mapfiles/place_api/icons/v1/png_71/pharmacy-71.png", "name": "Farmacia GI", "opening_hours": {"open_now": true}, "place_id": "ChIJ_6HhleT90YURoH1bu9I2cpY", "plus_code": {"compound_code": "9W34+R6 Mexico City, CDMX, Mexico", "global_code": "76F29W34+R6"}, "reference": "ChIJ_6HhleT90YURoH1bu9I2cpY", "scope": "GOOGLE", "types": ["pharmacy", "health", "point_of_interest", "store", "establishment"], "vicinity": "San Pedro 16, El Santuario, Ciudad de M\u00e9xico"}, {"business_status": "OPERATIONAL", "geometry": {"location": {"lat": 19.3521518, "lng": -99.0884768}, "viewport": {"northeast": {"lat": 19.3535023302915, "lng": -99.08711771970847}, "southwest": {"lat": 19.3508043697085, "lng": -99.0898156802915}}}, "icon": "https://maps.gstatic.com/mapfiles/place_api/icons/v1/png_71/pharmacy-71.png", "name": "Farmacia Dra.Adry", "place_id": "ChIJb3nAO_D90YURaxQUV3fL528", "plus_code": {"compound_code": "9W26+VJ Mexico City, CDMX, Mexico", "global_code": "76F29W26+VJ"}, "reference": "ChIJb3nAO_D90YURaxQUV3fL528", "scope": "GOOGLE", "types": ["pharmacy", "health", "point_of_interest", "store", "establishment"], "vicinity": "San Marcos 45, Santa Mar\u00eda del Monte, Ciudad de M\u00e9xico"}]