[{"business_status": "OPERATIONAL", "formatted_address": "Esquina Netzahualpilli, Av Estrella 10, Estrella del Sur, Iztapalapa, 09820 Ciudad de M\u00e9xico, CDMX", "geometry": {"location": {"lat": 19.3528321, "lng": -99.09916799999999}, "viewport": {"northeast": {"lat": 19.35421262989273, "lng": -99.09779362010728}, "southwest": {"lat": 19.35151297010728, "lng": -99.10049327989273}}}, "icon": "https://maps.gstatic.com/mapfiles/place_api/icons/v1/png_71/pharmacy-71.png", "name": "FARMACIAS GI", "opening_hours": {"open_now": true}, "place_id": "ChIJraxG0uL90YURmqGX12AoQgg", "plus_code": {"compound_code": "9W32+48 Mexico City", "global_code": "76F29W32+48"}, "rating": 4.5, "reference": "ChIJraxG0uL90YURmqGX12AoQgg", "types": ["pharmacy", "health", "point_of_interest", "store", "establishment"], "user_ratings_total": 2}, {"business_status": "OPERATIONAL", "formatted_address": "Calle Cuauht\u00e9moc 6, Estrella del Sur, Iztapalapa, 09820 Ciudad de M\u00e9xico, CDMX", "geometry": {"location": {"lat": 19.3463302, "lng": -99.0989338}, "viewport": {"northeast": {"lat": 19.34759322989273, "lng": -99.09733247010728}, "southwest": {"lat": 19.34489357010728, "lng": -99.10003212989271}}}, "icon": "https://maps.gstatic.com/mapfiles/place_api/icons/v1/png_71/pharmacy-71.png", "name": "FARMACIA", "opening_hours": {"open_now": true}, "place_id": "ChIJ7cVbef790YURGTpoAXTdqY8", "plus_code": {"compound_code": "8WW2+GC Mexico City", "global_code": "76F28WW2+GC"}, "rating": 0, "reference": "ChIJ7cVbef790YURGTpoAXTdqY8", "types": ["pharmacy", "health", "point_of_interest", "store", "establishment"], "user_ratings_total": 0}, {"business_status": "OPERATIONAL", "formatted_address": "Puentetitla 40, Ricardo Flores Mag\u00f3n, Iztapalapa, 09820 Ciudad de M\u00e9xico, CDMX", "geometry": {"location": {"lat": 19.354878, "lng": -99.09874099999999}, "viewport": {"northeast": {"lat": 19.35623807989272, "lng": -99.09741882010728}, "southwest": {"lat": 19.35353842010728, "lng": -99.10011847989273}}}, "icon": "https://maps.gstatic.com/mapfiles/place_api/icons/v1/png_71/pharmacy-71.png", "name": "Farmacia de Gen\u00e9ricos", "opening_hours": {"open_now": true}, "place_id": "ChIJQb0r_eL90YURJlxN-8jOqV4", "plus_code": {"compound_code": "9W32+XG Mexico City", "global_code": "76F29W32+XG"}, "rating": 0, "reference": "ChIJQb0r_eL90YURJlxN-8jOqV4", "types": ["pharmacy", "health", "point_of_interest", "store", "establishment"], "user_ratings_total": 0}, {"business_status": "OPERATIONAL", "formatted_address": "San Marcos 45, Santa Mar\u00eda del Monte, Iztapalapa, 09838 Ciudad de M\u00e9xico, CDMX", "geometry": {"location": {"lat": 19.3521518, "lng": -99.0884768}, "viewport": {"northeast": {"lat": 19.35350317989272, "lng": -99.08711687010727}, "southwest": {"lat": 19.35080352010727, "lng": -99.08981652989272}}}, "icon": "https://maps.gstatic.com/mapfiles/place_api/icons/v1/png_71/pharmacy-71.png", "name": "Farmacia Dra.Adry", "place_id": "ChIJb3nAO_D90YURaxQUV3fL528", "plus_code": {"compound_code": "9W26+VJ Mexico City", "global_code": "76F29W26+VJ"}, "rating": 0, "reference": "ChIJb3nAO_D90YURaxQUV3fL528", "types": ["pharmacy", "health", "point_of_interest", "store", "establishment"], "user_ratings_total": 0}, {"business_status": "OPERATIONAL", "formatted_address": "Privada Ermita Iztapalapa 1370, Ricardo Flores Mag\u00f3n, Iztapalapa, 09000 Ciudad de M\u00e9xico, CDMX", "geometry": {"location": {"lat": 19.3553961, "lng": -99.0968339}, "viewport": {"northeast": {"lat": 19.35674237989272, "lng": -99.09543682010728}, "southwest": {"lat": 19.35404272010728, "lng": -99.09813647989273}}}, "icon": "https://maps.gstatic.com/mapfiles/place_api/icons/v1/png_71/pharmacy-71.png", "name": "Farmacias de Gen\u00e9ricos", "place_id": "ChIJ6aC6zeX90YURpAhLhhVx2Fc", "plus_code": {"compound_code": "9W43+57 Mexico City", "global_code": "76F29W43+57"}, "rating": 0, "reference": "ChIJ6aC6zeX90YURpAhLhhVx2Fc", "types": ["pharmacy", "health", "point_of_interest", "store", "establishment"], "user_ratings_total": 0}, {"business_status": "OPERATIONAL", "formatted_address": "San Pedro 25, El Santuario, Iztapalapa, 09820 Ciudad de M\u00e9xico, CDMX", "geometry": {"location": {"lat": 19.3543264, "lng": -99.09479859999999}, "viewport": {"northeast": {"lat": 19.35568462989272, "lng": -99.09345227010729}, "southwest": {"lat": 19.35298497010728, "lng": -99.09615192989273}}}, "icon": "https://maps.gstatic.com/mapfiles/place_api/icons/v1/png_71/generic_business-71.png", "name": "Farmacia ANGY", "opening_hours": {"open_now": true}, "place_id": "ChIJ_6HhleT90YURkUwA9yYkcug", "plus_code": {"compound_code": "9W34+P3 Mexico City", "global_code": "76F29W34+P3"}, "rating": 5, "reference": "ChIJ_6HhleT90YURkUwA9yYkcug", "types": ["drugstore", "pharmacy", "dentist", "health", "point_of_interest", "store", "establishment"], "user_ratings_total": 3}, {"business_status": "OPERATIONAL", "formatted_address": "Convento 74, Amp el Santuario, Iztapalapa, 09820 Ciudad de M\u00e9xico, CDMX", "geometry": {"location": {"lat": 19.3534859, "lng": -99.0947048}, "viewport": {"northeast": {"lat": 19.35483462989272, "lng": -99.09336167010727}, "southwest": {"lat": 19.35213497010728, "lng": -99.09606132989272}}}, "icon": "https://maps.gstatic.com/mapfiles/place_api/icons/v1/png_71/pharmacy-71.png", "name": "Farmacia Aries", "place_id": "ChIJGfb_meT90YURgZEegK1bRcw", "plus_code": {"compound_code": "9W34+94 Mexico City", "global_code": "76F29W34+94"}, "rating": 5, "reference": "ChIJGfb_meT90YURgZEegK1bRcw", "types": ["pharmacy", "health", "point_of_interest", "store", "establishment"], "user_ratings_total": 2}, {"business_status": "OPERATIONAL", "formatted_address": "Tlaxcanes 2, Ricardo Flores Mag\u00f3n, Iztapalapa, 09820 Ciudad de M\u00e9xico, CDMX", "geometry": {"location": {"lat": 19.3543157, "lng": -99.098951}, "viewport": {"northeast": {"lat": 19.35569472989272, "lng": -99.09758867010727}, "southwest": {"lat": 19.35299507010728, "lng": -99.10028832989272}}}, "icon": "https://maps.gstatic.com/mapfiles/place_api/icons/v1/png_71/pharmacy-71.png", "name": "Farmacia Genericos GIAN", "opening_hours": {"open_now": true}, "place_id": "ChIJF0Qv4eL90YURLMWKzZ9gGVY", "plus_code": {"compound_code": "9W32+PC Mexico City", "global_code": "76F29W32+PC"}, "rating": 5, "reference": "ChIJF0Qv4eL90YURLMWKzZ9gGVY", "types": ["pharmacy", "health", "point_of_interest", "store", "establishment"], "user_ratings_total": 2}, {"business_status": "OPERATIONAL", "formatted_address": "Tlaxcanes 21, Ricardo Flores Mag\u00f3n, Iztapalapa, 09820 Ciudad de M\u00e9xico, CDMX", "geometry": {"location": {"lat": 19.3540424, "lng": -99.09836849999999}, "viewport": {"northeast": {"lat": 19.35540702989272, "lng": -99.09701237010728}, "southwest": {"lat": 19.35270737010728, "lng": -99.09971202989273}}}, "icon": "https://maps.gstatic.com/mapfiles/place_api/icons/v1/png_71/pharmacy-71.png", "name": "Farmacia \"Vinaly\"", "place_id": "ChIJUYC3IeP90YURNWCvEXm3eQg", "plus_code": {"compound_code": "9W32+JM Mexico City", "global_code": "76F29W32+JM"}, "rating": 0, "reference": "ChIJUYC3IeP90YURNWCvEXm3eQg", "types": ["pharmacy", "health", "point_of_interest", "store", "establishment"], "user_ratings_total": 0}, {"business_status": "OPERATIONAL", "formatted_address": "Privada Ermita Iztapalapa Lote 3, Santa Cruz, Iztapalapa, 09700 Ciudad de M\u00e9xico, CDMX", "geometry": {"location": {"lat": 19.3563837, "lng": -99.09816029999999}, "viewport": {"northeast": {"lat": 19.35776762989272, "lng": -99.09685737010727}, "southwest": {"lat": 19.35506797010728, "lng": -99.09955702989272}}}, "icon": "https://maps.gstatic.com/mapfiles/place_api/icons/v1/png_71/pharmacy-71.png", "name": "Farmapronto", "place_id": "ChIJvT9vduP90YURpPXCcvM4urk", "plus_code": {"compound_code": "9W42+HP Mexico City", "global_code": "76F29W42+HP"}, "rating": 3, "reference": "ChIJvT9vduP90YURpPXCcvM4urk", "types": ["pharmacy", "health", "point_of_interest", "store", "establishment"], "user_ratings_total": 1}, {"business_status": "OPERATIONAL", "formatted_address": "Estrella del Sur, Iztapalapa, 09820 Mexico City", "geometry": {"location": {"lat": 19.3507911, "lng": -99.09927909999999}, "viewport": {"northeast": {"lat": 19.35209872989272, "lng": -99.09797022010727}, "southwest": {"lat": 19.34939907010728, "lng": -99.1006698798927}}}, "icon": "https://maps.gstatic.com/mapfiles/place_api/icons/v1/png_71/pharmacy-71.png", "name": "Farmacia Similares", "place_id": "ChIJc6oxBnX90YUR5Xj6WIjVs8s", "plus_code": {"compound_code": "9W22+87 Mexico City", "global_code": "76F29W22+87"}, "rating": 0, "reference": "ChIJc6oxBnX90YUR5Xj6WIjVs8s", "types": ["pharmacy", "health", "point_of_interest", "store", "establishment"], "user_ratings_total": 0}, {"business_status": "OPERATIONAL", "formatted_address": "Ermita Iztapalapa 1441, El Manto, Iztapalapa, 09960 Ciudad de M\u00e9xico, CDMX", "geometry": {"location": {"lat": 19.3558316, "lng": -99.0862904}, "viewport": {"northeast": {"lat": 19.35730732989272, "lng": -99.08484062010729}, "southwest": {"lat": 19.35460767010728, "lng": -99.08754027989274}}}, "icon": "https://maps.gstatic.com/mapfiles/place_api/icons/v1/png_71/pharmacy-71.png", "name": "Farmacia Farmatodo", "opening_hours": {"open_now": true}, "photos": [{"height": 2322, "html_attributions": ["<a href=\"https://maps.google.com/maps/contrib/105706215168553258271\">Anton Milla</a>"], "photo_reference": "CmRaAAAAzBCJKuRX8CWGodfsnZRdikDl6T9j86vIIsgWEYHRdoz4LXZzNFBrrI0IquoMDBPi6QhyFGQoJIFKlNcp1vBBdAjxcR7q-56QvsPbqY-IXY0ukSkQhuW2gZAAdSTkN25KEhDVXu9yZulr2oUEgYs12DZKGhQ9c-wujR70iF4Kpr1VAA7vZCE2Aw", "width": 4128}], "place_id": "ChIJdRw2WO790YURzQp2xzgXXR8", "plus_code": {"compound_code": "9W47+8F Mexico City", "global_code": "76F29W47+8F"}, "rating": 4, "reference": "ChIJdRw2WO790YURzQp2xzgXXR8", "types": ["pharmacy", "health", "point_of_interest", "store", "establishment"], "user_ratings_total": 10}, {"business_status": "OPERATIONAL", "formatted_address": "Callej\u00f3n Estrella 13, San Pablo, Iztapalapa, 09000 Ciudad de M\u00e9xico, CDMX", "geometry": {"location": {"lat": 19.3573556, "lng": -99.0898768}, "viewport": {"northeast": {"lat": 19.35879282989272, "lng": -99.08839992010728}, "southwest": {"lat": 19.35609317010728, "lng": -99.09109957989273}}}, "icon": "https://maps.gstatic.com/mapfiles/place_api/icons/v1/png_71/pharmacy-71.png", "name": "Farmacia Homeopatica Rosano", "place_id": "ChIJ3WeuZ-_90YURVC_EqgbIkZI", "plus_code": {"compound_code": "9W46+W2 Mexico City", "global_code": "76F29W46+W2"}, "rating": 3, "reference": "ChIJ3WeuZ-_90YURVC_EqgbIkZI", "types": ["pharmacy", "health", "point_of_interest", "store", "establishment"], "user_ratings_total": 1}, {"business_status": "OPERATIONAL", "formatted_address": "Tlacositiluyac, Puentetitla esquina, Amp Ricardo Flores Mag\u00f3n, Iztapalapa, 09820 Ciudad de M\u00e9xico, CDMX", "geometry": {"location": {"lat": 19.3536576, "lng": -99.0993716}, "viewport": {"northeast": {"lat": 19.35500122989272, "lng": -99.09800527010728}, "southwest": {"lat": 19.35230157010728, "lng": -99.10070492989271}}}, "icon": "https://maps.gstatic.com/mapfiles/place_api/icons/v1/png_71/pharmacy-71.png", "name": "Farmacia Farma Titla", "opening_hours": {"open_now": true}, "photos": [{"height": 2336, "html_attributions": ["<a href=\"https://maps.google.com/maps/contrib/112583901177899161197\">Marco Antonio Mendoza</a>"], "photo_reference": "CmRaAAAA22-mlIgAKtsJqGJ_893CWA9z4y0m_SEDuCuqNC65MvZSLWyglhRXi1mLavXpuplAwyO888Au6DS5vK17iMDQdNvbarCVSzvZnYQohfFd445928aKPlXE6YKvNqEdWc1vEhDQIx3R2rUpNA7EsfISrkh3GhQeFHAVAf-u-4N-fVWvWywHPRWl1g", "width": 4160}], "place_id": "ChIJJQXsxOL90YUR7fuD1op-vg4", "plus_code": {"compound_code": "9W32+F7 Mexico City", "global_code": "76F29W32+F7"}, "rating": 4.7, "reference": "ChIJJQXsxOL90YUR7fuD1op-vg4", "types": ["pharmacy", "health", "point_of_interest", "store", "establishment"], "user_ratings_total": 3}, {"business_status": "OPERATIONAL", "formatted_address": "Javier, Av. Javier Rojo G\u00f3mez 3, San Miguel, Iztapalapa, 09360 CDMX", "geometry": {"location": {"lat": 19.3567794, "lng": -99.0862796}, "viewport": {"northeast": {"lat": 19.35815977989272, "lng": -99.08499182010728}, "southwest": {"lat": 19.35546012010728, "lng": -99.08769147989273}}}, "icon": "https://maps.gstatic.com/mapfiles/place_api/icons/v1/png_71/pharmacy-71.png", "name": "Farmacias YZA", "opening_hours": {"open_now": true}, "photos": [{"height": 4608, "html_attributions": ["<a href=\"https://maps.google.com/maps/contrib/101226785813533469313\">A Google User</a>"], "photo_reference": "CmRaAAAAoFr0gz_NOBx26tIzz4TQ7VK5eeAizWt_SaeglE3rmg73Ec6LbeolCOOB7VsRcjsGnK3OI6TJ3Msu-HMewOBGpB9sUodv_okBvkMwstQcdfNzmHo-heVh9kcA_zOn49QbEhAlQf72Yz7lgGJBNudTNlOiGhSpBhNjKZo9svP67b2NqM6eon0t_Q", "width": 3456}], "place_id": "ChIJiS75FRX90YURMYB0kUaVGyI", "plus_code": {"compound_code": "9W47+PF San Miguel, Mexico City", "global_code": "76F29W47+PF"}, "rating": 4, "reference": "ChIJiS75FRX90YURMYB0kUaVGyI", "types": ["pharmacy", "health", "point_of_interest", "store", "establishment"], "user_ratings_total": 2}, {"business_status": "OPERATIONAL", "formatted_address": "Xochitl Manzana 34, Estrella del Sur, Iztapalapa, 09820 Ciudad de M\u00e9xico, CDMX", "geometry": {"location": {"lat": 19.3473279, "lng": -99.0996531}, "viewport": {"northeast": {"lat": 19.34867037989273, "lng": -99.09827842010728}, "southwest": {"lat": 19.34597072010728, "lng": -99.10097807989273}}}, "icon": "https://maps.gstatic.com/mapfiles/place_api/icons/v1/png_71/pharmacy-71.png", "name": "Farmacia La Pildorita", "opening_hours": {"open_now": true}, "place_id": "ChIJKw9h2_390YURXOjofE7fHjg", "plus_code": {"compound_code": "8WW2+W4 Estrella del Sur, Mexico City", "global_code": "76F28WW2+W4"}, "rating": 5, "reference": "ChIJKw9h2_390YURXOjofE7fHjg", "types": ["pharmacy", "health", "point_of_interest", "store", "establishment"], "user_ratings_total": 4}, {"business_status": "OPERATIONAL", "formatted_address": "Ermita Iztapalapa 947, Santa Isabel Industrial, Iztapalapa, 09820 Ciudad de M\u00e9xico, CDMX", "geometry": {"location": {"lat": 19.3555954, "lng": -99.10117699999999}, "viewport": {"northeast": {"lat": 19.35700172989272, "lng": -99.09982602010729}, "southwest": {"lat": 19.35430207010728, "lng": -99.10252567989272}}}, "icon": "https://maps.gstatic.com/mapfiles/place_api/icons/v1/png_71/pharmacy-71.png", "name": "Farmacias YZA", "opening_hours": {"open_now": true}, "place_id": "ChIJ-_v2JP790YURVHvRxq1FgpA", "plus_code": {"compound_code": "9V4X+6G Mexico City", "global_code": "76F29V4X+6G"}, "rating": 0, "reference": "ChIJ-_v2JP790YURVHvRxq1FgpA", "types": ["pharmacy", "health", "point_of_interest", "store", "establishment"], "user_ratings_total": 0}, {"business_status": "OPERATIONAL", "formatted_address": "Camino Cerro de la Estrella 34, San Pablo, Iztapalapa, 09000 Ciudad de M\u00e9xico, CDMX", "geometry": {"location": {"lat": 19.3565799, "lng": -99.09024749999999}, "viewport": {"northeast": {"lat": 19.35797337989272, "lng": -99.08883992010728}, "southwest": {"lat": 19.35527372010728, "lng": -99.09153957989272}}}, "icon": "https://maps.gstatic.com/mapfiles/place_api/icons/v1/png_71/pharmacy-71.png", "name": "FARMACIA DE GENERICOS", "opening_hours": {"open_now": false}, "place_id": "ChIJDQ2mfe_90YURydnCayPtxmo", "plus_code": {"compound_code": "9W45+JW Mexico City", "global_code": "76F29W45+JW"}, "rating": 0, "reference": "ChIJDQ2mfe_90YURydnCayPtxmo", "types": ["pharmacy", "health", "point_of_interest", "store", "establishment"], "user_ratings_total": 0}, {"business_status": "OPERATIONAL", "formatted_address": "Amp Ricardo Flores Mag\u00f3n, Iztapalapa, 09828 Mexico City", "geometry": {"location": {"lat": 19.3562253, "lng": -99.0984818}, "viewport": {"northeast": {"lat": 19.35756502989272, "lng": -99.09710922010727}, "southwest": {"lat": 19.35486537010728, "lng": -99.09980887989272}}}, "icon": "https://maps.gstatic.com/mapfiles/place_api/icons/v1/png_71/pharmacy-71.png", "name": "Farmacia similares", "place_id": "ChIJyW_q0cT90YURHOpu43b-F5s", "plus_code": {"compound_code": "9W42+FJ Mexico City", "global_code": "76F29W42+FJ"}, "rating": 0, "reference": "ChIJyW_q0cT90YURHOpu43b-F5s", "types": ["pharmacy", "health", "point_of_interest", "store", "establishment"], "user_ratings_total": 0}, {"business_status": "OPERATIONAL", "formatted_address": "Privada Ermita Iztapalapa 595, Granjas Esmeralda, Iztapalapa, 09810 Ciudad de M\u00e9xico, CDMX", "geometry": {"location": {"lat": 19.3555978, "lng": -99.1002491}, "viewport": {"northeast": {"lat": 19.35689502989272, "lng": -99.09864487010726}, "southwest": {"lat": 19.35419537010727, "lng": -99.10134452989271}}}, "icon": "https://maps.gstatic.com/mapfiles/place_api/icons/v1/png_71/pharmacy-71.png", "name": "Farmacia de Dios", "place_id": "ChIJs-3PYeL90YURluPewltzkgU", "plus_code": {"compound_code": "9V4X+6W Mexico City", "global_code": "76F29V4X+6W"}, "rating": 0, "reference": "ChIJs-3PYeL90YURluPewltzkgU", "types": ["pharmacy", "health", "point_of_interest", "store", "establishment"], "user_ratings_total": 0}]