[{"business_status": "OPERATIONAL", "formatted_address": "Porfirio D\u00edaz 6, San Lucas, Iztapalapa, 09000 Ciudad de M\u00e9xico, CDMX", "geometry": {"location": {"lat": 19.3570664, "lng": -99.0978949}, "viewport": {"northeast": {"lat": 19.35832022989272, "lng": -99.09647817010729}, "southwest": {"lat": 19.35562057010727, "lng": -99.09917782989272}}}, "icon": "https://maps.gstatic.com/mapfiles/place_api/icons/v1/png_71/parking-71.png", "name": "ESTACIONAMIENTO PUBLICO", "opening_hours": {"open_now": true}, "place_id": "ChIJMfjfueP90YURCygu0jltuFw", "plus_code": {"compound_code": "9W42+RR Mexico City", "global_code": "76F29W42+RR"}, "rating": 0, "reference": "ChIJMfjfueP90YURCygu0jltuFw", "types": ["parking", "point_of_interest", "establishment"], "user_ratings_total": 0}, {"business_status": "OPERATIONAL", "formatted_address": "Camino Cerro de la Estrella 35B, San Pablo, Iztapalapa, 09000 Ciudad de M\u00e9xico, CDMX", "geometry": {"location": {"lat": 19.3570217, "lng": -99.0904154}, "viewport": {"northeast": {"lat": 19.35837702989272, "lng": -99.08903542010728}, "southwest": {"lat": 19.35567737010728, "lng": -99.09173507989271}}}, "icon": "https://maps.gstatic.com/mapfiles/place_api/icons/v1/png_71/parking-71.png", "name": "Estacionamientos Pension O'car", "opening_hours": {"open_now": true}, "place_id": "ChIJlyGUieX90YUR6Sb_wg6kv8U", "plus_code": {"compound_code": "9W45+RR Mexico City", "global_code": "76F29W45+RR"}, "rating": 4.7, "reference": "ChIJlyGUieX90YUR6Sb_wg6kv8U", "types": ["parking", "point_of_interest", "establishment"], "user_ratings_total": 6}, {"business_status": "OPERATIONAL", "formatted_address": "Ermita Iztapalapa 1137, San Pablo, Iztapalapa, 09000 Ciudad de M\u00e9xico, CDMX", "geometry": {"location": {"lat": 19.3580327, "lng": -99.0890793}, "viewport": {"northeast": {"lat": 19.35950207989272, "lng": -99.08763592010727}, "southwest": {"lat": 19.35680242010728, "lng": -99.09033557989272}}}, "icon": "https://maps.gstatic.com/mapfiles/place_api/icons/v1/png_71/parking-71.png", "name": "Estacionamiento P\u00fablico", "opening_hours": {"open_now": true}, "photos": [{"height": 1920, "html_attributions": ["<a href=\"https://maps.google.com/maps/contrib/102195338686392953387\">A Google User</a>"], "photo_reference": "CmRaAAAA6s-8HtZTh2G_LF-OwEasggVimA8RibFem23r2Yy179A5XLdYJYvLVuK1ix2aBTdedorfuQBOJcDCh5Bd18kl-Iv_aTjw7IpagVOHQNxKzAKFSucJqIvL3vJncqOBhEITEhCFOP6bzZ9YX3vJ1hdXKliTGhQbwamAD0idcVAhbsGcmCpKmoVR2g", "width": 1080}], "place_id": "ChIJtU31R-_90YURfFLpLC0Snt8", "plus_code": {"compound_code": "9W56+69 Mexico City", "global_code": "76F29W56+69"}, "rating": 3, "reference": "ChIJtU31R-_90YURfFLpLC0Snt8", "types": ["parking", "point_of_interest", "establishment"], "user_ratings_total": 3}, {"business_status": "OPERATIONAL", "formatted_address": "Camino Cerro de la Estrella No. 30, San Pablo, Iztapalapa, 09000 Ciudad de M\u00e9xico, CDMX", "geometry": {"location": {"lat": 19.3601399, "lng": -99.089573}, "viewport": {"northeast": {"lat": 19.36146957989272, "lng": -99.08816097010728}, "southwest": {"lat": 19.35876992010727, "lng": -99.09086062989272}}}, "icon": "https://maps.gstatic.com/mapfiles/place_api/icons/v1/png_71/parking-71.png", "name": "Estacionamento Publico", "opening_hours": {"open_now": true}, "photos": [{"height": 2988, "html_attributions": ["<a href=\"https://maps.google.com/maps/contrib/109971162484350811929\">jose rangel</a>"], "photo_reference": "CmRaAAAAl-yUWGK5ELrU0xDYJJJjvEoUon0Zak32ksKShqAwdq_R8aEkrEBEvqXNY9-4RWxFY8dkgzVjapPn33VFf6L6PvikwraZJXicFjvXZwK6G30inHKU6g8rSeTJHCMakhjSEhCyJCY3xHDITwo9MtJLoRuVGhSyt7Lf57zOJfbjgsH7IJ5dub7jQA", "width": 5312}], "place_id": "ChIJuX-dvOj90YURmhs-ZTYf3rA", "plus_code": {"compound_code": "9W66+35 Mexico City", "global_code": "76F29W66+35"}, "rating": 4.1, "reference": "ChIJuX-dvOj90YURmhs-ZTYf3rA", "types": ["parking", "point_of_interest", "establishment"], "user_ratings_total": 15}, {"business_status": "OPERATIONAL", "formatted_address": "Porfirio D\u00edaz 126, San Lucas, Iztapalapa, 09000 Ciudad de M\u00e9xico, CDMX", "geometry": {"location": {"lat": 19.3592151, "lng": -99.0951161}, "viewport": {"northeast": {"lat": 19.36050292989272, "lng": -99.09378502010728}, "southwest": {"lat": 19.35780327010728, "lng": -99.09648467989271}}}, "icon": "https://maps.gstatic.com/mapfiles/place_api/icons/v1/png_71/parking-71.png", "name": "Estacionamiento P\u00fablico", "opening_hours": {"open_now": true}, "place_id": "ChIJixD5oeb90YURPnWguXgduM0", "plus_code": {"compound_code": "9W53+MX Mexico City", "global_code": "76F29W53+MX"}, "rating": 3.5, "reference": "ChIJixD5oeb90YURPnWguXgduM0", "types": ["parking", "point_of_interest", "establishment"], "user_ratings_total": 2}, {"business_status": "OPERATIONAL", "formatted_address": "Palacio 6, La Asunci\u00f3n, Iztapalapa, 09000 Ciudad de M\u00e9xico, CDMX", "geometry": {"location": {"lat": 19.3617038, "lng": -99.09403689999999}, "viewport": {"northeast": {"lat": 19.36303527989272, "lng": -99.09269347010729}, "southwest": {"lat": 19.36033562010728, "lng": -99.09539312989273}}}, "icon": "https://maps.gstatic.com/mapfiles/place_api/icons/v1/png_71/parking-71.png", "name": "Estacionamiento Publico", "opening_hours": {"open_now": true}, "place_id": "ChIJ3Yx-4ub90YURw5JhfmONDJU", "plus_code": {"compound_code": "9W64+M9 Mexico City", "global_code": "76F29W64+M9"}, "rating": 4, "reference": "ChIJ3Yx-4ub90YURw5JhfmONDJU", "types": ["parking", "point_of_interest", "establishment"], "user_ratings_total": 1}, {"business_status": "OPERATIONAL", "formatted_address": "Cerrada Iturbide 3, San Lucas, Iztapalapa, 09000 Ciudad de M\u00e9xico, CDMX", "geometry": {"location": {"lat": 19.3615652, "lng": -99.09608340000001}, "viewport": {"northeast": {"lat": 19.36294277989272, "lng": -99.09484882010729}, "southwest": {"lat": 19.36024312010727, "lng": -99.09754847989274}}}, "icon": "https://maps.gstatic.com/mapfiles/place_api/icons/v1/png_71/parking-71.png", "name": "Estacionamiento Publico", "opening_hours": {"open_now": true}, "place_id": "ChIJMYbbKeH90YURpOar27fBliY", "plus_code": {"compound_code": "9W63+JH Mexico City", "global_code": "76F29W63+JH"}, "rating": 0, "reference": "ChIJMYbbKeH90YURpOar27fBliY", "types": ["parking", "point_of_interest", "establishment"], "user_ratings_total": 0}, {"business_status": "OPERATIONAL", "formatted_address": "Antiguo Camino a Los Reyes 54G, Amp Ricardo Flores Mag\u00f3n, Iztapalapa, 09820 Ciudad de M\u00e9xico, CDMX", "geometry": {"location": {"lat": 19.3551842, "lng": -99.1011297}, "viewport": {"northeast": {"lat": 19.35660152989272, "lng": -99.09983162010728}, "southwest": {"lat": 19.35390187010728, "lng": -99.10253127989272}}}, "icon": "https://maps.gstatic.com/mapfiles/place_api/icons/v1/png_71/parking-71.png", "name": "Estacionamiento Atlalilco", "opening_hours": {"open_now": true}, "place_id": "ChIJS-9tgeL90YURnsOB6VKV0Hg", "plus_code": {"compound_code": "9V4X+3G Mexico City", "global_code": "76F29V4X+3G"}, "rating": 1, "reference": "ChIJS-9tgeL90YURnsOB6VKV0Hg", "types": ["parking", "point_of_interest", "establishment"], "user_ratings_total": 2}, {"business_status": "OPERATIONAL", "formatted_address": "Calle 3er Anillo de Circunvalaci\u00f3n 226, Sta B\u00e1rbara, Iztapalapa, 09000 Ciudad de M\u00e9xico, CDMX", "geometry": {"location": {"lat": 19.3598199, "lng": -99.105629}, "viewport": {"northeast": {"lat": 19.36117437989272, "lng": -99.10429597010729}, "southwest": {"lat": 19.35847472010728, "lng": -99.10699562989272}}}, "icon": "https://maps.gstatic.com/mapfiles/place_api/icons/v1/png_71/parking-71.png", "name": "Estacionamiento P\u00fablico Y Pensi\u00f2n", "opening_hours": {"open_now": true}, "place_id": "ChIJn65M7wv-0YURmFHWLDKX4dQ", "plus_code": {"compound_code": "9V5V+WP Mexico City", "global_code": "76F29V5V+WP"}, "rating": 4.5, "reference": "ChIJn65M7wv-0YURmFHWLDKX4dQ", "types": ["parking", "point_of_interest", "establishment"], "user_ratings_total": 2}, {"business_status": "OPERATIONAL", "formatted_address": "Lerdo de Tejada 20, La Asunci\u00f3n, Iztapalapa, 09000 Ciudad de M\u00e9xico, CDMX", "geometry": {"location": {"lat": 19.3612108, "lng": -99.092276}, "viewport": {"northeast": {"lat": 19.36248542989272, "lng": -99.09094962010728}, "southwest": {"lat": 19.35978577010728, "lng": -99.09364927989273}}}, "icon": "https://maps.gstatic.com/mapfiles/place_api/icons/v1/png_71/parking-71.png", "name": "Estacionamiento San Lucas", "opening_hours": {"open_now": true}, "place_id": "ChIJ6YvHT-b90YURmJCwEqJXR_s", "plus_code": {"compound_code": "9W65+F3 Mexico City", "global_code": "76F29W65+F3"}, "rating": 4.4, "reference": "ChIJ6YvHT-b90YURmJCwEqJXR_s", "types": ["parking", "point_of_interest", "establishment"], "user_ratings_total": 5}, {"business_status": "OPERATIONAL", "formatted_address": "Ermita Iztapalapa 1264, San Pablo, Iztapalapa, 09000 Ciudad de M\u00e9xico, CDMX", "geometry": {"location": {"lat": 19.3584218, "lng": -99.0915375}, "viewport": {"northeast": {"lat": 19.35971227989272, "lng": -99.09017207010727}, "southwest": {"lat": 19.35701262010727, "lng": -99.09287172989272}}}, "icon": "https://maps.gstatic.com/mapfiles/place_api/icons/v1/png_71/parking-71.png", "name": "ESTACIOMIENTO PUBLICO", "opening_hours": {"open_now": true}, "place_id": "ChIJTxsa5-X90YURzT2YbXA_RSI", "plus_code": {"compound_code": "9W55+99 Mexico City", "global_code": "76F29W55+99"}, "rating": 4.7, "reference": "ChIJTxsa5-X90YURzT2YbXA_RSI", "types": ["parking", "point_of_interest", "establishment"], "user_ratings_total": 3}, {"business_status": "OPERATIONAL", "formatted_address": "Av. Tlahuac 3423, Los Reyes Culhuacan, Iztapalapa, 09840 Ciudad de M\u00e9xico, CDMX", "geometry": {"location": {"lat": 19.3437784, "lng": -99.10794659999999}, "viewport": {"northeast": {"lat": 19.34512377989272, "lng": -99.10657032010728}, "southwest": {"lat": 19.34242412010727, "lng": -99.10926997989272}}}, "icon": "https://maps.gstatic.com/mapfiles/place_api/icons/v1/png_71/parking-71.png", "name": "Estacionamiento", "place_id": "ChIJTZ9NyQP-0YURY1RaLUMY32w", "plus_code": {"compound_code": "8VVR+GR Mexico City", "global_code": "76F28VVR+GR"}, "rating": 0, "reference": "ChIJTZ9NyQP-0YURY1RaLUMY32w", "types": ["parking", "point_of_interest", "establishment"], "user_ratings_total": 0}, {"business_status": "OPERATIONAL", "formatted_address": "Calle 2 232, Granjas San Antonio, Iztapalapa, 09070 Ciudad de M\u00e9xico, CDMX", "geometry": {"location": {"lat": 19.3576117, "lng": -99.10882099999999}, "viewport": {"northeast": {"lat": 19.35903737989272, "lng": -99.10746347010726}, "southwest": {"lat": 19.35633772010728, "lng": -99.11016312989271}}}, "icon": "https://maps.gstatic.com/mapfiles/place_api/icons/v1/png_71/parking-71.png", "name": "Estacionamiento P\u00fablico", "place_id": "ChIJXWwRWnD_0YUR77YTfpP5n7E", "plus_code": {"compound_code": "9V5R+2F Mexico City", "global_code": "76F29V5R+2F"}, "rating": 1, "reference": "ChIJXWwRWnD_0YUR77YTfpP5n7E", "types": ["parking", "point_of_interest", "establishment"], "user_ratings_total": 1}, {"business_status": "OPERATIONAL", "formatted_address": "Porfirio D\u00edaz 119, San Lucas, Iztapalapa, 09000 Ciudad de M\u00e9xico, CDMX", "geometry": {"location": {"lat": 19.3588008, "lng": -99.0947475}, "viewport": {"northeast": {"lat": 19.36016612989272, "lng": -99.09340837010728}, "southwest": {"lat": 19.35746647010728, "lng": -99.09610802989273}}}, "icon": "https://maps.gstatic.com/mapfiles/place_api/icons/v1/png_71/parking-71.png", "name": "AutoLavado San Lucaa", "opening_hours": {"open_now": true}, "place_id": "ChIJ_02woOb90YURKpvvDjJl-VU", "plus_code": {"compound_code": "9W54+G4 Mexico City", "global_code": "76F29W54+G4"}, "rating": 5, "reference": "ChIJ_02woOb90YURKpvvDjJl-VU", "types": ["parking", "point_of_interest", "establishment"], "user_ratings_total": 1}, {"business_status": "OPERATIONAL", "formatted_address": "Ermita Iztapalapa 927, Ricardo Flores Mag\u00f3n, Iztapalapa, 09820 Ciudad de M\u00e9xico, CDMX", "geometry": {"location": {"lat": 19.355439, "lng": -99.1021371}, "viewport": {"northeast": {"lat": 19.35679372989272, "lng": -99.10082447010727}, "southwest": {"lat": 19.35409407010728, "lng": -99.10352412989272}}}, "icon": "https://maps.gstatic.com/mapfiles/place_api/icons/v1/png_71/parking-71.png", "name": "Park Plaza Aristeum", "opening_hours": {"open_now": true}, "photos": [{"height": 5520, "html_attributions": ["<a href=\"https://maps.google.com/maps/contrib/117548538095976843674\">Faby</a>"], "photo_reference": "CmRaAAAAECDw2oJ0NrkyfoQlN5ps_HiGM5o4pkG7Oii-VL5PPCqFtjStubytBXQo9R3a_ETKexbBQkNLK5iQQQG6waMLngUcXG3VFY0pNznNfXMqaEiUGZwry8s62HB7HJ9t7y7GEhDOyFP_MOCLgbAj2SwCZrk-GhT9TzddH6gnDiNLxWtTl7YQKCziSw", "width": 4140}], "place_id": "ChIJq_d0LQj-0YURMZNyrXnyqxI", "plus_code": {"compound_code": "9V4X+54 Mexico City", "global_code": "76F29V4X+54"}, "rating": 3.5, "reference": "ChIJq_d0LQj-0YURMZNyrXnyqxI", "types": ["parking", "point_of_interest", "establishment"], "user_ratings_total": 130}, {"business_status": "OPERATIONAL", "formatted_address": "Mz 4 Lt 14, Jose Ma. Morels, Valle de Luces 2da Secc, Iztapalapa, 09800 Ciudad de M\u00e9xico, CDMX", "geometry": {"location": {"lat": 19.3380491, "lng": -99.10069209999999}, "viewport": {"northeast": {"lat": 19.33931857989272, "lng": -99.09936407010728}, "southwest": {"lat": 19.33661892010728, "lng": -99.10206372989273}}}, "icon": "https://maps.gstatic.com/mapfiles/place_api/icons/v1/png_71/parking-71.png", "name": "PENSION NOCTURNA", "opening_hours": {"open_now": true}, "place_id": "ChIJfw5uLQACzoURrzDXJmvdDO8", "plus_code": {"compound_code": "8VQX+6P Mexico City", "global_code": "76F28VQX+6P"}, "rating": 4, "reference": "ChIJfw5uLQACzoURrzDXJmvdDO8", "types": ["parking", "point_of_interest", "establishment"], "user_ratings_total": 1}, {"business_status": "OPERATIONAL", "formatted_address": "\u00c1rea Federal Central de Abastos, Iztapalapa, Mexico City", "geometry": {"location": {"lat": 19.3725266, "lng": -99.0971756}, "viewport": {"northeast": {"lat": 19.37387067989272, "lng": -99.0958260201073}, "southwest": {"lat": 19.37117102010728, "lng": -99.09852567989273}}}, "icon": "https://maps.gstatic.com/mapfiles/place_api/icons/v1/png_71/parking-71.png", "name": "Estacionamiento", "place_id": "ChIJGxw2bdn90YURN6XIHPYcsu8", "plus_code": {"compound_code": "9WF3+24 Mexico City", "global_code": "76F29WF3+24"}, "rating": 5, "reference": "ChIJGxw2bdn90YURN6XIHPYcsu8", "types": ["parking", "point_of_interest", "establishment"], "user_ratings_total": 1}, {"business_status": "OPERATIONAL", "formatted_address": "Jorge Enciso 1115 B, Mexicaltzingo, Iztapalapa, 09090 Ciudad de M\u00e9xico, CDMX", "geometry": {"location": {"lat": 19.3597163, "lng": -99.1216323}, "viewport": {"northeast": {"lat": 19.36115392989272, "lng": -99.12027182010729}, "southwest": {"lat": 19.35845427010727, "lng": -99.12297147989274}}}, "icon": "https://maps.gstatic.com/mapfiles/place_api/icons/v1/png_71/parking-71.png", "name": "Estacionamiento p\u00fablico", "opening_hours": {"open_now": false}, "place_id": "ChIJ-x7ppBX-0YUR2KcBgcWaEfQ", "plus_code": {"compound_code": "9V5H+V8 Mexico City", "global_code": "76F29V5H+V8"}, "rating": 0, "reference": "ChIJ-x7ppBX-0YUR2KcBgcWaEfQ", "types": ["parking", "point_of_interest", "establishment"], "user_ratings_total": 0}, {"business_status": "OPERATIONAL", "formatted_address": "Pasillo 3, \u00c1rea Federal Central de Abastos, Iztapalapa, Ciudad de M\u00e9xico, CDMX", "geometry": {"location": {"lat": 19.3711076, "lng": -99.0912251}, "viewport": {"northeast": {"lat": 19.37245407989272, "lng": -99.08976212010728}, "southwest": {"lat": 19.36975442010727, "lng": -99.09246177989273}}}, "icon": "https://maps.gstatic.com/mapfiles/place_api/icons/v1/png_71/parking-71.png", "name": "Bajio Estacionamiento", "place_id": "ChIJTU7cW9v90YURc2ycEXaH-Qs", "plus_code": {"compound_code": "9WC5+CG Mexico City", "global_code": "76F29WC5+CG"}, "rating": 5, "reference": "ChIJTU7cW9v90YURc2ycEXaH-Qs", "types": ["parking", "point_of_interest", "establishment"], "user_ratings_total": 1}, {"business_status": "OPERATIONAL", "formatted_address": "Gregorio Torres Quintero 103, San Miguel, Iztapalapa, 09360 Ciudad de M\u00e9xico, CDMX", "geometry": {"location": {"lat": 19.3569794, "lng": -99.07548349999999}, "viewport": {"northeast": {"lat": 19.35832077989272, "lng": -99.07410077010726}, "southwest": {"lat": 19.35562112010728, "lng": -99.07680042989271}}}, "icon": "https://maps.gstatic.com/mapfiles/place_api/icons/v1/png_71/parking-71.png", "name": "Operadora De Espacios Nermil", "opening_hours": {"open_now": true}, "photos": [{"height": 2304, "html_attributions": ["<a href=\"https://maps.google.com/maps/contrib/102160102637417213089\">OPERADORA DE ESPACIOS NERMIL &quot;ESTACIONAMIENTOS Y VALET PARKING</a>"], "photo_reference": "CmRaAAAAz5FlmC7bR9DkRHPPLDmr5CTmIIz5XDAsuY6vkPCxcCLRStgZEuWR8rmEp2KGfeK3r7VQtjV6VL20RTmwDLfTGWZAwMzFkskWiweVsv8JzbXA5_2ZrbH2xrLtCBsPAcajEhCaou65GPaK0nqjVXPbPJQtGhRLXck7M_7r8GPy_Pbms_s2qzWxxg", "width": 3456}], "place_id": "ChIJwXTPtpP90YUROcz-OR1KBtQ", "plus_code": {"compound_code": "9W4F+QR Mexico City", "global_code": "76F29W4F+QR"}, "rating": 3.3, "reference": "ChIJwXTPtpP90YUROcz-OR1KBtQ", "types": ["parking", "point_of_interest", "establishment"], "user_ratings_total": 30}]