[{"business_status": "OPERATIONAL", "formatted_address": "Estrella del Sur, Iztapalapa, 09820 Mexico City", "geometry": {"location": {"lat": 19.3526334, "lng": -99.09882309999999}, "viewport": {"northeast": {"lat": 19.35399647989272, "lng": -99.09746392010729}, "southwest": {"lat": 19.35129682010728, "lng": -99.10016357989272}}}, "icon": "https://maps.gstatic.com/mapfiles/place_api/icons/v1/png_71/generic_business-71.png", "name": "Cynthia Cabina Estetica", "opening_hours": {"open_now": true}, "photos": [{"height": 2752, "html_attributions": ["<a href=\"https://maps.google.com/maps/contrib/113299504802300199962\">A Google User</a>"], "photo_reference": "CmRaAAAA81fM_NcO7r_WJohxpIwX7gw0w5VUxPzilT3LPSGyXEXVVypU_IvfE15BgHkhrkLVbODavEmfrqwgxH-4QtkvDEZgZjjn5nCoDHwnaLkU3vAzMW8LaRr4lJPhsdNf34OkEhA0aLbNft9LFTC2VWR7ywneGhQvYg6qW_Zd1TauGPgopsnvBcxFmw", "width": 2752}], "place_id": "ChIJMfQgEhH90YUR5bNbvmzWeVk", "plus_code": {"compound_code": "9W32+3F Mexico City", "global_code": "76F29W32+3F"}, "rating": 5, "reference": "ChIJMfQgEhH90YUR5bNbvmzWeVk", "types": ["beauty_salon", "spa", "point_of_interest", "establishment"], "user_ratings_total": 1}, {"business_status": "OPERATIONAL", "formatted_address": "Ignacio Comonfort 57, San Lucas, Iztapalapa, 09000 Ciudad de M\u00e9xico, CDMX", "geometry": {"location": {"lat": 19.3590691, "lng": -99.09485099999999}, "viewport": {"northeast": {"lat": 19.36039432989272, "lng": -99.09350862010727}, "southwest": {"lat": 19.35769467010728, "lng": -99.09620827989272}}}, "icon": "https://maps.gstatic.com/mapfiles/place_api/icons/v1/png_71/generic_business-71.png", "name": "spa Yuli-nails", "opening_hours": {"open_now": true}, "photos": [{"height": 4000, "html_attributions": ["<a href=\"https://maps.google.com/maps/contrib/106635794298795121060\">A Google User</a>"], "photo_reference": "CmRaAAAAtqRu6CbvFJ162KjfhK7qnfRyvrDradR71jpi1SYCJyiYLg7vib80V1qrAoiIYuV9ct57raKXixQYPIMtQE8v7ePjxN9phnTEFkZiBz5ixkGUCZk9QaFId22TENGwOGVTEhDb6X1F-wcVQRugfsjwZZ0PGhQz1w-X0bVrZG9K6wo7gpLsfq4GHQ", "width": 3000}], "place_id": "ChIJTwQApub90YURPw0RKEK6XZ8", "plus_code": {"compound_code": "9W54+J3 Mexico City", "global_code": "76F29W54+J3"}, "rating": 4.2, "reference": "ChIJTwQApub90YURPw0RKEK6XZ8", "types": ["beauty_salon", "spa", "point_of_interest", "establishment"], "user_ratings_total": 49}, {"business_status": "OPERATIONAL", "formatted_address": "Tlaxcanes 162, Amp el Santuario, Iztapalapa, 09829 Ciudad de M\u00e9xico, CDMX", "geometry": {"location": {"lat": 19.3538421, "lng": -99.09506739999999}, "viewport": {"northeast": {"lat": 19.35520077989272, "lng": -99.09372407010729}, "southwest": {"lat": 19.35250112010728, "lng": -99.09642372989273}}}, "icon": "https://maps.gstatic.com/mapfiles/place_api/icons/v1/png_71/generic_business-71.png", "name": "Aaminah-Tharaa Cl\u00ednica de Belleza", "opening_hours": {"open_now": false}, "photos": [{"height": 385, "html_attributions": ["<a href=\"https://maps.google.com/maps/contrib/111551223500395417160\">A Google User</a>"], "photo_reference": "CmRaAAAAbs2T8mu6xLJLyD-CXMbDbe0Vj5l5z2DypI-BQmvS66HwYTL3YttNnECuEMlb2RMMGJOlZxMgyrIY6_2KL7stCujN9RcBQ1JWTFc9h4Hg2l9-QYUKgfvgu5EB4LRzr_iUEhCJW0VycIC4dX2ISq0harQoGhQVGNiqyS54z8RA-_QFUrR8SR1gEA", "width": 685}], "place_id": "ChIJCYUEu-T90YURUtyn3cjd-i4", "plus_code": {"compound_code": "9W33+GX Mexico City", "global_code": "76F29W33+GX"}, "rating": 5, "reference": "ChIJCYUEu-T90YURUtyn3cjd-i4", "types": ["spa", "point_of_interest", "establishment"], "user_ratings_total": 6}, {"business_status": "CLOSED_TEMPORARILY", "formatted_address": "Privada Ermita Iztapalapa MZ3 LT35, Amp Ricardo Flores Mag\u00f3n, Iztapalapa, 09828 Ciudad de M\u00e9xico, CDMX", "geometry": {"location": {"lat": 19.3535096, "lng": -99.1002354}, "viewport": {"northeast": {"lat": 19.35486532989272, "lng": -99.0989051201073}, "southwest": {"lat": 19.35216567010728, "lng": -99.10160477989274}}}, "icon": "https://maps.gstatic.com/mapfiles/place_api/icons/v1/png_71/generic_business-71.png", "name": "BLUE SPA", "permanently_closed": true, "photos": [{"height": 3968, "html_attributions": ["<a href=\"https://maps.google.com/maps/contrib/110495679320760372858\">SINERGIA EMPRESARIAL</a>"], "photo_reference": "CmRaAAAAg385T2ZECv0DrYBpT_hCkQMubWQHhpgqRc9qsOTAOxkf0pQ3zTefkP94ZU8Uegq6Ro-nWrdn3XiX18kOXOUrfRg_mGjHdnvrjFfHP42iPMTyOjH1OX9HG2s1usmFgEFtEhAtDeAMvpeR4PH_jSG3Auh_GhSflxqLYVsbMK4BsxqHQ3w6sPpJgQ", "width": 2976}], "place_id": "ChIJb2aDbPP90YURwhg1NpvbIZE", "plus_code": {"compound_code": "9V3X+CW Mexico City", "global_code": "76F29V3X+CW"}, "rating": 4.2, "reference": "ChIJb2aDbPP90YURwhg1NpvbIZE", "types": ["spa", "point_of_interest", "establishment"], "user_ratings_total": 5}, {"business_status": "OPERATIONAL", "formatted_address": "5 de Mayo Mz. 20 Lt. 3, Zona Urbana Ejidal los Reyes Culhuacan, Iztapalapa, 09800 Ciudad de M\u00e9xico, CDMX", "geometry": {"location": {"lat": 19.3432857, "lng": -99.1056768}, "viewport": {"northeast": {"lat": 19.34463832989272, "lng": -99.10432607010729}, "southwest": {"lat": 19.34193867010728, "lng": -99.10702572989273}}}, "icon": "https://maps.gstatic.com/mapfiles/place_api/icons/v1/png_71/generic_business-71.png", "name": "SPA corporal facial", "opening_hours": {"open_now": false}, "place_id": "ChIJe11VngH-0YURZHJwcU3_a9U", "plus_code": {"compound_code": "8VVV+8P Mexico City", "global_code": "76F28VVV+8P"}, "rating": 3.5, "reference": "ChIJe11VngH-0YURZHJwcU3_a9U", "types": ["spa", "point_of_interest", "establishment"], "user_ratings_total": 2}, {"business_status": "OPERATIONAL", "formatted_address": "Los Reyes Culhuacan, Iztapalapa, 09840 Mexico City", "geometry": {"location": {"lat": 19.3491359, "lng": -99.10979470000001}, "viewport": {"northeast": {"lat": 19.35048572989272, "lng": -99.10844487010729}, "southwest": {"lat": 19.34778607010728, "lng": -99.11114452989274}}}, "icon": "https://maps.gstatic.com/mapfiles/place_api/icons/v1/png_71/generic_business-71.png", "name": "PSINUSA SPA", "opening_hours": {"open_now": false}, "place_id": "ChIJv1qIUk__0YURx2WBqN6k3Kw", "plus_code": {"compound_code": "8VXR+M3 Mexico City", "global_code": "76F28VXR+M3"}, "rating": 5, "reference": "ChIJv1qIUk__0YURx2WBqN6k3Kw", "types": ["spa", "point_of_interest", "establishment"], "user_ratings_total": 1}, {"business_status": "OPERATIONAL", "formatted_address": "Patricio Sanz 1104 oficina 5 esquina, Eje 6 Sur, del Valle, 03100 Ciudad de M\u00e9xico, CDMX", "geometry": {"location": {"lat": 19.367404, "lng": -99.0861183}, "viewport": {"northeast": {"lat": 19.36873132989272, "lng": -99.08474512010727}, "southwest": {"lat": 19.36603167010728, "lng": -99.0874447798927}}}, "icon": "https://maps.gstatic.com/mapfiles/place_api/icons/v1/png_71/generic_business-71.png", "name": "Khala Spa", "place_id": "ChIJH2PZN8L90YUR8WOt8GxDCZo", "rating": 0, "reference": "ChIJH2PZN8L90YUR8WOt8GxDCZo", "types": ["spa", "point_of_interest", "establishment"], "user_ratings_total": 0}, {"business_status": "OPERATIONAL", "formatted_address": "Ca\u00f1etes mz 2, San Juan Xalpa, Iztapalapa, 09850 Ciudad de M\u00e9xico, CDMX", "geometry": {"location": {"lat": 19.3398062, "lng": -99.0796467}, "viewport": {"northeast": {"lat": 19.34115332989272, "lng": -99.0782817701073}, "southwest": {"lat": 19.33845367010728, "lng": -99.08098142989273}}}, "icon": "https://maps.gstatic.com/mapfiles/place_api/icons/v1/png_71/generic_business-71.png", "name": "Spa terap\u00e9utico y est\u00e9tico renovaci\u00f3n vital", "opening_hours": {"open_now": true}, "place_id": "ChIJDf__kAcDzoUR1u8x7rBysr8", "plus_code": {"compound_code": "8WQC+W4 Mexico City", "global_code": "76F28WQC+W4"}, "rating": 3, "reference": "ChIJDf__kAcDzoUR1u8x7rBysr8", "types": ["spa", "point_of_interest", "establishment"], "user_ratings_total": 2}, {"business_status": "OPERATIONAL", "formatted_address": "Rododendro no 19, Los \u00c1ngeles, Iztapalapa, 09830 Ciudad de M\u00e9xico, CDMX", "geometry": {"location": {"lat": 19.3493126, "lng": -99.07550889999999}, "viewport": {"northeast": {"lat": 19.35068042989272, "lng": -99.07415502010727}, "southwest": {"lat": 19.34798077010728, "lng": -99.07685467989272}}}, "icon": "https://maps.gstatic.com/mapfiles/place_api/icons/v1/png_71/generic_business-71.png", "name": "Marie Spa", "place_id": "ChIJ34Q9rDn90YURw4yYIj5f3Ng", "plus_code": {"compound_code": "8WXF+PQ Mexico City", "global_code": "76F28WXF+PQ"}, "rating": 0, "reference": "ChIJ34Q9rDn90YURw4yYIj5f3Ng", "types": ["spa", "point_of_interest", "establishment"], "user_ratings_total": 0}, {"business_status": "OPERATIONAL", "formatted_address": "Av. Tlahuac 4337, Lomas Estrella 2da Secc, Iztapalapa, 09640 Ciudad de M\u00e9xico, CDMX", "geometry": {"location": {"lat": 19.3219962, "lng": -99.09623619999999}, "viewport": {"northeast": {"lat": 19.32338262989272, "lng": -99.09487992010727}, "southwest": {"lat": 19.32068297010728, "lng": -99.09757957989271}}}, "icon": "https://maps.gstatic.com/mapfiles/place_api/icons/v1/png_71/generic_business-71.png", "name": "Spa Lefranm", "opening_hours": {"open_now": false}, "photos": [{"height": 1280, "html_attributions": ["<a href=\"https://maps.google.com/maps/contrib/101855025835976393802\">hussam albatish</a>"], "photo_reference": "CmRaAAAADaHlAmBrTrvGAv8emvDl9ARfRmxDJf2Pqdvz68VgCSOs5Q95PMP5NAu5hVw4gixP-jqiJ1pfY07BWiJiW0hQNdhSDNQtO99doNhSoV3riZuXM7tFdaaE_Ha4bEnKcLL6EhBIQCIn6FpunV_fh5aSM8_JGhRHhiQnYRT8tTKjTjFBafyP9RGWkQ", "width": 960}], "place_id": "ChIJ3TlNw80DzoUR4Uz5ggFKQnQ", "plus_code": {"compound_code": "8WC3+QG Mexico City", "global_code": "76F28WC3+QG"}, "rating": 4, "reference": "ChIJ3TlNw80DzoUR4Uz5ggFKQnQ", "types": ["spa", "point_of_interest", "establishment"], "user_ratings_total": 4}, {"business_status": "OPERATIONAL", "formatted_address": "Cacama MZ8 LT1, Ampliaci\u00f3n, Los Reyes Culhuacan, Iztapalapa, 09840 Ciudad de M\u00e9xico, CDMX", "geometry": {"location": {"lat": 19.3482136, "lng": -99.105678}, "viewport": {"northeast": {"lat": 19.34956342989272, "lng": -99.10432817010728}, "southwest": {"lat": 19.34686377010728, "lng": -99.10702782989273}}}, "icon": "https://maps.gstatic.com/mapfiles/place_api/icons/v1/png_71/generic_business-71.png", "name": "Lakshmi Spa", "opening_hours": {"open_now": false}, "place_id": "ChIJm0VhCpn_0YURkbPUAqydhr4", "plus_code": {"compound_code": "8VXV+7P Mexico City", "global_code": "76F28VXV+7P"}, "rating": 0, "reference": "ChIJm0VhCpn_0YURkbPUAqydhr4", "types": ["spa", "point_of_interest", "establishment"], "user_ratings_total": 0}, {"business_status": "OPERATIONAL", "formatted_address": "Av. Tlahuac 4337, Lomas Estrella 2da Secc, Iztapalapa, 09640 Ciudad de M\u00e9xico, CDMX", "geometry": {"location": {"lat": 19.3219962, "lng": -99.09623619999999}, "viewport": {"northeast": {"lat": 19.32338262989272, "lng": -99.09487992010727}, "southwest": {"lat": 19.32068297010728, "lng": -99.09757957989271}}}, "icon": "https://maps.gstatic.com/mapfiles/place_api/icons/v1/png_71/generic_business-71.png", "name": "Verci Spa", "opening_hours": {"open_now": true}, "place_id": "ChIJc1A1I58DzoURdS88uZGSqz0", "plus_code": {"compound_code": "8WC3+QG Mexico City", "global_code": "76F28WC3+QG"}, "rating": 5, "reference": "ChIJc1A1I58DzoURdS88uZGSqz0", "types": ["spa", "point_of_interest", "establishment"], "user_ratings_total": 1}, {"business_status": "OPERATIONAL", "formatted_address": "Heradl 45 23, Leyes de Reforma 1ra Secc, Iztapalapa, 02070 Ciudad de M\u00e9xico, CDMX", "geometry": {"location": {"lat": 19.3565706, "lng": -99.0709641}, "viewport": {"northeast": {"lat": 19.35792482989272, "lng": -99.06964012010728}, "southwest": {"lat": 19.35522517010727, "lng": -99.07233977989273}}}, "icon": "https://maps.gstatic.com/mapfiles/place_api/icons/v1/png_71/generic_business-71.png", "name": "SHANA-FIT-SPA", "place_id": "ChIJMTOwrJH90YURCi1PVX8gHfQ", "plus_code": {"compound_code": "9W4H+JJ Mexico City", "global_code": "76F29W4H+JJ"}, "rating": 0, "reference": "ChIJMTOwrJH90YURCi1PVX8gHfQ", "types": ["spa", "point_of_interest", "establishment"], "user_ratings_total": 0}, {"business_status": "OPERATIONAL", "formatted_address": "Fernando Lizardi 10, Constituci\u00f3n de 1917, Iztapalapa, 09200 Ciudad de M\u00e9xico, CDMX", "geometry": {"location": {"lat": 19.352186, "lng": -99.0557554}, "viewport": {"northeast": {"lat": 19.35352377989272, "lng": -99.05445402010729}, "southwest": {"lat": 19.35082412010728, "lng": -99.05715367989274}}}, "icon": "https://maps.gstatic.com/mapfiles/place_api/icons/v1/png_71/generic_business-71.png", "name": "Nails & spa facial", "opening_hours": {"open_now": false}, "photos": [{"height": 3024, "html_attributions": ["<a href=\"https://maps.google.com/maps/contrib/115903325671739501758\">A Google User</a>"], "photo_reference": "CmRaAAAAJo0ZmFm5oPfiQzAWn_NWKTIM9T-sxVvsBYkN36wl4rDk-7-hIADOUSSuKa-pcN_UrwDfVaJEc2TBBGObqTkIMknyQTRXUQtRpVxCL74MCf_0zmMCLAP1KGQqqgFr4ZjiEhBRyPHU3nDltVsjn5Hxn2O0GhSxg-Yhhz1WHEbSjE3xAZqIKM9NAA", "width": 4032}], "place_id": "ChIJh1dqzwr90YURQc4Mw-hYiUQ", "plus_code": {"compound_code": "9W2V+VM Mexico City", "global_code": "76F29W2V+VM"}, "rating": 5, "reference": "ChIJh1dqzwr90YURQc4Mw-hYiUQ", "types": ["spa", "point_of_interest", "establishment"], "user_ratings_total": 3}, {"business_status": "OPERATIONAL", "formatted_address": "Huitzilihuitl 4, Zona Urbana Ejidal los Reyes Culhuacan, Iztapalapa, 09840 Ciudad de M\u00e9xico, CDMX", "geometry": {"location": {"lat": 19.3461823, "lng": -99.10706169999999}, "viewport": {"northeast": {"lat": 19.34754097989273, "lng": -99.10573952010726}, "southwest": {"lat": 19.34484132010728, "lng": -99.10843917989271}}}, "icon": "https://maps.gstatic.com/mapfiles/place_api/icons/v1/png_71/generic_business-71.png", "name": "Est\u00e9tica koala", "opening_hours": {"open_now": true}, "photos": [{"height": 900, "html_attributions": ["<a href=\"https://maps.google.com/maps/contrib/102845431021890329822\">A Google User</a>"], "photo_reference": "CmRaAAAAGWcC3w334LRB9VONryjZxAgK6iymXGJYSxulVc88jp_fqZs7TpNfYgUJd1M6wyuFlZFxSE_sYfxJOyg9AAfTmdWKt5Pvoy6L8ZCXCRU1n2aVqbc91Z1RzzFv6vL-rrYDEhC8K0sLdfsVcZx6Tp3WBqIMGhRTRcu1pFiM9eGaYsvJt26yK53YGw", "width": 1600}], "place_id": "ChIJZ2X9_gP-0YURItNdcMKawhI", "plus_code": {"compound_code": "8VWV+F5 Mexico City", "global_code": "76F28VWV+F5"}, "rating": 3.7, "reference": "ChIJZ2X9_gP-0YURItNdcMKawhI", "types": ["beauty_salon", "hair_care", "spa", "point_of_interest", "establishment"], "user_ratings_total": 9}, {"business_status": "OPERATIONAL", "formatted_address": "En Plaza Comercial Estrella, Av. 11 4746, Granjas Estrella, Iztapalapa, 09880 Ciudad de M\u00e9xico, CDMX", "geometry": {"location": {"lat": 19.3208632, "lng": -99.0840092}, "viewport": {"northeast": {"lat": 19.32219402989272, "lng": -99.08266357010727}, "southwest": {"lat": 19.31949437010728, "lng": -99.0853632298927}}}, "icon": "https://maps.gstatic.com/mapfiles/place_api/icons/v1/png_71/generic_business-71.png", "name": "The Day Spa", "opening_hours": {"open_now": false}, "place_id": "ChIJ9dpuzRUCzoUR40zeCu1dJVw", "plus_code": {"compound_code": "8WC8+89 Mexico City", "global_code": "76F28WC8+89"}, "rating": 4.3, "reference": "ChIJ9dpuzRUCzoUR40zeCu1dJVw", "types": ["beauty_salon", "spa", "point_of_interest", "establishment"], "user_ratings_total": 11}, {"business_status": "OPERATIONAL", "formatted_address": "Emilio Berliner 1, Fuego Nuevo, Iztapalapa, 09800 Ciudad de M\u00e9xico, CDMX", "geometry": {"location": {"lat": 19.3328047, "lng": -99.10080219999999}, "viewport": {"northeast": {"lat": 19.33423097989272, "lng": -99.09943797010727}, "southwest": {"lat": 19.33153132010728, "lng": -99.10213762989272}}}, "icon": "https://maps.gstatic.com/mapfiles/place_api/icons/v1/png_71/lodging-71.png", "name": "Spa Janncarlo", "opening_hours": {"open_now": true}, "place_id": "ChIJiZBQcAICzoURERYWGAluSAE", "plus_code": {"compound_code": "8VMX+4M Mexico City", "global_code": "76F28VMX+4M"}, "rating": 0, "reference": "ChIJiZBQcAICzoURERYWGAluSAE", "types": ["spa", "lodging", "point_of_interest", "establishment"], "user_ratings_total": 0}, {"business_status": "OPERATIONAL", "formatted_address": "Jose Lopez Portillo Lt.11, Manzana 6, Guadalupe del Moral, Iztapalapa, 09300 Ciudad de M\u00e9xico, CDMX", "geometry": {"location": {"lat": 19.3700426, "lng": -99.0750788}, "viewport": {"northeast": {"lat": 19.37138707989272, "lng": -99.07371537010728}, "southwest": {"lat": 19.36868742010728, "lng": -99.07641502989273}}}, "icon": "https://maps.gstatic.com/mapfiles/place_api/icons/v1/png_71/generic_business-71.png", "name": "Dream Spa", "opening_hours": {"open_now": false}, "place_id": "ChIJAQAAwL790YURLE-7E2s_KLA", "plus_code": {"compound_code": "9WCF+2X Mexico City", "global_code": "76F29WCF+2X"}, "rating": 0, "reference": "ChIJAQAAwL790YURLE-7E2s_KLA", "types": ["spa", "point_of_interest", "establishment"], "user_ratings_total": 0}, {"business_status": "OPERATIONAL", "formatted_address": "Granjeros 353, Los Cipreses, Iztapalapa, 09810 Ciudad de M\u00e9xico, CDMX", "geometry": {"location": {"lat": 19.3510305, "lng": -99.10781659999999}, "viewport": {"northeast": {"lat": 19.35242792989272, "lng": -99.10646272010727}, "southwest": {"lat": 19.34972827010728, "lng": -99.10916237989271}}}, "icon": "https://maps.gstatic.com/mapfiles/place_api/icons/v1/png_71/generic_business-71.png", "name": "Kare cl\u00ednica de relajaci\u00f3n y belleza", "opening_hours": {"open_now": false}, "photos": [{"height": 1200, "html_attributions": ["<a href=\"https://maps.google.com/maps/contrib/102004909183093387199\">A Google User</a>"], "photo_reference": "CmRaAAAAoXv2-9wizapQ1pA6uvWJUmiRTuOrOTzGfXWq6q48Jlp3UQLFVLJp0JBzjkB0QHj7uaq-Fz1oXfvwRI8iPssisyGR7eNt86RBjbRLZN-a8QCYdH-5Kb-ZHGBpzzY8mLZ2EhDAKuoeiV_e7SNLiYHEkvdzGhSMm2WKPRejWGaCWnH7_80DcQ9iSw", "width": 1600}], "place_id": "ChIJ5esbQmf_0YUR_4aqAExSm88", "plus_code": {"compound_code": "9V2R+CV Mexico City", "global_code": "76F29V2R+CV"}, "rating": 5, "reference": "ChIJ5esbQmf_0YUR_4aqAExSm88", "types": ["spa", "point_of_interest", "establishment"], "user_ratings_total": 1}, {"business_status": "OPERATIONAL", "formatted_address": "09240, Av Venustiano Carranza 363-365, Progresista, Iztapalapa, Ciudad de M\u00e9xico, CDMX", "geometry": {"location": {"lat": 19.3597023, "lng": -99.0662443}, "viewport": {"northeast": {"lat": 19.36105317989272, "lng": -99.06489802010728}, "southwest": {"lat": 19.35835352010728, "lng": -99.06759767989271}}}, "icon": "https://maps.gstatic.com/mapfiles/place_api/icons/v1/png_71/generic_business-71.png", "name": "Karla's SPA", "opening_hours": {"open_now": false}, "place_id": "ChIJw3e2JZr90YURzsngNqz9CjA", "plus_code": {"compound_code": "9W5M+VG Mexico City", "global_code": "76F29W5M+VG"}, "rating": 5, "reference": "ChIJw3e2JZr90YURzsngNqz9CjA", "types": ["spa", "point_of_interest", "establishment"], "user_ratings_total": 1}]