[{"business_status": "OPERATIONAL", "formatted_address": "Ermita Iztapalapa 163, Amp Ricardo Flores Mag\u00f3n, Iztapalapa, 09828 Ciudad de M\u00e9xico, CDMX", "geometry": {"location": {"lat": 19.3553472, "lng": -99.09883819999999}, "viewport": {"northeast": {"lat": 19.35676867989272, "lng": -99.09748562010728}, "southwest": {"lat": 19.35406902010728, "lng": -99.10018527989271}}}, "icon": "https://maps.gstatic.com/mapfiles/place_api/icons/v1/png_71/shopping-71.png", "name": "Zapater\u00eda Sandra", "opening_hours": {"open_now": true}, "photos": [{"height": 1920, "html_attributions": ["<a href=\"https://maps.google.com/maps/contrib/113802210423557959644\">Isco Serrano</a>"], "photo_reference": "CmRaAAAAklLL4cPDp8UT4iJTFNOloOaL5nMaqUF1gFXtcBqtHP3XPEFQrNAQOtIRosbhoMl44LQuv91JoSZ_NQ0fhk2AstfupqceKdBh97kSQGvnBBnl34L61tCHSzIF_VI3sQPcEhB9oQmE-tBQQCarlhAK0e7nGhSFADOn0_Reon3yaxyLqDgYY_Io6Q", "width": 1080}], "place_id": "ChIJIR2L_uL90YURYbWStJnSDvk", "plus_code": {"compound_code": "9W42+4F Mexico City", "global_code": "76F29W42+4F"}, "rating": 3.8, "reference": "ChIJIR2L_uL90YURYbWStJnSDvk", "types": ["shoe_store", "point_of_interest", "store", "establishment"], "user_ratings_total": 61}, {"business_status": "OPERATIONAL", "formatted_address": "Avenida Tl\u00e1huac 4409 Local SA05, Lomas Estrella 2da Secc, 09890 Ciudad de M\u00e9xico", "geometry": {"location": {"lat": 19.3213523, "lng": -99.094258}, "viewport": {"northeast": {"lat": 19.32290672989272, "lng": -99.09285917010729}, "southwest": {"lat": 19.32020707010728, "lng": -99.09555882989272}}}, "icon": "https://maps.gstatic.com/mapfiles/place_api/icons/v1/png_71/shopping-71.png", "name": "Zapater\u00edas Tropic", "opening_hours": {"open_now": true}, "photos": [{"height": 2448, "html_attributions": ["<a href=\"https://maps.google.com/maps/contrib/112680707476463649916\">Omar Rodr\u00edguez</a>"], "photo_reference": "CmRaAAAAwQQKwcjNUhikV6gHvwOSyQeibyaIYJ0u1dtG7pd3MGP3WXLoI7Y40LpiEXs5MdCx_RKBLX525M8STmfbVtanubcGeD5JoHDPbuQNGljbrEI4gz8eDl2AadXfqGdtZI-xEhCDkRyK9ouzGIUlaMMaDa3RGhQobvH29x6luiSjAr7LmL6xWzPdHg", "width": 3264}], "place_id": "ChIJO8MPFRkCzoURRryjznL3RIY", "plus_code": {"compound_code": "8WC4+G7 Mexico City", "global_code": "76F28WC4+G7"}, "rating": 4.2, "reference": "ChIJO8MPFRkCzoURRryjznL3RIY", "types": ["shoe_store", "point_of_interest", "store", "establishment"], "user_ratings_total": 89}, {"business_status": "OPERATIONAL", "formatted_address": "Ermita Iztapalapa 1186, Agr\u00edcola Oriental, Iztapalapa, 09000 Iztacalco, CDMX", "geometry": {"location": {"lat": 19.3553961, "lng": -99.0968339}, "viewport": {"northeast": {"lat": 19.35684807989272, "lng": -99.09549867010728}, "southwest": {"lat": 19.35414842010728, "lng": -99.09819832989272}}}, "icon": "https://maps.gstatic.com/mapfiles/place_api/icons/v1/png_71/shopping-71.png", "name": "Zapateria Rosi", "place_id": "ChIJf4YbzeX90YUR0UfFdB33JtU", "plus_code": {"compound_code": "9W43+57 Agr\u00edcola Oriental, Mexico City", "global_code": "76F29W43+57"}, "rating": 0, "reference": "ChIJf4YbzeX90YUR0UfFdB33JtU", "types": ["shoe_store", "point_of_interest", "store", "establishment"], "user_ratings_total": 0}, {"business_status": "OPERATIONAL", "formatted_address": "Ermita Iztapalapa 1186, San Lucas, Iztapalapa, 09000 Ciudad de M\u00e9xico, CDMX", "geometry": {"location": {"lat": 19.3578703, "lng": -99.0941498}, "viewport": {"northeast": {"lat": 19.35910887989272, "lng": -99.09276457010728}, "southwest": {"lat": 19.35640922010728, "lng": -99.09546422989273}}}, "icon": "https://maps.gstatic.com/mapfiles/place_api/icons/v1/png_71/shopping-71.png", "name": "Zapater\u00edas Prado", "opening_hours": {"open_now": true}, "photos": [{"height": 2448, "html_attributions": ["<a href=\"https://maps.google.com/maps/contrib/108505631873547248084\">Zapater\u00edas Prado</a>"], "photo_reference": "CmRaAAAAdHaWx8Exmwh0TkOEnBDdeQAWvcfInsOnbALb8pGQWaEtX051nVXgtAVCbtwHEhdRPbrTfrtQd7ZQIUTDhacZOHnkYgG2E3eRBKGxBFsZwq-0enkJoeT8gjn5ocHMRyYREhDA0b09AykUVhwjQFf1maF2GhTr__OrZ19VWzUMEXUjQTLuJUAMIw", "width": 3264}], "place_id": "ChIJDbUcPOT90YUR8uRyOFLB4Bo", "plus_code": {"compound_code": "9W54+48 Mexico City", "global_code": "76F29W54+48"}, "rating": 4.4, "reference": "ChIJDbUcPOT90YUR8uRyOFLB4Bo", "types": ["shoe_store", "point_of_interest", "store", "establishment"], "user_ratings_total": 9}, {"business_status": "OPERATIONAL", "formatted_address": "Av. Javier Rojo G\u00f3mez 2, San Pablo, Iztapalapa, 09000 Ciudad de M\u00e9xico, CDMX", "geometry": {"location": {"lat": 19.3569831, "lng": -99.0864983}, "viewport": {"northeast": {"lat": 19.35832352989272, "lng": -99.08512967010728}, "southwest": {"lat": 19.35562387010728, "lng": -99.08782932989273}}}, "icon": "https://maps.gstatic.com/mapfiles/place_api/icons/v1/png_71/shopping-71.png", "name": "ZAPATERIA", "opening_hours": {"open_now": true}, "place_id": "ChIJKfgG7u790YUREeLW2MDL-XU", "plus_code": {"compound_code": "9W47+QC Mexico City", "global_code": "76F29W47+QC"}, "rating": 4, "reference": "ChIJKfgG7u790YUREeLW2MDL-XU", "types": ["shoe_store", "point_of_interest", "store", "establishment"], "user_ratings_total": 1}, {"business_status": "OPERATIONAL", "formatted_address": "Av. Tlahuac 20, Santa Isabel Industrial, Iztapalapa, 09820 Ciudad de M\u00e9xico, CDMX", "geometry": {"location": {"lat": 19.3548668, "lng": -99.1055635}, "viewport": {"northeast": {"lat": 19.35623532989272, "lng": -99.10432532010728}, "southwest": {"lat": 19.35353567010728, "lng": -99.10702497989273}}}, "icon": "https://maps.gstatic.com/mapfiles/place_api/icons/v1/png_71/shopping-71.png", "name": "ONENA", "opening_hours": {"open_now": false}, "place_id": "ChIJQxKc3gj-0YUR9GDZjMBF7j0", "plus_code": {"compound_code": "9V3V+WQ Mexico City", "global_code": "76F29V3V+WQ"}, "rating": 4.5, "reference": "ChIJQxKc3gj-0YUR9GDZjMBF7j0", "types": ["shoe_store", "point_of_interest", "store", "establishment"], "user_ratings_total": 39}, {"business_status": "OPERATIONAL", "formatted_address": "Avenida Tlahuac Ext. 74 entre calle ganaderos y, Pastores, Santa Isabel Industrial, Iztapalapa, 09820 CDMX", "geometry": {"location": {"lat": 19.3533801, "lng": -99.1059007}, "viewport": {"northeast": {"lat": 19.35477942989272, "lng": -99.10454107010727}, "southwest": {"lat": 19.35207977010728, "lng": -99.10724072989272}}}, "icon": "https://maps.gstatic.com/mapfiles/place_api/icons/v1/png_71/shopping-71.png", "name": "Andrea", "opening_hours": {"open_now": false}, "photos": [{"height": 4160, "html_attributions": ["<a href=\"https://maps.google.com/maps/contrib/103060186368476050674\">Susy Bello</a>"], "photo_reference": "CmRaAAAAny2wlVnD_Kmc7kgXSXeeWQZDzxqiYcES9i60gCOnBHJD21n9J3bqIdNx0GiOxNeN4ichsFED4tsiP2SqHNFyYOBjkrTfyKvPevhQY283D5VruZcMLFDkkPb6NpCTj-7WEhC7dp1IdTOEPf8W2jHFJD9_GhT49T5byjEckec39_ajnSmR_l5ZLw", "width": 3120}], "place_id": "ChIJOcCPuAj-0YURKDW7sOdxOS8", "plus_code": {"compound_code": "9V3V+9J Santa Isabel Industrial, Mexico City", "global_code": "76F29V3V+9J"}, "rating": 3.8, "reference": "ChIJOcCPuAj-0YURKDW7sOdxOS8", "types": ["shoe_store", "point_of_interest", "store", "establishment"], "user_ratings_total": 1578}, {"business_status": "OPERATIONAL", "formatted_address": "Av. R\u00edo Soto La Marina, \u00c1rea Federal Central de Abastos, Iztapalapa, Ciudad de M\u00e9xico, CDMX", "geometry": {"location": {"lat": 19.3845114, "lng": -99.07871589999999}, "viewport": {"northeast": {"lat": 19.38571247989272, "lng": -99.07739022010729}, "southwest": {"lat": 19.38301282010727, "lng": -99.08008987989274}}}, "icon": "https://maps.gstatic.com/mapfiles/place_api/icons/v1/png_71/shopping-71.png", "name": "D&G Dorothy Gaynor", "photos": [{"height": 3072, "html_attributions": ["<a href=\"https://maps.google.com/maps/contrib/101757723201046146497\">hector trejo</a>"], "photo_reference": "CmRZAAAA4TcR0dbBqlpKJo_875BQq2nqvStBCnoZyeebmXc9ijRzUwsqchqghMW0n6jg17QQ8eZwd5x9xk9uE0VXU3BotpIDSVbD1xdDN2W9GTaHM5VmpRg1H9d6SAQzk3YUG-vAEhBRHMPX4Fo2TRqdjKUp4QMqGhRxZS4FbpROep6YeVREb9Zb0nHFjA", "width": 4096}], "place_id": "ChIJB1og87X90YUR1taTQgA6QuA", "plus_code": {"compound_code": "9WMC+RG Mexico City", "global_code": "76F29WMC+RG"}, "rating": 4.2, "reference": "ChIJB1og87X90YUR1taTQgA6QuA", "types": ["shoe_store", "point_of_interest", "store", "establishment"], "user_ratings_total": 67}, {"business_status": "OPERATIONAL", "formatted_address": "Ermita Iztapalapa 1840, Amp Ricardo Flores Mag\u00f3n, Iztapalapa, 09360 Ciudad de M\u00e9xico, CDMX", "geometry": {"location": {"lat": 19.3509735, "lng": -99.07438280000001}, "viewport": {"northeast": {"lat": 19.35228197989272, "lng": -99.07305382010729}, "southwest": {"lat": 19.34958232010728, "lng": -99.07575347989274}}}, "icon": "https://maps.gstatic.com/mapfiles/place_api/icons/v1/png_71/shopping-71.png", "name": "Flexi Iztapalapa", "opening_hours": {"open_now": true}, "place_id": "ChIJF293f-L90YURmBBGdd2y5vs", "plus_code": {"compound_code": "9W2G+96 Mexico City", "global_code": "76F29W2G+96"}, "rating": 3.9, "reference": "ChIJF293f-L90YURmBBGdd2y5vs", "types": ["shoe_store", "point_of_interest", "store", "establishment"], "user_ratings_total": 30}, {"business_status": "OPERATIONAL", "formatted_address": "Ermita Iztapalapa N.756-3, Granjas San Antonio, Iztapalapa, 09070 Ciudad de M\u00e9xico, CDMX", "geometry": {"location": {"lat": 19.3564875, "lng": -99.10834779999999}, "viewport": {"northeast": {"lat": 19.35779202989272, "lng": -99.10700282010728}, "southwest": {"lat": 19.35509237010728, "lng": -99.10970247989272}}}, "icon": "https://maps.gstatic.com/mapfiles/place_api/icons/v1/png_71/shopping-71.png", "name": "Onena", "opening_hours": {"open_now": true}, "photos": [{"height": 3120, "html_attributions": ["<a href=\"https://maps.google.com/maps/contrib/112792509426525858780\">ARUMA Alcazar</a>"], "photo_reference": "CmRaAAAAfxtf5JWGQ0dKzIUYcY7oI1I7VBl4dE9v0f0a5eX59FS4khVNOJIunuJg_aUH0zw95mf08vcGkIwEszSV7GSFwVmUv5SnEQ3HFLwDr3O4E68MK1ODIwm8BOQj67ukiAzqEhDVgf7mrVZs5LVKo5drbF2-GhTNvMXxHJfutfSJ1FV-5doZ5VZLzw", "width": 4160}], "place_id": "ChIJAzoywA7-0YURQXB3SFi0FuM", "plus_code": {"compound_code": "9V4R+HM Granjas San Antonio, Mexico City", "global_code": "76F29V4R+HM"}, "rating": 4.2, "reference": "ChIJAzoywA7-0YURQXB3SFi0FuM", "types": ["shoe_store", "point_of_interest", "store", "establishment"], "user_ratings_total": 92}, {"business_status": "OPERATIONAL", "formatted_address": "Ermita Iztapalapa 1, Los Cipreses, Iztapalapa, 09810 Ciudad de M\u00e9xico, CDMX", "geometry": {"location": {"lat": 19.3559521, "lng": -99.10595339999999}, "viewport": {"northeast": {"lat": 19.35735727989272, "lng": -99.10459762010728}, "southwest": {"lat": 19.35465762010728, "lng": -99.10729727989272}}}, "icon": "https://maps.gstatic.com/mapfiles/place_api/icons/v1/png_71/shopping-71.png", "name": "Coppel Canada Zapater\u00eda Tulyehualco 558", "photos": [{"height": 4160, "html_attributions": ["<a href=\"https://maps.google.com/maps/contrib/110768099974913430019\">Eduardo LC</a>"], "photo_reference": "CmRaAAAAS0qV4Av0TzRgrol3nhFxdohOvwVsf8sMsmdzsQeyWDuKoUoqYRRy0QUpNyqd57dwqRMrAYMRFSSWk4APaHEyGZHaZwj8R1d2L8-qoZJBgmu9VEcWo2fys7BjJQqJNaxpEhCjbmtx_n6QHSdsMf13CP4mGhQAzC5tJn6-s2aOMdJkLzvxDaI45Q", "width": 3120}], "place_id": "ChIJG49VIwn-0YURjdqFmnlcMWs", "plus_code": {"compound_code": "9V4V+9J Los Cipreses, Mexico City", "global_code": "76F29V4V+9J"}, "rating": 4.3, "reference": "ChIJG49VIwn-0YURjdqFmnlcMWs", "types": ["shoe_store", "point_of_interest", "store", "establishment"], "user_ratings_total": 31}, {"business_status": "OPERATIONAL", "formatted_address": "Av. Javier Rojo G\u00f3mez 2, San Pablo, Iztapalapa, 09000 Ciudad de M\u00e9xico, CDMX", "geometry": {"location": {"lat": 19.3569882, "lng": -99.08652269999999}, "viewport": {"northeast": {"lat": 19.35832067989272, "lng": -99.08513807010728}, "southwest": {"lat": 19.35562102010728, "lng": -99.08783772989273}}}, "icon": "https://maps.gstatic.com/mapfiles/place_api/icons/v1/png_71/shopping-71.png", "name": "Zapateria A-Setta", "opening_hours": {"open_now": true}, "place_id": "ChIJsesC7u790YURpcXVMJFA8dQ", "plus_code": {"compound_code": "9W47+Q9 Mexico City", "global_code": "76F29W47+Q9"}, "rating": 1, "reference": "ChIJsesC7u790YURpcXVMJFA8dQ", "types": ["shoe_store", "point_of_interest", "store", "establishment"], "user_ratings_total": 1}, {"business_status": "OPERATIONAL", "formatted_address": "Bodega Comercial Mexicana San Lorenzo Av. San Lorenzo # 2171 Locales A5 y 6, San Juan Xalpa, Iztapalapa, 09850 CDMX", "geometry": {"location": {"lat": 19.3343963, "lng": -99.075338}, "viewport": {"northeast": {"lat": 19.33573427989272, "lng": -99.07376237010727}, "southwest": {"lat": 19.33303462010728, "lng": -99.07646202989272}}}, "icon": "https://maps.gstatic.com/mapfiles/place_api/icons/v1/png_71/shopping-71.png", "name": "Zapater\u00edas Tropic", "opening_hours": {"open_now": true}, "photos": [{"height": 3120, "html_attributions": ["<a href=\"https://maps.google.com/maps/contrib/114245405713875927798\">Emmanuel Aguilar</a>"], "photo_reference": "CmRaAAAAeVMLEmgSaaoCZ4UWBnBQRFV8wuab1JFChZiTEb9TeRNt3NoIRQlTaUCQcWzp8C05Iu3AXLTfF2rmoiCt1QJTTqqZbKCryvxdb6X8rh0MPeYJr14-jG-4_W6v9XK2fYy-EhBes4B6k1kzJWGKEMVrkzF0GhRBEYhVNjtYoTlcAbrUWoxX-EO2Fg", "width": 4160}], "place_id": "ChIJv81ZaGoCzoURnScqVmOW4vs", "plus_code": {"compound_code": "8WMF+QV San Juan Xalpa, Mexico City", "global_code": "76F28WMF+QV"}, "rating": 3.8, "reference": "ChIJv81ZaGoCzoURnScqVmOW4vs", "types": ["shoe_store", "point_of_interest", "store", "establishment"], "user_ratings_total": 9}, {"business_status": "OPERATIONAL", "formatted_address": "Mercado De Calzado Cuitl\u00e1huac, Ermita Iztapalapa 1186, San Lucas, Iztapalapa, 09000 Ciudad de M\u00e9xico, CDMX", "geometry": {"location": {"lat": 19.358199, "lng": -99.094072}, "viewport": {"northeast": {"lat": 19.35955667989272, "lng": -99.09275467010727}, "southwest": {"lat": 19.35685702010727, "lng": -99.09545432989272}}}, "icon": "https://maps.gstatic.com/mapfiles/place_api/icons/v1/png_71/shopping-71.png", "name": "Cokiz Zapateria", "opening_hours": {"open_now": true}, "place_id": "ChIJueyDJOT90YURK8Mb-nuR1lo", "plus_code": {"compound_code": "9W54+79 San Lucas, Mexico City", "global_code": "76F29W54+79"}, "rating": 0, "reference": "ChIJueyDJOT90YURK8Mb-nuR1lo", "types": ["shoe_store", "point_of_interest", "store", "establishment"], "user_ratings_total": 0}, {"business_status": "OPERATIONAL", "formatted_address": "Ermita Iztapalapa 1126 Local 26 Dentro De Mercado De Calzado Cuitlahuac, San Lucas, Iztapalapa, 09000 CDMX", "geometry": {"location": {"lat": 19.3577959, "lng": -99.0941412}, "viewport": {"northeast": {"lat": 19.35917342989272, "lng": -99.09283857010728}, "southwest": {"lat": 19.35647377010728, "lng": -99.09553822989271}}}, "icon": "https://maps.gstatic.com/mapfiles/place_api/icons/v1/png_71/shopping-71.png", "name": "Zapatos De Danza", "opening_hours": {"open_now": false}, "place_id": "ChIJyUVePOT90YURygjNcKKKG4A", "plus_code": {"compound_code": "9W54+48 San Lucas, Mexico City", "global_code": "76F29W54+48"}, "rating": 0, "reference": "ChIJyUVePOT90YURygjNcKKKG4A", "types": ["shoe_store", "health", "point_of_interest", "store", "establishment"], "user_ratings_total": 0}, {"business_status": "OPERATIONAL", "formatted_address": "Ermita Iztapalapa 1840, Amp San Miguel, Iztapalapa, 09360 Ciudad de M\u00e9xico, CDMX", "geometry": {"location": {"lat": 19.3509994, "lng": -99.0742796}, "viewport": {"northeast": {"lat": 19.35227852989272, "lng": -99.07296582010727}, "southwest": {"lat": 19.34957887010728, "lng": -99.07566547989272}}}, "icon": "https://maps.gstatic.com/mapfiles/place_api/icons/v1/png_71/shopping-71.png", "name": "Capa de Ozono", "opening_hours": {"open_now": true}, "photos": [{"height": 1836, "html_attributions": ["<a href=\"https://maps.google.com/maps/contrib/117069032530529638052\">Pedro Jim\u00e9nez Molina</a>"], "photo_reference": "CmRaAAAAxLpD1GuqqwlEahioi7CSbtGNl4GOWdq2Y1vY3E1fCi4xOZ-WBAyZ4d7FFjYVALqxuJnTKYdgGGlG1j_Vg8FUuCFGyy4wbavjczyl0ytU7Z8edwUdPTNpX_FWco9vSiTAEhDLR_syVf9rat-RaX99STTBGhQUEd_wgl3yQyEUJr-YmPpYgkjDtA", "width": 3264}], "place_id": "ChIJW91XzY390YUR21VEb3O2vr0", "plus_code": {"compound_code": "9W2G+97 Mexico City", "global_code": "76F29W2G+97"}, "rating": 3.8, "reference": "ChIJW91XzY390YUR21VEb3O2vr0", "types": ["shoe_store", "point_of_interest", "store", "establishment"], "user_ratings_total": 19}, {"business_status": "OPERATIONAL", "formatted_address": "Calz. Ermita Iztapalapa, Santa Cruz Meyehualco, 09700 Ciudad de M\u00e9xico", "geometry": {"location": {"lat": 19.342484, "lng": -99.046155}, "viewport": {"northeast": {"lat": 19.34383927989272, "lng": -99.0447297701073}, "southwest": {"lat": 19.34113962010727, "lng": -99.04742942989273}}}, "icon": "https://maps.gstatic.com/mapfiles/place_api/icons/v1/png_71/shopping-71.png", "name": "Zapater\u00eda La Moda", "opening_hours": {"open_now": true}, "photos": [{"height": 2069, "html_attributions": ["<a href=\"https://maps.google.com/maps/contrib/106686266156652047553\">A Google User</a>"], "photo_reference": "CmRaAAAApFaYR25iDyeybZU36TSNxLIPcsfGfw3-XCiH6-kD_HuKBiQI4m0t3yFdc-NtsRfWayxLQ4g0FNouVuZexp-SZKa5yTEpyRHSpz7QHRs_rGZZSs-47q6wz3Jmo2N6A4j8EhDM_j2RaI7GkV8NBinpzj_NGhQfrcQo0i5xTKhpTMHOnSI24UESng", "width": 2754}], "place_id": "ChIJ5xABs4ICzoUR1ULcPGlXIHg", "plus_code": {"compound_code": "8XR3+XG Mexico City", "global_code": "76F28XR3+XG"}, "rating": 3.8, "reference": "ChIJ5xABs4ICzoUR1ULcPGlXIHg", "types": ["shoe_store", "point_of_interest", "store", "establishment"], "user_ratings_total": 78}, {"business_status": "OPERATIONAL", "formatted_address": "Aldama 82, San Pablo, Iztapalapa, 09000 Ciudad de M\u00e9xico, CDMX", "geometry": {"location": {"lat": 19.3591343, "lng": -99.0910651}, "viewport": {"northeast": {"lat": 19.36045992989272, "lng": -99.08972407010727}, "southwest": {"lat": 19.35776027010727, "lng": -99.09242372989272}}}, "icon": "https://maps.gstatic.com/mapfiles/place_api/icons/v1/png_71/shopping-71.png", "name": "Zapater\u00eda Aldama", "opening_hours": {"open_now": false}, "place_id": "ChIJ8-RVCOb90YUR1hZIQ-ckAfc", "plus_code": {"compound_code": "9W55+MH Mexico City", "global_code": "76F29W55+MH"}, "rating": 0, "reference": "ChIJ8-RVCOb90YUR1hZIQ-ckAfc", "types": ["shoe_store", "point_of_interest", "store", "establishment"], "user_ratings_total": 0}, {"business_status": "OPERATIONAL", "formatted_address": "Calle Ote 241 A No. 254, Agr\u00edcola Oriental, Iztacalco, 08500 Ciudad de M\u00e9xico, CDMX", "geometry": {"location": {"lat": 19.3946318, "lng": -99.07259889999999}, "viewport": {"northeast": {"lat": 19.39599172989272, "lng": -99.07129702010728}, "southwest": {"lat": 19.39329207010728, "lng": -99.07399667989273}}}, "icon": "https://maps.gstatic.com/mapfiles/place_api/icons/v1/png_71/shopping-71.png", "name": "Zapater\u00edas Pakar", "photos": [{"height": 1600, "html_attributions": ["<a href=\"https://maps.google.com/maps/contrib/106795345226485011579\">A Google User</a>"], "photo_reference": "CmRaAAAAcCScD3si6cCdW7GbMleAKE5ELes9LETT3dLpMVxdGTUoik0dzYXDYWJQNxLP8xoGGnv0r0odlO2ZDz3OYyRcxTfuxcaZ8kLEIJ7RK99b05lC6Yq1P1Y3uM6HKFq4hwxoEhBf0TRCWiH9WJTXpLgmTuTTGhSzMqP4uW1Ts6TqOVZtrhidnS37hA", "width": 1200}], "place_id": "ChIJwZrrGUz80YURSoOYiCVXN2s", "plus_code": {"compound_code": "9WVG+VX Mexico City", "global_code": "76F29WVG+VX"}, "rating": 4.2, "reference": "ChIJwZrrGUz80YURSoOYiCVXN2s", "types": ["shoe_store", "point_of_interest", "store", "establishment"], "user_ratings_total": 80}, {"business_status": "OPERATIONAL", "formatted_address": "Ayuntamiento 53, San Lucas, Iztapalapa, 09000 Ciudad de M\u00e9xico, CDMX", "geometry": {"location": {"lat": 19.36052, "lng": -99.09167}, "viewport": {"northeast": {"lat": 19.36183882989272, "lng": -99.09019927010728}, "southwest": {"lat": 19.35913917010728, "lng": -99.09289892989271}}}, "icon": "https://maps.gstatic.com/mapfiles/place_api/icons/v1/png_71/shopping-71.png", "name": "zapatos modernos", "opening_hours": {"open_now": false}, "photos": [{"height": 1280, "html_attributions": ["<a href=\"https://maps.google.com/maps/contrib/110655516713631717455\">A Google User</a>"], "photo_reference": "CmRaAAAAdYQcl7bcw5zAbsvmLqovGfU2MGjzZFJBxJV-yGNfQKWMz7iCDbR9JJzsoXatYJO1tUqC89MxxokPspEdoCSsaTl410sZYpkaRk6TpKA1UPtEeX1e35lxM5lElx2dObZVEhAS0bgVPB8sBlr4yGAxGSP8GhQTgOvh-SCB9AUhF1-GdqD5XfmLpQ", "width": 960}], "place_id": "ChIJG7bckT_90YURLVImxDKrpmQ", "plus_code": {"compound_code": "9W65+68 Mexico City", "global_code": "76F29W65+68"}, "rating": 0, "reference": "ChIJG7bckT_90YURLVImxDKrpmQ", "types": ["shoe_store", "point_of_interest", "store", "establishment"], "user_ratings_total": 0}]