[{"business_status": "OPERATIONAL", "formatted_address": "Del Calvario, El Santuario, Iztapalapa, 09820 Ciudad de M\u00e9xico, CDMX", "geometry": {"location": {"lat": 19.3530846, "lng": -99.09203439999999}, "viewport": {"northeast": {"lat": 19.35444352989272, "lng": -99.09068852010728}, "southwest": {"lat": 19.35174387010727, "lng": -99.09338817989273}}}, "icon": "https://maps.gstatic.com/mapfiles/place_api/icons/v1/png_71/generic_business-71.png", "name": "Consultorio Veterinario Amigos", "place_id": "ChIJl7pgM-X90YUR7R-nHiXOEgc", "plus_code": {"compound_code": "9W35+65 Mexico City", "global_code": "76F29W35+65"}, "rating": 1, "reference": "ChIJl7pgM-X90YUR7R-nHiXOEgc", "types": ["veterinary_care", "point_of_interest", "establishment"], "user_ratings_total": 1}, {"business_status": "OPERATIONAL", "formatted_address": "Desviaci\u00f3n Estrella 23, Santa Mar\u00eda del Monte, Iztapalapa, 09850 Ciudad de M\u00e9xico, CDMX", "geometry": {"location": {"lat": 19.3514337, "lng": -99.09365820000001}, "viewport": {"northeast": {"lat": 19.35281827989272, "lng": -99.09231792010729}, "southwest": {"lat": 19.35011862010728, "lng": -99.09501757989274}}}, "icon": "https://maps.gstatic.com/mapfiles/place_api/icons/v1/png_71/generic_business-71.png", "name": "Veterinaria", "opening_hours": {"open_now": false}, "photos": [{"height": 1200, "html_attributions": ["<a href=\"https://maps.google.com/maps/contrib/110040835541554123564\">A Google User</a>"], "photo_reference": "CmRaAAAAmIxDNNWCBrX33yhXzZQYZX8qR6upX0U-IU_h96WJwEz3G1qsemUOZVhPlGKcfxXQb8OqkSa2uumyLfUyi3EDtJTl0NJqlRj8whYlbyGbKk94Hr1JQBLnGH-tv6q7aJ1iEhAbOdeCrXWaC5NJ-B-FTwi3GhTcmxlUglQtbnoqRRvBm5cbSUM_pA", "width": 1600}], "place_id": "ChIJ9bC8Crf90YURjXWGapjVbgk", "plus_code": {"compound_code": "9W24+HG Mexico City", "global_code": "76F29W24+HG"}, "rating": 0, "reference": "ChIJ9bC8Crf90YURjXWGapjVbgk", "types": ["veterinary_care", "point_of_interest", "establishment"], "user_ratings_total": 0}, {"business_status": "OPERATIONAL", "formatted_address": "Los Reyes 90, Sta B\u00e1rbara, Iztapalapa, 09000 Ciudad de M\u00e9xico, CDMX", "geometry": {"location": {"lat": 19.3584739, "lng": -99.0998127}, "viewport": {"northeast": {"lat": 19.35980972989272, "lng": -99.09841502010727}, "southwest": {"lat": 19.35711007010728, "lng": -99.10111467989272}}}, "icon": "https://maps.gstatic.com/mapfiles/place_api/icons/v1/png_71/generic_business-71.png", "name": "Cl\u00ednica Veterinaria", "opening_hours": {"open_now": false}, "place_id": "ChIJzxOFIOL90YURbRjkgZ5GhE4", "plus_code": {"compound_code": "9W52+93 Mexico City", "global_code": "76F29W52+93"}, "rating": 3.2, "reference": "ChIJzxOFIOL90YURbRjkgZ5GhE4", "types": ["veterinary_care", "point_of_interest", "establishment"], "user_ratings_total": 5}, {"business_status": "OPERATIONAL", "formatted_address": "Av Insurgente Eugenio Jiron 11, 2da Amp San Juan, Iztapalapa, 09830 Ciudad de M\u00e9xico, CDMX", "geometry": {"location": {"lat": 19.3414455, "lng": -99.073544}, "viewport": {"northeast": {"lat": 19.34275347989272, "lng": -99.07220762010726}, "southwest": {"lat": 19.34005382010728, "lng": -99.07490727989271}}}, "icon": "https://maps.gstatic.com/mapfiles/place_api/icons/v1/png_71/generic_business-71.png", "name": "Cl\u00ednica veterinaria", "photos": [{"height": 324, "html_attributions": ["<a href=\"https://maps.google.com/maps/contrib/115769519110323623991\">Salvedo Magdaleno</a>"], "photo_reference": "CmRaAAAAQFboIb6JABcEq0WJeqFEwq5t7zGGpeb_EIaP17Faz8ErW3z8jt7cnE_MjU7-sK3Bn-hsS42nN0pJhkpVfX2M5RJ7WVpMOzgmkww6uFQlSGLvBqCv-D5PkjgM5nMyb7FCEhC8c6G0wt5EVQZcNt5O8729GhQU7M4hJX_8V_K6ELy0y05bZVba6w", "width": 449}], "place_id": "ChIJA2k4BnYCzoURbjDM2NysUZ4", "plus_code": {"compound_code": "8WRG+HH Mexico City", "global_code": "76F28WRG+HH"}, "rating": 4.5, "reference": "ChIJA2k4BnYCzoURbjDM2NysUZ4", "types": ["veterinary_care", "point_of_interest", "establishment"], "user_ratings_total": 13}, {"business_status": "OPERATIONAL", "formatted_address": "Tlaxcanes 13, Ricardo Flores Mag\u00f3n, Iztapalapa, 09820 Ciudad de M\u00e9xico, CDMX", "geometry": {"location": {"lat": 19.3541192, "lng": -99.098652}, "viewport": {"northeast": {"lat": 19.35550447989272, "lng": -99.09728697010729}, "southwest": {"lat": 19.35280482010728, "lng": -99.09998662989274}}}, "icon": "https://maps.gstatic.com/mapfiles/place_api/icons/v1/png_71/generic_business-71.png", "name": "Cl\u00ednica Veterinaria Vicky", "photos": [{"height": 4160, "html_attributions": ["<a href=\"https://maps.google.com/maps/contrib/113449247007050171122\">A Google User</a>"], "photo_reference": "CmRaAAAA1CIIIKNSyXVdJG2wV2ffD5NDm-jWX_YwQO39pxA01XJEEqxSmQwpt14227Yygo0_OkAf8cwY7qDWNcTfscUh9LNJflKuQNpMdxe-Sldbh8CZiSPBVDIqrjuR-SzjoFQ_EhDc5rnkyqUg_odmyzTlAh9gGhSkyDVjnRz04oi4NuYLyX0RtB9H-g", "width": 3120}], "place_id": "ChIJA8W-4OL90YURLxRBrA1LDZ8", "plus_code": {"compound_code": "9W32+JG Mexico City", "global_code": "76F29W32+JG"}, "rating": 4.6, "reference": "ChIJA8W-4OL90YURLxRBrA1LDZ8", "types": ["veterinary_care", "point_of_interest", "establishment"], "user_ratings_total": 70}, {"business_status": "OPERATIONAL", "formatted_address": "Av. Antonio D\u00edaz Soto y Gama, U.H. Vicente Guerrero, Iztapalapa, 09200 Ciudad de M\u00e9xico, CDMX", "geometry": {"location": {"lat": 19.360553, "lng": -99.06280129999999}, "viewport": {"northeast": {"lat": 19.36175597989272, "lng": -99.0614701701073}, "southwest": {"lat": 19.35905632010728, "lng": -99.06416982989273}}}, "icon": "https://maps.gstatic.com/mapfiles/place_api/icons/v1/png_71/generic_business-71.png", "name": "Hospital Veterinario", "place_id": "ChIJs1iAVZn90YURWufMoesz0GM", "plus_code": {"compound_code": "9W6P+6V Mexico City", "global_code": "76F29W6P+6V"}, "rating": 0, "reference": "ChIJs1iAVZn90YURWufMoesz0GM", "types": ["veterinary_care", "point_of_interest", "establishment"], "user_ratings_total": 0}, {"business_status": "OPERATIONAL", "formatted_address": "San Antonio 78, San Ignacio, Iztapalapa, 09000 Ciudad de M\u00e9xico, CDMX", "geometry": {"location": {"lat": 19.364024, "lng": -99.097798}, "viewport": {"northeast": {"lat": 19.36532167989272, "lng": -99.0964833701073}, "southwest": {"lat": 19.36262202010728, "lng": -99.09918302989273}}}, "icon": "https://maps.gstatic.com/mapfiles/place_api/icons/v1/png_71/generic_business-71.png", "name": "Veterinaria", "place_id": "ChIJLcrhmuD90YUROQvYdYWCC9w", "plus_code": {"compound_code": "9W72+JV Mexico City", "global_code": "76F29W72+JV"}, "rating": 4.2, "reference": "ChIJLcrhmuD90YUROQvYdYWCC9w", "types": ["veterinary_care", "point_of_interest", "establishment"], "user_ratings_total": 34}, {"business_status": "OPERATIONAL", "formatted_address": "Calz Taxque\u00f1a 1971, San Francisco Culhuacan, San Francisco Culhuacan de Sta Ana, Coyoac\u00e1n, 04260 Ciudad de M\u00e9xico, CDMX", "geometry": {"location": {"lat": 19.3375123, "lng": -99.11940519999999}, "viewport": {"northeast": {"lat": 19.33889957989272, "lng": -99.11808087010728}, "southwest": {"lat": 19.33619992010727, "lng": -99.12078052989273}}}, "icon": "https://maps.gstatic.com/mapfiles/place_api/icons/v1/png_71/generic_business-71.png", "name": "Farmacia y Clinica Veterinaria", "place_id": "ChIJadwYmOEBzoUR7F-jUF46Mms", "plus_code": {"compound_code": "8VQJ+26 Mexico City", "global_code": "76F28VQJ+26"}, "rating": 2.8, "reference": "ChIJadwYmOEBzoUR7F-jUF46Mms", "types": ["veterinary_care", "point_of_interest", "establishment"], "user_ratings_total": 4}, {"business_status": "OPERATIONAL", "formatted_address": "Cto Interior Avenida R\u00edo Churubusco, Aculco, Iztapalapa, 09410 Ciudad de M\u00e9xico, CDMX", "geometry": {"location": {"lat": 19.3771909, "lng": -99.1020545}, "viewport": {"northeast": {"lat": 19.37853652989272, "lng": -99.10067212010728}, "southwest": {"lat": 19.37583687010727, "lng": -99.10337177989273}}}, "icon": "https://maps.gstatic.com/mapfiles/place_api/icons/v1/png_71/generic_business-71.png", "name": "Veterinaria Churubusco", "opening_hours": {"open_now": false}, "photos": [{"height": 2048, "html_attributions": ["<a href=\"https://maps.google.com/maps/contrib/108337118797931227116\">Veterinaria Churubusco</a>"], "photo_reference": "CmRaAAAAwVr6R1gFMvWGJS-qiTsJZ7m-bKVUmEI9pDnhIAYHQjB4rnoY9YmyIbafxkJswlToyyv5ZSMbSmvoY7vKkWM4YjWFLHd_0hMX0CYbi6OTrolo3qXyU0PclczuVcav3SNJEhBg4mlkT8oR6bHEecu-9UigGhSjtrYuRXgkJJhM6hXiDmgkqsazuw", "width": 1536}], "place_id": "ChIJVf_pEXj-0YURpvcrztng8So", "plus_code": {"compound_code": "9VGX+V5 Mexico City", "global_code": "76F29VGX+V5"}, "rating": 3.9, "reference": "ChIJVf_pEXj-0YURpvcrztng8So", "types": ["veterinary_care", "health", "point_of_interest", "establishment"], "user_ratings_total": 26}, {"business_status": "OPERATIONAL", "formatted_address": "Ejido de San Francisco Culhuacan 177 a, Ex-Ejido de San Francisco Culhuacan, Coyoac\u00e1n, 04430 Ciudad de M\u00e9xico, CDMX", "geometry": {"location": {"lat": 19.3312325, "lng": -99.12834649999999}, "viewport": {"northeast": {"lat": 19.33258212989272, "lng": -99.12698142010728}, "southwest": {"lat": 19.32988247010728, "lng": -99.12968107989272}}}, "icon": "https://maps.gstatic.com/mapfiles/place_api/icons/v1/png_71/generic_business-71.png", "name": "Servicios M\u00e9dicos Veterinarios", "place_id": "ChIJ0Qb3Wd4BzoURQMBT-cLtlAs", "plus_code": {"compound_code": "8VJC+FM Mexico City", "global_code": "76F28VJC+FM"}, "rating": 0, "reference": "ChIJ0Qb3Wd4BzoURQMBT-cLtlAs", "types": ["veterinary_care", "point_of_interest", "establishment"], "user_ratings_total": 0}, {"business_status": "OPERATIONAL", "formatted_address": "Caxcan, Carlos Zapata Vela, Iztacalco, 08040 Ciudad de M\u00e9xico, CDMX", "geometry": {"location": {"lat": 19.3811403, "lng": -99.0955473}, "viewport": {"northeast": {"lat": 19.38250137989272, "lng": -99.09419542010727}, "southwest": {"lat": 19.37980172010727, "lng": -99.09689507989272}}}, "icon": "https://maps.gstatic.com/mapfiles/place_api/icons/v1/png_71/generic_business-71.png", "name": "Servicio M\u00e9dico Veterinario", "place_id": "ChIJ56jzS9H90YURDw8okL78Y9M", "plus_code": {"compound_code": "9WJ3+FQ Mexico City", "global_code": "76F29WJ3+FQ"}, "rating": 0, "reference": "ChIJ56jzS9H90YURDw8okL78Y9M", "types": ["veterinary_care", "point_of_interest", "establishment"], "user_ratings_total": 0}, {"business_status": "OPERATIONAL", "formatted_address": "Cto Interior Avenida R\u00edo Churubusco 367-A, Unidad Modelo, Iztapalapa, 09089 Ciudad de M\u00e9xico, CDMX", "geometry": {"location": {"lat": 19.3635851, "lng": -99.1253738}, "viewport": {"northeast": {"lat": 19.36493052989272, "lng": -99.12400462010729}, "southwest": {"lat": 19.36223087010728, "lng": -99.12670427989273}}}, "icon": "https://maps.gstatic.com/mapfiles/place_api/icons/v1/png_71/generic_business-71.png", "name": "Doctor Diego Sodi M\u00e9dico Veterinario Zootecnista", "place_id": "ChIJTakud0D-0YURvP81LvJC2nw", "rating": 5, "reference": "ChIJTakud0D-0YURvP81LvJC2nw", "types": ["veterinary_care", "point_of_interest", "establishment"], "user_ratings_total": 1}, {"business_status": "OPERATIONAL", "formatted_address": "08930, Av Canal de Apatlaco, Ciudad de M\u00e9xico, CDMX", "geometry": {"location": {"lat": 19.3814191, "lng": -99.11213550000001}, "viewport": {"northeast": {"lat": 19.38280827989272, "lng": -99.11077927010727}, "southwest": {"lat": 19.38010862010728, "lng": -99.11347892989272}}}, "icon": "https://maps.gstatic.com/mapfiles/place_api/icons/v1/png_71/generic_business-71.png", "name": "Consultorio Veterinario", "place_id": "ChIJ8XBhqnz-0YURIp6DKnG992g", "plus_code": {"compound_code": "9VJQ+H4 Mexico City", "global_code": "76F29VJQ+H4"}, "rating": 0, "reference": "ChIJ8XBhqnz-0YURIp6DKnG992g", "types": ["veterinary_care", "point_of_interest", "establishment"], "user_ratings_total": 0}, {"business_status": "OPERATIONAL", "formatted_address": "Cuitl\u00e1huac 16, Zona Urbana Ejidal los Reyes Culhuacan, Iztapalapa, 09840 Ciudad de M\u00e9xico, CDMX", "geometry": {"location": {"lat": 19.3451599, "lng": -99.1043435}, "viewport": {"northeast": {"lat": 19.34648962989272, "lng": -99.10299917010728}, "southwest": {"lat": 19.34378997010728, "lng": -99.10569882989272}}}, "icon": "https://maps.gstatic.com/mapfiles/place_api/icons/v1/png_71/generic_business-71.png", "name": "Est\u00e9tica y Veterinaria TONA", "opening_hours": {"open_now": false}, "place_id": "ChIJi02kIQH-0YURbwTU-B0_1Fg", "plus_code": {"compound_code": "8VWW+37 Mexico City", "global_code": "76F28VWW+37"}, "rating": 4, "reference": "ChIJi02kIQH-0YURbwTU-B0_1Fg", "types": ["veterinary_care", "point_of_interest", "establishment"], "user_ratings_total": 2}, {"business_status": "OPERATIONAL", "formatted_address": "Calle Citlalzin, Ricardo Flores Mag\u00f3n 11, Iztapalapa, 09820 CDMX", "geometry": {"location": {"lat": 19.3529692, "lng": -99.09919389999999}, "viewport": {"northeast": {"lat": 19.35431902989273, "lng": -99.09784407010727}, "southwest": {"lat": 19.35161937010728, "lng": -99.1005437298927}}}, "icon": "https://maps.gstatic.com/mapfiles/place_api/icons/v1/png_71/generic_business-71.png", "name": "Cl\u00ednica Veterinaria Dogos", "opening_hours": {"open_now": false}, "photos": [{"height": 3120, "html_attributions": ["<a href=\"https://maps.google.com/maps/contrib/111717275980980719588\">V\u00edctor A. Navarro C.</a>"], "photo_reference": "CmRaAAAAEdUFLYFe-NBsDKzh5vf_aYlqboSRaiQ6kV9OJ0vh8uORdGBLbXurePPODsqy3XOuLBVq_EzVxJo_NQ1Q3F5LblLjT-nZNQhVTZd3yYOo8-mJFoPqQMrrRNQFHdE4kw7bEhA1v5q445W4G6Kx88xmTp7gGhQVpe9VY5-SBMAOxhgZUPwLYqzETg", "width": 4160}], "place_id": "ChIJGcYj0uL90YURQtewZQlXH9Y", "plus_code": {"compound_code": "9W32+58 Mexico City", "global_code": "76F29W32+58"}, "rating": 4.2, "reference": "ChIJGcYj0uL90YURQtewZQlXH9Y", "types": ["veterinary_care", "point_of_interest", "establishment"], "user_ratings_total": 33}, {"business_status": "OPERATIONAL", "formatted_address": "Av. Luis Hidalgo Monroy 148, San Pablo, Iztapalapa, 09000 Ciudad de M\u00e9xico, CDMX", "geometry": {"location": {"lat": 19.3586402, "lng": -99.0864299}, "viewport": {"northeast": {"lat": 19.35995317989272, "lng": -99.08509192010729}, "southwest": {"lat": 19.35725352010727, "lng": -99.08779157989274}}}, "icon": "https://maps.gstatic.com/mapfiles/place_api/icons/v1/png_71/generic_business-71.png", "name": "Veterinaria Aqua Pets", "opening_hours": {"open_now": false}, "photos": [{"height": 1280, "html_attributions": ["<a href=\"https://maps.google.com/maps/contrib/116518995762239089018\">Veterinaria Aqua Pets</a>"], "photo_reference": "CmRaAAAA5nrfHQf164g81DRORm05s5yLAaiNc1T0wnjseibmOQTVfsvqSCKKZosicVWgVq0hqKfpIxqtcMW65AQhofUwox8pSPAH0EWPnzw6wmQXEXI-NRXgCX27QBAwtaxuTy6mEhAGVlm5lb7Jb-VvlICiHbJWGhSMtl24MdB8si7RayOHHVbd11rYjA", "width": 720}], "place_id": "ChIJLUhBye790YUR3JIpM_KJvWs", "plus_code": {"compound_code": "9W57+FC Mexico City", "global_code": "76F29W57+FC"}, "rating": 4, "reference": "ChIJLUhBye790YUR3JIpM_KJvWs", "types": ["veterinary_care", "health", "point_of_interest", "establishment"], "user_ratings_total": 25}, {"business_status": "OPERATIONAL", "formatted_address": "Sector Popular, Popular, Mexico City, CDMX", "geometry": {"location": {"lat": 19.369495, "lng": -99.11861789999999}, "viewport": {"northeast": {"lat": 19.37084482989272, "lng": -99.11726807010727}, "southwest": {"lat": 19.36814517010728, "lng": -99.1199677298927}}}, "icon": "https://maps.gstatic.com/mapfiles/place_api/icons/v1/png_71/generic_business-71.png", "name": "Servicio Medico Veterinario Integral", "place_id": "ChIJhayGV2n-0YURBXR9fRlW2KA", "plus_code": {"compound_code": "9V9J+QH Mexico City", "global_code": "76F29V9J+QH"}, "rating": 0, "reference": "ChIJhayGV2n-0YURBXR9fRlW2KA", "types": ["veterinary_care", "point_of_interest", "establishment"], "user_ratings_total": 0}, {"business_status": "OPERATIONAL", "formatted_address": "Av San Lorenzo 149, San Juan, Iztapalapa, 09830 Ciudad de M\u00e9xico, CDMX", "geometry": {"location": {"lat": 19.3457009, "lng": -99.07703990000002}, "viewport": {"northeast": {"lat": 19.34706092989272, "lng": -99.07565707010728}, "southwest": {"lat": 19.34436127010728, "lng": -99.07835672989273}}}, "icon": "https://maps.gstatic.com/mapfiles/place_api/icons/v1/png_71/generic_business-71.png", "name": "VETERINARIA GARCIA", "opening_hours": {"open_now": false}, "photos": [{"height": 3024, "html_attributions": ["<a href=\"https://maps.google.com/maps/contrib/108592207545086367172\">A Google User</a>"], "photo_reference": "CmRaAAAANUriQ389Z-WCGDsWApq30oOqC2yM2hv_FTARwb_OGffX2vVjE2tCKxUsNTrTQVXVRkbX6iWmHl3XPS40MrK4y_HBKDeLti5ZlLPiUBJYIMobF121HCQ0vVQDYZhXRqKpEhDLBgL4KrpFQXxkrIQzcjZ6GhTyZ_AGhhc3qHWN9Fmbj6uXrZIC-A", "width": 4032}], "place_id": "ChIJccmaD4v90YUR5gqn0m3wEPw", "plus_code": {"compound_code": "8WWF+75 Mexico City", "global_code": "76F28WWF+75"}, "rating": 4.6, "reference": "ChIJccmaD4v90YUR5gqn0m3wEPw", "types": ["veterinary_care", "point_of_interest", "establishment"], "user_ratings_total": 12}, {"business_status": "OPERATIONAL", "formatted_address": "Sur 27 58, Leyes de Reforma 1ra Secc, Iztapalapa, 09359 Ciudad de M\u00e9xico, CDMX", "geometry": {"location": {"lat": 19.3578381, "lng": -99.06925659999999}, "viewport": {"northeast": {"lat": 19.35920107989272, "lng": -99.06795477010728}, "southwest": {"lat": 19.35650142010727, "lng": -99.07065442989273}}}, "icon": "https://maps.gstatic.com/mapfiles/place_api/icons/v1/png_71/generic_business-71.png", "name": "Consultorio Veterinario", "photos": [{"height": 4032, "html_attributions": ["<a href=\"https://maps.google.com/maps/contrib/105134677550342132869\">Miguel Cira</a>"], "photo_reference": "CmRaAAAABdIn7WYWMVQAmvTkUS06lziK8zLubvT7D-njNjm9hxPn7SjzMv53y1snuChahOd1Wvur5Hv8PuPfSdAKGYzqRw15EG-WrCBu9aylLlMjkcs8LLukccAvHN3T3Ne3g8k2EhCU_ETCnvU7pWFe5AvuSH8mGhQfPz2KRpWzOebhdk8YJ_aJwRFuDg", "width": 1816}], "place_id": "ChIJg4x2kpD90YURUwGx1T3Lhs8", "plus_code": {"compound_code": "9W5J+47 Mexico City", "global_code": "76F29W5J+47"}, "rating": 4.5, "reference": "ChIJg4x2kpD90YURUwGx1T3Lhs8", "types": ["veterinary_care", "point_of_interest", "establishment"], "user_ratings_total": 2}, {"business_status": "OPERATIONAL", "formatted_address": "Local 9 Interior Bazar Iztapalapa., San Lucas, 09000 Iztapalapa, CDMX", "geometry": {"location": {"lat": 19.3605537, "lng": -99.0939507}, "viewport": {"northeast": {"lat": 19.36188987989272, "lng": -99.0925488201073}, "southwest": {"lat": 19.35919022010728, "lng": -99.09524847989273}}}, "icon": "https://maps.gstatic.com/mapfiles/place_api/icons/v1/png_71/generic_business-71.png", "name": "Clinica Veterinaria Pet's Druppy", "opening_hours": {"open_now": true}, "photos": [{"height": 584, "html_attributions": ["<a href=\"https://maps.google.com/maps/contrib/104416595644017349225\">Sandro Romero</a>"], "photo_reference": "CmRaAAAA0qMobSac_UiIib7JY4Vf5zWFKcovgxLDYtej9ehHAcnfchUlbYxc2IiXfcxL3X7unYR9IaCwjeqdOVIRbgoMF0d22SnohjXwXWKkZIpaiP3TKfnQJl_00Q6dZoH61ZIKEhB0SOH40C17eKYqfvEVa8VGGhSKjcbPh6KPWlU55YuMalonsKUUyA", "width": 1040}], "place_id": "ChIJE13s7Ob90YURDveUBokOlVg", "plus_code": {"compound_code": "9W64+6C Mexico City", "global_code": "76F29W64+6C"}, "rating": 4.3, "reference": "ChIJE13s7Ob90YURDveUBokOlVg", "types": ["veterinary_care", "point_of_interest", "establishment"], "user_ratings_total": 9}]