[{"business_status": "OPERATIONAL", "formatted_address": "Pastores 29, Santa Isabel Industrial, Iztapalapa, 09820 Ciudad de M\u00e9xico, CDMX", "geometry": {"location": {"lat": 19.3543524, "lng": -99.10483889999999}, "viewport": {"northeast": {"lat": 19.35568307989272, "lng": -99.10349257010729}, "southwest": {"lat": 19.35298342010728, "lng": -99.10619222989273}}}, "icon": "https://maps.gstatic.com/mapfiles/place_api/icons/v1/png_71/shopping-71.png", "name": "Muebles Y Gabinetes Mexicanos", "place_id": "ChIJfQPMs5gC0oURJSroG-eE76Q", "plus_code": {"compound_code": "9V3W+P3 Mexico City", "global_code": "76F29V3W+P3"}, "rating": 0, "reference": "ChIJfQPMs5gC0oURJSroG-eE76Q", "types": ["furniture_store", "home_goods_store", "point_of_interest", "store", "establishment"], "user_ratings_total": 0}, {"business_status": "OPERATIONAL", "formatted_address": "Arroz 56, Santa Isabel Industrial, Iztapalapa, 09820 Ciudad de M\u00e9xico, CDMX", "geometry": {"location": {"lat": 19.3536644, "lng": -99.1032997}, "viewport": {"northeast": {"lat": 19.35503402989272, "lng": -99.1019912201073}, "southwest": {"lat": 19.35233437010728, "lng": -99.10469087989273}}}, "icon": "https://maps.gstatic.com/mapfiles/place_api/icons/v1/png_71/shopping-71.png", "name": "Industrias Llordec", "place_id": "ChIJsR-GaAj-0YURbX5bIHn-rHs", "plus_code": {"compound_code": "9V3W+FM Mexico City", "global_code": "76F29V3W+FM"}, "rating": 0, "reference": "ChIJsR-GaAj-0YURbX5bIHn-rHs", "types": ["furniture_store", "home_goods_store", "point_of_interest", "store", "establishment"], "user_ratings_total": 0}, {"business_status": "OPERATIONAL", "formatted_address": "Arroz 206, Santa Isabel Industrial, Iztapalapa, 09820 Ciudad de M\u00e9xico, CDMX", "geometry": {"location": {"lat": 19.3489695, "lng": -99.1060718}, "viewport": {"northeast": {"lat": 19.35033702989272, "lng": -99.10475502010728}, "southwest": {"lat": 19.34763737010728, "lng": -99.10745467989273}}}, "icon": "https://maps.gstatic.com/mapfiles/place_api/icons/v1/png_71/shopping-71.png", "name": "Muebles Tapizados M\u00f3naco", "photos": [{"height": 4160, "html_attributions": ["<a href=\"https://maps.google.com/maps/contrib/110988372815648239250\">karate Sensei Alejandro Z\u00fa\u00f1iga</a>"], "photo_reference": "CmRaAAAARTKfzBGX51ineIbivuF7g_xmMGb1YUV7Vkol4c2ekXCrxSX00VaYmECydEJ-c99Tyxe2NaJB7Y7ZCUMZgbQSISiXOw6Z5wSByr9GTasl6Q0ttV4IIJQ_2Zrh-ixaDRviEhBM0lkPFEnf5ndGvZ--ODgjGhTkYEmTGqzDjAFzx0sN9GHB3-4iKw", "width": 3120}], "place_id": "ChIJaWvhiQb-0YURjEWXGhXomOc", "plus_code": {"compound_code": "8VXV+HH Mexico City", "global_code": "76F28VXV+HH"}, "rating": 4.3, "reference": "ChIJaWvhiQb-0YURjEWXGhXomOc", "types": ["furniture_store", "home_goods_store", "point_of_interest", "store", "establishment"], "user_ratings_total": 39}, {"business_status": "OPERATIONAL", "formatted_address": "Arroz 115, Santa Isabel Industrial, Iztapalapa, 09820 Ciudad de M\u00e9xico, CDMX", "geometry": {"location": {"lat": 19.3519703, "lng": -99.1045695}, "viewport": {"northeast": {"lat": 19.35328237989273, "lng": -99.10314917010729}, "southwest": {"lat": 19.35058272010728, "lng": -99.10584882989274}}}, "icon": "https://maps.gstatic.com/mapfiles/place_api/icons/v1/png_71/shopping-71.png", "name": "Compa\u00f1ia Industrial Ceima Rattan Sa De Cv", "place_id": "ChIJs3OvLgb-0YURmKpcZdW4pgg", "plus_code": {"compound_code": "9V2W+Q5 Mexico City", "global_code": "76F29V2W+Q5"}, "rating": 4, "reference": "ChIJs3OvLgb-0YURmKpcZdW4pgg", "types": ["furniture_store", "home_goods_store", "point_of_interest", "store", "establishment"], "user_ratings_total": 4}, {"business_status": "OPERATIONAL", "formatted_address": "Camino Antiguo a Culhuacan 146, Estrella del Sur, Iztapalapa, 09820 Ciudad de M\u00e9xico, CDMX", "geometry": {"location": {"lat": 19.3508333, "lng": -99.1027778}, "viewport": {"northeast": {"lat": 19.35227357989272, "lng": -99.10173007010728}, "southwest": {"lat": 19.34957392010728, "lng": -99.10442972989271}}}, "icon": "https://maps.gstatic.com/mapfiles/place_api/icons/v1/png_71/shopping-71.png", "name": "Muebles Monaco", "opening_hours": {"open_now": false}, "photos": [{"height": 4128, "html_attributions": ["<a href=\"https://maps.google.com/maps/contrib/104180634014805248580\">A Google User</a>"], "photo_reference": "CmRaAAAAWYyxcQtXtRLqOiuwXhbm4UMU997wPje24QSkPxuHHy1jjLr6lHrDnrJ3isQiUX0SUXhUzUGpH_8WDKaqv-HN91Xa8ebTv0_6E37JpubrZrsGRYzeWwsqaDa_6hOJkdNLEhCj7JHhJjIuH2j0apv3s0WiGhT10YWr8iQh829cumfBx0ZNLkFJ-g", "width": 3096}], "place_id": "ChIJC_gFqwf-0YUR_iZ6kU8u4qc", "plus_code": {"compound_code": "9V2W+8V Mexico City", "global_code": "76F29V2W+8V"}, "rating": 4.1, "reference": "ChIJC_gFqwf-0YUR_iZ6kU8u4qc", "types": ["furniture_store", "home_goods_store", "point_of_interest", "store", "establishment"], "user_ratings_total": 78}, {"business_status": "OPERATIONAL", "formatted_address": "Ermita Iztapalapa 784, Amp Ricardo Flores Mag\u00f3n, Iztapalapa, 09070 Ciudad de M\u00e9xico, CDMX", "geometry": {"location": {"lat": 19.356468, "lng": -99.107377}, "viewport": {"northeast": {"lat": 19.35773837989272, "lng": -99.10603487010728}, "southwest": {"lat": 19.35503872010728, "lng": -99.10873452989273}}}, "icon": "https://maps.gstatic.com/mapfiles/place_api/icons/v1/png_71/shopping-71.png", "name": "Muebles Troncoso Ermita", "opening_hours": {"open_now": true}, "photos": [{"height": 3464, "html_attributions": ["<a href=\"https://maps.google.com/maps/contrib/114758342237463045244\">Adriana hugz</a>"], "photo_reference": "CmRZAAAA6yP9HCqLAhZujpijSKkJU5HaErRpwPBFbfpnoIw2a7d9nYGzv5S5gEibo3yGNzo6VKVDfVV5V1j7vTRfoRHuw1EAAZUottaEXciclcWkWGpxdc7fDPFxoTGSK2SSDbDoEhBoRweECW4SvsloZ7IKyVEwGhQbU6ysLtv4bj4cIvfbzZVQH4sX8w", "width": 4618}], "place_id": "ChIJ6yhr1An-0YURidUrzgstKaE", "plus_code": {"compound_code": "9V4V+H2 Mexico City", "global_code": "76F29V4V+H2"}, "rating": 3.9, "reference": "ChIJ6yhr1An-0YURidUrzgstKaE", "types": ["furniture_store", "home_goods_store", "point_of_interest", "store", "establishment"], "user_ratings_total": 102}, {"business_status": "OPERATIONAL", "formatted_address": "Calzada Ermita Iztapalapa # 970 Col. Sta. B\u00e1rbara 2da sec.Del. Iztapalapa CP Col, Sta B\u00e1rbara, Iztapalapa, 09000 Ciudad de M\u00e9xico", "geometry": {"location": {"lat": 19.356187, "lng": -99.1007874}, "viewport": {"northeast": {"lat": 19.35752622989272, "lng": -99.0994359701073}, "southwest": {"lat": 19.35482657010728, "lng": -99.10213562989274}}}, "icon": "https://maps.gstatic.com/mapfiles/place_api/icons/v1/png_71/shopping-71.png", "name": "Muebles Dico OUTLET ERMITA IZTAPALAPA", "opening_hours": {"open_now": true}, "photos": [{"height": 3120, "html_attributions": ["<a href=\"https://maps.google.com/maps/contrib/102361496484121155249\">Mario Estrada</a>"], "photo_reference": "CmRaAAAARxm4wqrF6DGSojjvBTo7JpsGLm_P2xmMjycghkqPRRrlhllWFiQBRID1Wts6vTUr90ZWb53Uk3u2qhcj3C8MmO0-g_eXvsBEBibBnTh82lo8j-RTatnCxOxwbmZyKqQOEhCUsSDoPhda2XbkBbHK4vvGGhSsb1kqaGH2lJmqTw9qpMwkEPbv4A", "width": 4160}], "place_id": "ChIJVx3vb-L90YUReYN7ZIm5byc", "plus_code": {"compound_code": "9V4X+FM Mexico City", "global_code": "76F29V4X+FM"}, "rating": 4, "reference": "ChIJVx3vb-L90YUReYN7ZIm5byc", "types": ["furniture_store", "home_goods_store", "point_of_interest", "store", "establishment"], "user_ratings_total": 154}, {"business_status": "OPERATIONAL", "formatted_address": "Camino Antiguo a Culhuacan 141 - 1, Santa Isabel Industrial, Iztapalapa, 09820 Ciudad de M\u00e9xico, CDMX", "geometry": {"location": {"lat": 19.3511082, "lng": -99.1034524}, "viewport": {"northeast": {"lat": 19.35244417989272, "lng": -99.10205622010729}, "southwest": {"lat": 19.34974452010728, "lng": -99.10475587989274}}}, "icon": "https://maps.gstatic.com/mapfiles/place_api/icons/v1/png_71/shopping-71.png", "name": "F & F Wood Specialists, S.A. De C.V.", "opening_hours": {"open_now": false}, "photos": [{"height": 1200, "html_attributions": ["<a href=\"https://maps.google.com/maps/contrib/109604562740581178486\">A Google User</a>"], "photo_reference": "CmRaAAAANgoWaHDvoAS7omKYvcN8I81NpJ_4PsegHnnJ0mcyVGkWw1jH4xVssuwdaduA1h1MFTDedrpw1lQ55ud55H9v0FA4er74Tr9HSwLdEzFGvKus9KGzpYTaSOo_Lt4YiIw6EhA9tm_P8XXf1eQJO9WxW9dkGhRsNdxvXcGhltM38BXD-AmS39l3tQ", "width": 803}], "place_id": "ChIJP4f6Zgb-0YURyx_eCHHEcR0", "plus_code": {"compound_code": "9V2W+CJ Mexico City", "global_code": "76F29V2W+CJ"}, "rating": 3.9, "reference": "ChIJP4f6Zgb-0YURyx_eCHHEcR0", "types": ["furniture_store", "home_goods_store", "point_of_interest", "store", "establishment"], "user_ratings_total": 65}, {"business_status": "OPERATIONAL", "formatted_address": "Vaqueros 5, Santa Isabel Industrial, Iztapalapa, 09820 Ciudad de M\u00e9xico, CDMX", "geometry": {"location": {"lat": 19.3509234, "lng": -99.1058664}, "viewport": {"northeast": {"lat": 19.35229817989272, "lng": -99.10451212010729}, "southwest": {"lat": 19.34959852010728, "lng": -99.10721177989272}}}, "icon": "https://maps.gstatic.com/mapfiles/place_api/icons/v1/png_71/shopping-71.png", "name": "Muebles Tubulares Beta, S.a. De C.v.", "opening_hours": {"open_now": false}, "photos": [{"height": 520, "html_attributions": ["<a href=\"https://maps.google.com/maps/contrib/118362733418049326252\">A Google User</a>"], "photo_reference": "CmRaAAAA_s2x0SR_FegA61t8Pd82dP9YLLV74Ioi64vA3DmYws2k4STAjpsXhsNUeCJRh_zri7F_evJwOZMaeMrnZlitHj2vfsR8UD-EYNgBaEGmI1eHz6TA2BvVvPSN4rfnUflDEhD5yiUndq0uRdmzKn4qP6SIGhTJeeHHxQ5zS4BNZnnq3EejC6HyJA", "width": 746}], "place_id": "ChIJGTNnEwb-0YUR6LCiXSW7i-E", "plus_code": {"compound_code": "9V2V+9M Mexico City", "global_code": "76F29V2V+9M"}, "rating": 4.3, "reference": "ChIJGTNnEwb-0YUR6LCiXSW7i-E", "types": ["furniture_store", "home_goods_store", "point_of_interest", "store", "establishment"], "user_ratings_total": 17}, {"business_status": "OPERATIONAL", "formatted_address": "Ermita Iztapalapa 609, Amp Ricardo Flores Mag\u00f3n, Iztapalapa, 09810 Ciudad de M\u00e9xico, CDMX", "geometry": {"location": {"lat": 19.3556469, "lng": -99.10018079999999}, "viewport": {"northeast": {"lat": 19.35698612989273, "lng": -99.09883222010727}, "southwest": {"lat": 19.35428647010728, "lng": -99.1015318798927}}}, "icon": "https://maps.gstatic.com/mapfiles/place_api/icons/v1/png_71/shopping-71.png", "name": "Verfra S.A. de C.V.", "opening_hours": {"open_now": true}, "place_id": "ChIJMUN71An-0YURpFVr3Dzaz6M", "plus_code": {"compound_code": "9V4X+7W Mexico City", "global_code": "76F29V4X+7W"}, "rating": 0, "reference": "ChIJMUN71An-0YURpFVr3Dzaz6M", "types": ["furniture_store", "home_goods_store", "point_of_interest", "store", "establishment"], "user_ratings_total": 0}, {"business_status": "OPERATIONAL", "formatted_address": "Ermita Iztapalapa 835, Santa Isabel Industrial, Iztapalapa, 09820 Ciudad de M\u00e9xico, CDMX", "geometry": {"location": {"lat": 19.3558706, "lng": -99.1052825}, "viewport": {"northeast": {"lat": 19.35728612989272, "lng": -99.10392637010727}, "southwest": {"lat": 19.35458647010728, "lng": -99.10662602989272}}}, "icon": "https://maps.gstatic.com/mapfiles/place_api/icons/v1/png_71/shopping-71.png", "name": "Salinas & Rocha Ermita", "opening_hours": {"open_now": true}, "photos": [{"height": 1588, "html_attributions": ["<a href=\"https://maps.google.com/maps/contrib/105024320071607166999\">A Google User</a>"], "photo_reference": "CmRaAAAAsG6-6pB1FjZfgUwGl-sZAtXtrOzbQPWWGv5XETtpNke0E2hCaNAJHdxJZSesUHjqjWgMliM8pfi6y8_eD7YVAe5yyQVp-kb1PBvQtpiYFUyt_avv2EISApVbebr89ubREhB-R0elfFxOwwYCkvSF6-OkGhRSkKavmohkXbVdvT_yVeTXH56vFw", "width": 3264}], "place_id": "ChIJdWidIgn-0YURdrQxdhF76iE", "plus_code": {"compound_code": "9V4V+8V Mexico City", "global_code": "76F29V4V+8V"}, "rating": 3.7, "reference": "ChIJdWidIgn-0YURdrQxdhF76iE", "types": ["furniture_store", "home_goods_store", "point_of_interest", "store", "establishment"], "user_ratings_total": 379}, {"business_status": "OPERATIONAL", "formatted_address": "Los Reyes 2, Sta B\u00e1rbara, Iztapalapa, 09000 Ciudad de M\u00e9xico, CDMX", "geometry": {"location": {"lat": 19.3562804, "lng": -99.10059059999999}, "viewport": {"northeast": {"lat": 19.35762052989272, "lng": -99.09919097010726}, "southwest": {"lat": 19.35492087010728, "lng": -99.10189062989271}}}, "icon": "https://maps.gstatic.com/mapfiles/place_api/icons/v1/png_71/shopping-71.png", "name": "MUEBLERIA DICO", "opening_hours": {"open_now": true}, "photos": [{"height": 4032, "html_attributions": ["<a href=\"https://maps.google.com/maps/contrib/114340396108658326165\">Alex Retiz</a>"], "photo_reference": "CmRaAAAA4-pf65jg1LjOxKrIdLzXO6Y7IWacobo5YcxMBgwK48Rvt1H1WJy0tqHzzwAVARfPJ8f3X0Ja3lTT6FExKJYYwrfoCj0vIi4wQSWH-T3BZJdfZa1tFMY8XAu2lgzMVb5MEhATTvD9zecsN-MnXotvcKclGhSe5dlBhbBOuM5hECX6AX4njZV6dQ", "width": 3024}], "place_id": "ChIJB_KZdRf90YURPOLR7okgM38", "plus_code": {"compound_code": "9V4X+GQ Mexico City", "global_code": "76F29V4X+GQ"}, "rating": 0, "reference": "ChIJB_KZdRf90YURPOLR7okgM38", "types": ["furniture_store", "home_goods_store", "point_of_interest", "store", "establishment"], "user_ratings_total": 0}, {"business_status": "OPERATIONAL", "formatted_address": "Ermita Iztapalapa 915, Santa Isabel Industrial, Iztapalapa, 09810 Ciudad de M\u00e9xico, CDMX", "geometry": {"location": {"lat": 19.3556644, "lng": -99.10267180000001}, "viewport": {"northeast": {"lat": 19.35707217989273, "lng": -99.10131842010728}, "southwest": {"lat": 19.35437252010728, "lng": -99.10401807989273}}}, "icon": "https://maps.gstatic.com/mapfiles/place_api/icons/v1/png_71/shopping-71.png", "name": "Coppel Iztapalapa", "opening_hours": {"open_now": true}, "photos": [{"height": 3096, "html_attributions": ["<a href=\"https://maps.google.com/maps/contrib/111110660026337759575\">A Google User</a>"], "photo_reference": "CmRaAAAAJd_OWggQNLybQd_Ds6bNifCCOQS7dcvVtiOTfodC9gP1BdofooCYh9Qsg1us4wFXjuoJVaZZD2APQJva3kiEyR2Wd2MXT225Uc1Qj7MAPKWCH0malYR11LeKGFbLNuNXEhDeWrkuO2Agtu_Lk4VUGgbkGhQmPY5Dci4YgfrAwYq-ofsMQKMOKQ", "width": 4128}], "place_id": "ChIJa_-LtQn-0YURuRZL0bJY5Sw", "plus_code": {"compound_code": "9V4W+7W Mexico City", "global_code": "76F29V4W+7W"}, "rating": 4.1, "reference": "ChIJa_-LtQn-0YURuRZL0bJY5Sw", "types": ["department_store", "electronics_store", "furniture_store", "home_goods_store", "point_of_interest", "clothing_store", "store", "establishment"], "user_ratings_total": 209}, {"business_status": "OPERATIONAL", "formatted_address": "Camino Cerro de la Estrella, El Molino Iztapalapa, Iztapalapa, 09850 Ciudad de M\u00e9xico, CDMX", "geometry": {"location": {"lat": 19.3567195, "lng": -99.09008569999999}, "viewport": {"northeast": {"lat": 19.35804842989272, "lng": -99.08876352010726}, "southwest": {"lat": 19.35534877010728, "lng": -99.09146317989271}}}, "icon": "https://maps.gstatic.com/mapfiles/place_api/icons/v1/png_71/shopping-71.png", "name": "Muebles Infantiles \"Emi\"", "place_id": "ChIJyW7afO_90YURZJX_Kvie9hA", "plus_code": {"compound_code": "9W45+MX Mexico City", "global_code": "76F29W45+MX"}, "rating": 0, "reference": "ChIJyW7afO_90YURZJX_Kvie9hA", "types": ["furniture_store", "home_goods_store", "point_of_interest", "store", "establishment"], "user_ratings_total": 0}, {"business_status": "OPERATIONAL", "formatted_address": "San Pablo, 09000 Mexico City, CDMX", "geometry": {"location": {"lat": 19.3575404, "lng": -99.086237}, "viewport": {"northeast": {"lat": 19.35886767989272, "lng": -99.08484157010727}, "southwest": {"lat": 19.35616802010728, "lng": -99.08754122989272}}}, "icon": "https://maps.gstatic.com/mapfiles/place_api/icons/v1/png_71/shopping-71.png", "name": "Desibia Muebles", "place_id": "ChIJhdfm6u790YURbhhukLAY0II", "plus_code": {"compound_code": "9W57+2G Mexico City", "global_code": "76F29W57+2G"}, "rating": 0, "reference": "ChIJhdfm6u790YURbhhukLAY0II", "types": ["furniture_store", "home_goods_store", "point_of_interest", "store", "establishment"], "user_ratings_total": 0}, {"business_status": "OPERATIONAL", "formatted_address": "Ermita Iztapalapa 3417, Iztapalapa, 09070 Ciudad de M\u00e9xico, CDMX", "geometry": {"location": {"lat": 19.3567072, "lng": -99.1100999}, "viewport": {"northeast": {"lat": 19.35799552989273, "lng": -99.10875637010727}, "southwest": {"lat": 19.35529587010728, "lng": -99.11145602989272}}}, "icon": "https://maps.gstatic.com/mapfiles/place_api/icons/v1/png_71/shopping-71.png", "name": "Kiwi Muebles - Mobiliario para eventos, oficinas y escuelas.", "opening_hours": {"open_now": false}, "photos": [{"height": 4160, "html_attributions": ["<a href=\"https://maps.google.com/maps/contrib/111410913309606739653\">Omar N\u00fa\u00f1ez</a>"], "photo_reference": "CmRaAAAA-CN9Y5UJkH5AuJpwwJrCydUXLLcLrwgIN9hIexSRyy1tKqRerjF8Eqnde9VjzndYF0revRwjSNU-1_u70Q5fHGQr2GuN7V7l9Jm-0Dk5CHJMyXPwGiVppzBMxiy_JWakEhAMQz-42Nfx7yHWtPxYwQBeGhRkc39miBWXfRlxtvNXKLno232P3Q", "width": 2336}], "place_id": "ChIJ2Wi3XlgA0oURrqZv-CAsiRg", "plus_code": {"compound_code": "9V4Q+MX Mexico City", "global_code": "76F29V4Q+MX"}, "rating": 1, "reference": "ChIJ2Wi3XlgA0oURrqZv-CAsiRg", "types": ["furniture_store", "home_goods_store", "point_of_interest", "store", "establishment"], "user_ratings_total": 1}, {"business_status": "OPERATIONAL", "formatted_address": "Esquina Victoria. Local 125 y 126, Privada Victoria, San Lucas, 09000 Ciudad de M\u00e9xico, CDMX", "geometry": {"location": {"lat": 19.3603785, "lng": -99.0939904}, "viewport": {"northeast": {"lat": 19.36171612989272, "lng": -99.09259402010728}, "southwest": {"lat": 19.35901647010727, "lng": -99.09529367989273}}}, "icon": "https://maps.gstatic.com/mapfiles/place_api/icons/v1/png_71/shopping-71.png", "name": "Muebles Artesenales Sobre Medida y Dise\u00f1o", "opening_hours": {"open_now": false}, "place_id": "ChIJE13s7Ob90YURyJ5Pr7Bt0oo", "plus_code": {"compound_code": "9W64+5C Mexico City", "global_code": "76F29W64+5C"}, "rating": 0, "reference": "ChIJE13s7Ob90YURyJ5Pr7Bt0oo", "types": ["furniture_store", "home_goods_store", "point_of_interest", "store", "establishment"], "user_ratings_total": 0}, {"business_status": "OPERATIONAL", "formatted_address": "Av. Tlahuac 145, Minerva, Iztapalapa, 09810 Ciudad de M\u00e9xico, CDMX", "geometry": {"location": {"lat": 19.3512289, "lng": -99.1066669}, "viewport": {"northeast": {"lat": 19.35257232989272, "lng": -99.1052760701073}, "southwest": {"lat": 19.34987267010728, "lng": -99.10797572989273}}}, "icon": "https://maps.gstatic.com/mapfiles/place_api/icons/v1/png_71/shopping-71.png", "name": "Aguiplast, S.A. de C.V.", "opening_hours": {"open_now": false}, "photos": [{"height": 3726, "html_attributions": ["<a href=\"https://maps.google.com/maps/contrib/114636192902742909158\">AGUIPLAST, S.A. DE C.V.</a>"], "photo_reference": "CmRaAAAAjH6UQULhFItcgOrgZIIL9WsbkOkCh-L40ItYOKN4lN7x5N9yW3nzkXLYkZbr2a_d9jDa_O2t0v8uzdFKZrNI6s9uvqs7VyWN31Pk8stSslHHHIb-F9LUdm9uY2KJcjsFEhCjKYRCCqVcAf-8tw6VJgUJGhQCggoSvVe9cqvw0o2Kt6e0ic_A-A", "width": 2568}], "place_id": "ChIJ1ftk2wj-0YURCKSCNZY9LUA", "plus_code": {"compound_code": "9V2V+F8 Mexico City", "global_code": "76F29V2V+F8"}, "rating": 4.5, "reference": "ChIJ1ftk2wj-0YURCKSCNZY9LUA", "types": ["furniture_store", "home_goods_store", "point_of_interest", "store", "establishment"], "user_ratings_total": 29}, {"business_status": "OPERATIONAL", "formatted_address": "Benito Ju\u00e1rez 46, Los Reyes Culhuacan, Iztapalapa, 09840 Ciudad de M\u00e9xico, CDMX", "geometry": {"location": {"lat": 19.3437099, "lng": -99.1094113}, "viewport": {"northeast": {"lat": 19.34511042989272, "lng": -99.10803087010729}, "southwest": {"lat": 19.34241077010727, "lng": -99.11073052989273}}}, "icon": "https://maps.gstatic.com/mapfiles/place_api/icons/v1/png_71/shopping-71.png", "name": "D\u00b4Arte Muebles", "opening_hours": {"open_now": true}, "photos": [{"height": 525, "html_attributions": ["<a href=\"https://maps.google.com/maps/contrib/111776555635821916415\">A Google User</a>"], "photo_reference": "CmRaAAAAa4rzilR_O-P1nTbKUQkdo_nE2nAw4GZSYG_VFvxra5_r_jG7A5WV7_88tpishDgcpmdYSJ7Ob6zlUQp0j1NkOpSv9dQg0ZCbOXBs1bO1Qwr8s0_q_3YL_TJ-ht56rqhTEhACSibAQO_h5Acrs1CLaAuDGhR28CxwP4SGYaonkUQpA_to0CknVg", "width": 584}], "place_id": "ChIJhzEiqQP-0YURG-Z-za520sU", "plus_code": {"compound_code": "8VVR+F6 Mexico City", "global_code": "76F28VVR+F6"}, "rating": 3.5, "reference": "ChIJhzEiqQP-0YURG-Z-za520sU", "types": ["furniture_store", "home_goods_store", "point_of_interest", "store", "establishment"], "user_ratings_total": 8}, {"business_status": "OPERATIONAL", "formatted_address": "Capilla del Carmen 31, El Santuario, Iztapalapa, 09820 Ciudad de M\u00e9xico, CDMX", "geometry": {"location": {"lat": 19.3540633, "lng": -99.0946101}, "viewport": {"northeast": {"lat": 19.35542907989272, "lng": -99.09326822010728}, "southwest": {"lat": 19.35272942010728, "lng": -99.09596787989271}}}, "icon": "https://maps.gstatic.com/mapfiles/place_api/icons/v1/png_71/shopping-71.png", "name": "Cocinas Quantum", "opening_hours": {"open_now": false}, "photos": [{"height": 3072, "html_attributions": ["<a href=\"https://maps.google.com/maps/contrib/113526679310233543312\">A Google User</a>"], "photo_reference": "CmRaAAAAtq1Wzrtt5L65DQD5i9MvaEnE9WvbV28OFFnOeR9Pi9jE2SoEJ9h3SVmnS9yBtoudIJvMxpEU8ajtaZQkupWwMp7Cd2EHt64mAg3nUcgKQUKJMFICnQ5fVPkCiyST3omxEhAf1m9N3D_5DH62VF3xvDeCGhRM1wBCDjFJBef8a-1cKBBHUIXV5g", "width": 4096}], "place_id": "ChIJcUxYONr90YURdeB5o1p4FmU", "plus_code": {"compound_code": "9W34+J5 Mexico City", "global_code": "76F29W34+J5"}, "rating": 0, "reference": "ChIJcUxYONr90YURdeB5o1p4FmU", "types": ["furniture_store", "home_goods_store", "point_of_interest", "store", "establishment"], "user_ratings_total": 0}]