[{"business_status": "OPERATIONAL", "geometry": {"location": {"lat": 19.3482783, "lng": -99.1003882}, "viewport": {"northeast": {"lat": 19.34959858029151, "lng": -99.0989623697085}, "southwest": {"lat": 19.3469006197085, "lng": -99.10166033029151}}}, "icon": "https://maps.gstatic.com/mapfiles/place_api/icons/v1/png_71/shopping-71.png", "name": "Itasa", "place_id": "ChIJARShlP390YURLn8vxosCEew", "plus_code": {"compound_code": "8VXX+8R Mexico City, CDMX, Mexico", "global_code": "76F28VXX+8R"}, "reference": "ChIJARShlP390YURLn8vxosCEew", "scope": "GOOGLE", "types": ["hardware_store", "point_of_interest", "store", "establishment"], "vicinity": "Xochiquetzal 15, Estrella del Sur, Ciudad de M\u00e9xico"}, {"business_status": "OPERATIONAL", "geometry": {"location": {"lat": 19.3504842, "lng": -99.10249460000001}, "viewport": {"northeast": {"lat": 19.3519995802915, "lng": -99.10162336970849}, "southwest": {"lat": 19.3493016197085, "lng": -99.1043213302915}}}, "icon": "https://maps.gstatic.com/mapfiles/place_api/icons/v1/png_71/shopping-71.png", "name": "Ferre CAPITAL s.a. de c.v", "place_id": "ChIJLzKA1ln_0YUREJ2sQvwEBAw", "plus_code": {"compound_code": "9V2X+52 Mexico City, CDMX, Mexico", "global_code": "76F29V2X+52"}, "reference": "ChIJLzKA1ln_0YUREJ2sQvwEBAw", "scope": "GOOGLE", "types": ["hardware_store", "point_of_interest", "store", "establishment"], "vicinity": "Camino Antiguo a Culhuacan 160, Estrella del Sur, Ciudad de M\u00e9xico"}, {"business_status": "OPERATIONAL", "geometry": {"location": {"lat": 19.3485373, "lng": -99.1007422}, "viewport": {"northeast": {"lat": 19.3499216302915, "lng": -99.09937761970848}, "southwest": {"lat": 19.3472236697085, "lng": -99.1020755802915}}}, "icon": "https://maps.gstatic.com/mapfiles/place_api/icons/v1/png_71/shopping-71.png", "name": "Tlapaler\u00eda Montoya", "opening_hours": {"open_now": true}, "place_id": "ChIJBfYSjv390YURcy4d-Pzi2lQ", "plus_code": {"compound_code": "8VXX+CP Mexico City, CDMX, Mexico", "global_code": "76F28VXX+CP"}, "rating": 2.5, "reference": "ChIJBfYSjv390YURcy4d-Pzi2lQ", "scope": "GOOGLE", "types": ["hardware_store", "point_of_interest", "store", "establishment"], "user_ratings_total": 2, "vicinity": "Mz 1, Lt 1, Callej\u00f3n Moctezuma S/N, Estrella del Sur, Ciudad de M\u00e9xico"}, {"business_status": "OPERATIONAL", "geometry": {"location": {"lat": 19.354132, "lng": -99.099007}, "viewport": {"northeast": {"lat": 19.3554985802915, "lng": -99.0977072697085}, "southwest": {"lat": 19.3528006197085, "lng": -99.1004052302915}}}, "icon": "https://maps.gstatic.com/mapfiles/place_api/icons/v1/png_71/shopping-71.png", "name": "Tlapaleria", "place_id": "ChIJo2Ze5-L90YURCYI0rOcT97E", "plus_code": {"compound_code": "9W32+M9 Mexico City, CDMX, Mexico", "global_code": "76F29W32+M9"}, "reference": "ChIJo2Ze5-L90YURCYI0rOcT97E", "scope": "GOOGLE", "types": ["hardware_store", "point_of_interest", "store", "establishment"], "vicinity": "Puente Titla S/N Local 1, Ricardo Flores Mag\u00f3n, Iztapalapa"}, {"business_status": "OPERATIONAL", "geometry": {"location": {"lat": 19.353479, "lng": -99.09834629999999}, "viewport": {"northeast": {"lat": 19.35484698029151, "lng": -99.09704871970848}, "southwest": {"lat": 19.3521490197085, "lng": -99.09974668029149}}}, "icon": "https://maps.gstatic.com/mapfiles/place_api/icons/v1/png_71/shopping-71.png", "name": "Distribuidor De Acrilicos Y Policarbonatos Economicos", "place_id": "ChIJ46QPHHL90YURPPyT8Ywvbg8", "plus_code": {"compound_code": "9W32+9M Mexico City, CDMX, Mexico", "global_code": "76F29W32+9M"}, "reference": "ChIJ46QPHHL90YURPPyT8Ywvbg8", "scope": "GOOGLE", "types": ["hardware_store", "point_of_interest", "store", "establishment"], "vicinity": "Suapil # 22 Col. Flores Magon Alcaldia, Ciudad de M\u00e9xico"}, {"business_status": "OPERATIONAL", "geometry": {"location": {"lat": 19.3542883, "lng": -99.09912829999999}, "viewport": {"northeast": {"lat": 19.3556545802915, "lng": -99.0977722697085}, "southwest": {"lat": 19.3529566197085, "lng": -99.1004702302915}}}, "icon": "https://maps.gstatic.com/mapfiles/place_api/icons/v1/png_71/shopping-71.png", "name": "Fama Abarrotes", "opening_hours": {"open_now": true}, "photos": [{"height": 3264, "html_attributions": ["<a href=\"https://maps.google.com/maps/contrib/117705768025441187770\">Jorge Gomez</a>"], "photo_reference": "CmRaAAAAxwUwuPnR_4oXJYF3R-9e1-Ha44u1rGxFC4W-NXBIiL23MadofKePClBE_3SPsAuMkvt1T_7JMGdgDKaumNJOPeIYKtzvPeTlWusjX2cbzDv2mu8ogH1ch_hjUNpP9eSFEhDocTrwRRtR5YHrc-ztNKS2GhRem-Vw6164HFtxg3q3Xd9kASdn3w", "width": 2448}], "place_id": "ChIJuckB5-L90YUR9mhw8pzRgjQ", "plus_code": {"compound_code": "9W32+P8 Ampliaci\u00f3n Ricardo Flores Mag\u00f3n, Mexico City, CDMX, Mexico", "global_code": "76F29W32+P8"}, "rating": 5, "reference": "ChIJuckB5-L90YUR9mhw8pzRgjQ", "scope": "GOOGLE", "types": ["convenience_store", "hardware_store", "food", "point_of_interest", "store", "establishment"], "user_ratings_total": 1, "vicinity": "Puentetitla 34, Ampliaci\u00f3n Ricardo Flores Mag\u00f3n"}]