[{"business_status": "OPERATIONAL", "formatted_address": "Cuauht\u00e9moc 54, Los Reyes Culhuac\u00e1n, 09840 Iztapalapa, CDMX", "geometry": {"location": {"lat": 19.3454401, "lng": -99.102367}, "viewport": {"northeast": {"lat": 19.34672367989272, "lng": -99.10103547010728}, "southwest": {"lat": 19.34402402010727, "lng": -99.10373512989273}}}, "icon": "https://maps.gstatic.com/mapfiles/place_api/icons/v1/png_71/school-71.png", "name": "Primaria Cerro de la Estrella", "photos": [{"height": 3024, "html_attributions": ["<a href=\"https://maps.google.com/maps/contrib/113614995529719167479\">kRiS hDz</a>"], "photo_reference": "CmRaAAAAft5aPlFKP1H_8JgMkEAVMGmFt6yfi7mB0MXbTr34Ow0CvVt-HxIlZnFRIfVlLjyYrCKEtOzPsRz0o_JPsqgJAkoI2E1h-Ahqr8pIUZkGt99KLija8hbkV-FwY6y3cv-2EhCz84sietIcef3r-a6VX0UDGhRiE63saKyRC2sMHyit0wG6mZPY2Q", "width": 4032}], "place_id": "ChIJB8immhz-0YURhDBFM_gAmAQ", "plus_code": {"compound_code": "8VWX+53 Mexico City", "global_code": "76F28VWX+53"}, "rating": 5, "reference": "ChIJB8immhz-0YURhDBFM_gAmAQ", "types": ["primary_school", "school", "point_of_interest", "establishment"], "user_ratings_total": 7}, {"business_status": "OPERATIONAL", "formatted_address": "Benito Ju\u00e1rez, Los Reyes Culhuacan, Iztapalapa, 09840 Ciudad de M\u00e9xico, CDMX", "geometry": {"location": {"lat": 19.3445691, "lng": -99.10932299999999}, "viewport": {"northeast": {"lat": 19.34591632989272, "lng": -99.10794567010728}, "southwest": {"lat": 19.34321667010728, "lng": -99.11064532989273}}}, "icon": "https://maps.gstatic.com/mapfiles/place_api/icons/v1/png_71/school-71.png", "name": "Elementary School '' Plan of San Luis ''", "opening_hours": {"open_now": false}, "photos": [{"height": 2448, "html_attributions": ["<a href=\"https://maps.google.com/maps/contrib/103630058608742333235\">Alberto Mu\u00f1oz</a>"], "photo_reference": "CmRaAAAArWkCAFm-Sy8pCgc6e3zZisd3kW074R-Tg1cGY1clMkQ833WdKZpfTKFo5fH6hvp2GEDQNTxMGf_UB9eXkSeopOhb-kduznsTOnZOrWKqV6uBSo7lkiWR5b0B0V4V3jyBEhCAveNE8I-ZyRMQs7zM0GxDGhQ0gREeQnRBWK3tgk7YwFBSd_V4Lw", "width": 3264}], "place_id": "ChIJu8B_oQP-0YURJKmmEl-tHE8", "plus_code": {"compound_code": "8VVR+R7 Mexico City", "global_code": "76F28VVR+R7"}, "rating": 4.7, "reference": "ChIJu8B_oQP-0YURJKmmEl-tHE8", "types": ["primary_school", "school", "point_of_interest", "establishment"], "user_ratings_total": 12}, {"business_status": "OPERATIONAL", "formatted_address": "Cuauht\u00e9moc 54, Los Reyes Culhuac\u00e1n, 09840 Iztapalapa, CDMX", "geometry": {"location": {"lat": 19.3454401, "lng": -99.102367}, "viewport": {"northeast": {"lat": 19.34672367989272, "lng": -99.10103547010728}, "southwest": {"lat": 19.34402402010727, "lng": -99.10373512989273}}}, "icon": "https://maps.gstatic.com/mapfiles/place_api/icons/v1/png_71/school-71.png", "name": "Primaria Cerro de la Estrella", "photos": [{"height": 3024, "html_attributions": ["<a href=\"https://maps.google.com/maps/contrib/113614995529719167479\">kRiS hDz</a>"], "photo_reference": "CmRaAAAAl1SRO1ry-G0F4pTyNUCC_lBKt28MwXlmSU9HqBAoHN-FFSgLbFP3PCrvjBCEArvZdFxCBkCw05gge1sCMx1_LFBACapBib52Xgtlgd8xeQvSdiaYqC1zR4e-6YR7ChxqEhBZAk9fRRCJi3rrjS4L5uxzGhSOXVuexGm8x7DmceNlRsGgxY8TXg", "width": 4032}], "place_id": "ChIJB8immhz-0YURhDBFM_gAmAQ", "plus_code": {"compound_code": "8VWX+53 Mexico City", "global_code": "76F28VWX+53"}, "rating": 5, "reference": "ChIJB8immhz-0YURhDBFM_gAmAQ", "types": ["primary_school", "school", "point_of_interest", "establishment"], "user_ratings_total": 7}, {"business_status": "OPERATIONAL", "formatted_address": "Esq. con Ignacio Comonfort, Libertad 23, San Lucas, Iztapalapa, 09000 Ciudad de M\u00e9xico, CDMX", "geometry": {"location": {"lat": 19.3593547, "lng": -99.09693419999999}, "viewport": {"northeast": {"lat": 19.36071107989272, "lng": -99.09560897010728}, "southwest": {"lat": 19.35801142010727, "lng": -99.09830862989271}}}, "icon": "https://maps.gstatic.com/mapfiles/place_api/icons/v1/png_71/school-71.png", "name": "Escuela Primaria \"A\u00f1o de Ju\u00e1rez\"", "opening_hours": {"open_now": false}, "photos": [{"height": 480, "html_attributions": ["<a href=\"https://maps.google.com/maps/contrib/104709156486662436505\">Alan Lopez</a>"], "photo_reference": "CmRaAAAAzCKIBCqjVZayM1_kHKBYH6-CJoUDoRKOnYl_6iKTV-_Ycbr_xScUHFRVlL7w3JMYu35ZGNRtbnUxLXW3i0HFhFPWIgSbA0l_XKYTDqlMWpaiHgzy7kgwV-cIhnWIF9l8EhAUi_JHljlEJIE9e1QFN0o9GhQAJmb-R4Cs4LoULvESeLUvtKfUgQ", "width": 640}], "place_id": "ChIJt-Y1Q-H90YURaMI6zePvip0", "plus_code": {"compound_code": "9W53+P6 Mexico City", "global_code": "76F29W53+P6"}, "rating": 5, "reference": "ChIJt-Y1Q-H90YURaMI6zePvip0", "types": ["primary_school", "school", "point_of_interest", "establishment"], "user_ratings_total": 6}, {"business_status": "OPERATIONAL", "formatted_address": "Tetlepanquetzaltzin 123, Zona Urbana Ejidal los Reyes Culhuacan, Iztapalapa, 09840 Ciudad de M\u00e9xico, CDMX", "geometry": {"location": {"lat": 19.3452465, "lng": -99.101619}, "viewport": {"northeast": {"lat": 19.34623767989272, "lng": -99.10022642010728}, "southwest": {"lat": 19.34353802010728, "lng": -99.10292607989273}}}, "icon": "https://maps.gstatic.com/mapfiles/place_api/icons/v1/png_71/school-71.png", "name": "Escuela Xochicalco", "photos": [{"height": 1536, "html_attributions": ["<a href=\"https://maps.google.com/maps/contrib/103630058608742333235\">Alberto Mu\u00f1oz</a>"], "photo_reference": "CmRaAAAAU49TIq_SJZpYmQdhya0mEJqiQUXAudqZGVJ5EyfNsy8jdlKJjo4rSK1e9-XClWFCBWrtr1cpKMlNGEsu9JNRoLr4PvUqa4LfhXQN3BO6pXim9jZUHM7dDfhpLvsrAqNzEhB7Yq5rlMo9DvOYi032OcgIGhQNw2HK9Ug9m1r4n20oeo7vhNdw4Q", "width": 2048}], "place_id": "ChIJYQ67u3b-0YURW48nF-ghNVg", "plus_code": {"compound_code": "8VWX+39 Mexico City", "global_code": "76F28VWX+39"}, "rating": 3.7, "reference": "ChIJYQ67u3b-0YURW48nF-ghNVg", "types": ["primary_school", "school", "point_of_interest", "establishment"], "user_ratings_total": 9}, {"business_status": "OPERATIONAL", "formatted_address": "Tetlepanquetzaltzin 123, Zona Urbana Ejidal los Reyes Culhuacan, Iztapalapa, 09840 Ciudad de M\u00e9xico, CDMX", "geometry": {"location": {"lat": 19.3452465, "lng": -99.101619}, "viewport": {"northeast": {"lat": 19.34623767989272, "lng": -99.10022642010728}, "southwest": {"lat": 19.34353802010728, "lng": -99.10292607989273}}}, "icon": "https://maps.gstatic.com/mapfiles/place_api/icons/v1/png_71/school-71.png", "name": "Escuela Xochicalco", "photos": [{"height": 1536, "html_attributions": ["<a href=\"https://maps.google.com/maps/contrib/103630058608742333235\">Alberto Mu\u00f1oz</a>"], "photo_reference": "CmRaAAAAxJD6jTDtzJQjnVuzBrzuQ65zUdeLVaugeNxPV9Cv1Sfi1p6NBuo2dwjTwltxmuX225RGLnE_ayMgxASj4jQWdDEuHZFoI3qR-ob-RoOfE6xsRVLp5JGUjiOzdPububLmEhC4lHWtf4wxtSGoiGR5ARe2GhQt9_DgBfuvdmBIH4mHF5VaWacc9Q", "width": 2048}], "place_id": "ChIJYQ67u3b-0YURW48nF-ghNVg", "plus_code": {"compound_code": "8VWX+39 Mexico City", "global_code": "76F28VWX+39"}, "rating": 3.7, "reference": "ChIJYQ67u3b-0YURW48nF-ghNVg", "types": ["primary_school", "school", "point_of_interest", "establishment"], "user_ratings_total": 9}, {"business_status": "OPERATIONAL", "formatted_address": "Hombres Ilustres 6, San Lucas, Iztapalapa, 09000 Ciudad de M\u00e9xico, CDMX", "geometry": {"location": {"lat": 19.358564, "lng": -99.0937874}, "viewport": {"northeast": {"lat": 19.35994502989272, "lng": -99.09255412010728}, "southwest": {"lat": 19.35724537010727, "lng": -99.09525377989272}}}, "icon": "https://maps.gstatic.com/mapfiles/place_api/icons/v1/png_71/school-71.png", "name": "Escuela Primaria \"Republica de Guatemala\"", "photos": [{"height": 3456, "html_attributions": ["<a href=\"https://maps.google.com/maps/contrib/100921135832493684664\">SamBirulMX</a>"], "photo_reference": "CmRaAAAAjWFzBoFdITOc1iTCM9sRi3eFtiuo6dZetLbeN6V0IZayYGROcOQq7RsGKE76duE0gX_O7RY54DXJEVKf0tgg-kTETKLhOncKD0ztEXF5bcFWmVPzlmzjN8C2yjVBektgEhB2Z_byxOJ3vS4xqWHgFf8XGhRSdNbWsh3Huni2viP7mmBGfQPGrg", "width": 4608}], "place_id": "ChIJeyX1neb90YURYjlsbN3U024", "plus_code": {"compound_code": "9W54+CF Mexico City", "global_code": "76F29W54+CF"}, "rating": 4.8, "reference": "ChIJeyX1neb90YURYjlsbN3U024", "types": ["primary_school", "school", "point_of_interest", "establishment"], "user_ratings_total": 9}, {"business_status": "OPERATIONAL", "formatted_address": "Cultivos, Progreso del Sur, Iztapalapa, 09810 Ciudad de M\u00e9xico, CDMX", "geometry": {"location": {"lat": 19.3533878, "lng": -99.11170349999999}, "viewport": {"northeast": {"lat": 19.35473247989272, "lng": -99.11029812010726}, "southwest": {"lat": 19.35203282010728, "lng": -99.11299777989271}}}, "icon": "https://maps.gstatic.com/mapfiles/place_api/icons/v1/png_71/school-71.png", "name": "Escuela Primaria Holanda", "opening_hours": {"open_now": false}, "photos": [{"height": 3264, "html_attributions": ["<a href=\"https://maps.google.com/maps/contrib/113285274934297748847\">Luis M. Ruiz</a>"], "photo_reference": "CmRaAAAAlOSiN2W5uEWAUhGp-SQa5YzZwsxO4l5awQXKiDAgTawdIhEv3QQjINuB-NJrTi2fBa3DRHog7eiKjzcT9fu05mvdu8p2RB8OPQxF5Kwkh03ql-aM5OA42aZalUMPZDj4EhBEfuoX5R0vJAKrQ2QwsAQMGhT2oU0LotdSJuSuEY7fVUWcfkGIuA", "width": 1836}], "place_id": "ChIJayL05g_-0YURT_4QVPDdLms", "plus_code": {"compound_code": "9V3Q+98 Mexico City", "global_code": "76F29V3Q+98"}, "rating": 4.3, "reference": "ChIJayL05g_-0YURT_4QVPDdLms", "types": ["primary_school", "school", "point_of_interest", "establishment"], "user_ratings_total": 21}, {"business_status": "OPERATIONAL", "formatted_address": "Esq. con Ignacio Comonfort, Libertad 23, San Lucas, Iztapalapa, 09000 Ciudad de M\u00e9xico, CDMX", "geometry": {"location": {"lat": 19.3593547, "lng": -99.09693419999999}, "viewport": {"northeast": {"lat": 19.36071107989272, "lng": -99.09560897010728}, "southwest": {"lat": 19.35801142010727, "lng": -99.09830862989271}}}, "icon": "https://maps.gstatic.com/mapfiles/place_api/icons/v1/png_71/school-71.png", "name": "Escuela Primaria \"A\u00f1o de Ju\u00e1rez\"", "opening_hours": {"open_now": false}, "photos": [{"height": 480, "html_attributions": ["<a href=\"https://maps.google.com/maps/contrib/104709156486662436505\">Alan Lopez</a>"], "photo_reference": "CmRaAAAAxCHPMfdbZiBkcxSq3qkwD602HhpxcTN08nwKH8UBEXH_RXVoaTRI9ivQZWf14Td0F2xmxEfb2SvuI7qJxK2N1hxBlylRSZj5hZZYfP4Mh4O7KIlqfISGIiM4S6FYZgUWEhBvmDRJW2WJpejla7J6B7ZlGhTdP4TKA0BgZuJekrUf9jLym4W_JA", "width": 640}], "place_id": "ChIJt-Y1Q-H90YURaMI6zePvip0", "plus_code": {"compound_code": "9W53+P6 Mexico City", "global_code": "76F29W53+P6"}, "rating": 5, "reference": "ChIJt-Y1Q-H90YURaMI6zePvip0", "types": ["primary_school", "school", "point_of_interest", "establishment"], "user_ratings_total": 6}, {"business_status": "OPERATIONAL", "formatted_address": "Cultivos, Progreso del Sur, Iztapalapa, 09810 Ciudad de M\u00e9xico, CDMX", "geometry": {"location": {"lat": 19.3533878, "lng": -99.11170349999999}, "viewport": {"northeast": {"lat": 19.35473247989272, "lng": -99.11029812010726}, "southwest": {"lat": 19.35203282010728, "lng": -99.11299777989271}}}, "icon": "https://maps.gstatic.com/mapfiles/place_api/icons/v1/png_71/school-71.png", "name": "Escuela Primaria Holanda", "opening_hours": {"open_now": false}, "photos": [{"height": 3264, "html_attributions": ["<a href=\"https://maps.google.com/maps/contrib/113285274934297748847\">Luis M. Ruiz</a>"], "photo_reference": "CmRaAAAAg9nWSzC4v3p8aXGAxMy2khqxVLorM6ng4Bg62qxhwD17IicR3NPOjr9N8HIiUVC-DTa7cWDWtCyS7xgDh036dUtCO_qoO9bl_bW7tLlwCC8hvwaiGZYxl1m6ZZvug4wKEhCdOfNwigFWiYSTsxaBqCpQGhQOgknPIg4eZMSycq8jfME1U3Mstg", "width": 1836}], "place_id": "ChIJayL05g_-0YURT_4QVPDdLms", "plus_code": {"compound_code": "9V3Q+98 Mexico City", "global_code": "76F29V3Q+98"}, "rating": 4.3, "reference": "ChIJayL05g_-0YURT_4QVPDdLms", "types": ["primary_school", "school", "point_of_interest", "establishment"], "user_ratings_total": 21}, {"business_status": "OPERATIONAL", "formatted_address": "Hombres Ilustres 6, San Lucas, Iztapalapa, 09000 Ciudad de M\u00e9xico, CDMX", "geometry": {"location": {"lat": 19.358564, "lng": -99.0937874}, "viewport": {"northeast": {"lat": 19.35994502989272, "lng": -99.09255412010728}, "southwest": {"lat": 19.35724537010727, "lng": -99.09525377989272}}}, "icon": "https://maps.gstatic.com/mapfiles/place_api/icons/v1/png_71/school-71.png", "name": "Escuela Primaria \"Republica de Guatemala\"", "photos": [{"height": 3456, "html_attributions": ["<a href=\"https://maps.google.com/maps/contrib/100921135832493684664\">SamBirulMX</a>"], "photo_reference": "CmRaAAAApXO86hqSkJ4YQOjrChUvy7kCYSAkenpK3a2FfBT-IFimgkAXOISgjRVnJdePsbR6mY-cMIFYoxfp-PFiMXQyOyClYTegd9uisqFVx2dnT9UX2w7n_mh2A_mvNsP6V_hAEhARbNRB9V7XAycFSIdjhWgLGhRbZ39bXgrR5mUvKfaMUDvhP4nBpQ", "width": 4608}], "place_id": "ChIJeyX1neb90YURYjlsbN3U024", "plus_code": {"compound_code": "9W54+CF Mexico City", "global_code": "76F29W54+CF"}, "rating": 4.8, "reference": "ChIJeyX1neb90YURYjlsbN3U024", "types": ["primary_school", "school", "point_of_interest", "establishment"], "user_ratings_total": 9}, {"business_status": "OPERATIONAL", "formatted_address": "Benito Ju\u00e1rez, Los Reyes Culhuacan, Iztapalapa, 09840 Ciudad de M\u00e9xico, CDMX", "geometry": {"location": {"lat": 19.3445691, "lng": -99.10932299999999}, "viewport": {"northeast": {"lat": 19.34591632989272, "lng": -99.10794567010728}, "southwest": {"lat": 19.34321667010728, "lng": -99.11064532989273}}}, "icon": "https://maps.gstatic.com/mapfiles/place_api/icons/v1/png_71/school-71.png", "name": "Elementary School '' Plan of San Luis ''", "opening_hours": {"open_now": false}, "photos": [{"height": 2448, "html_attributions": ["<a href=\"https://maps.google.com/maps/contrib/103630058608742333235\">Alberto Mu\u00f1oz</a>"], "photo_reference": "CmRaAAAAxIDsws9YZoNMaGXlAGGMWhOBroathn2T1ydufZLU1D7t-qFG4yn7UboPdXv5rLOTFXB5wKFx9C891i5unh0VqdCF5ELVQ941fEApEHD4AyLpP5lBiEjO18q21cm45i_QEhB8PqW6OeGhf2vMJcIoF95kGhQXG_rK8wsIuqKy4aGPfEfKBafcyA", "width": 3264}], "place_id": "ChIJu8B_oQP-0YURJKmmEl-tHE8", "plus_code": {"compound_code": "8VVR+R7 Mexico City", "global_code": "76F28VVR+R7"}, "rating": 4.7, "reference": "ChIJu8B_oQP-0YURJKmmEl-tHE8", "types": ["primary_school", "school", "point_of_interest", "establishment"], "user_ratings_total": 12}, {"business_status": "OPERATIONAL", "formatted_address": "Av. Toltecas 22, Sta B\u00e1rbara, Iztapalapa, 09000 Ciudad de M\u00e9xico, CDMX", "geometry": {"location": {"lat": 19.3592119, "lng": -99.104642}, "viewport": {"northeast": {"lat": 19.36053887989272, "lng": -99.10322562010727}, "southwest": {"lat": 19.35783922010728, "lng": -99.10592527989272}}}, "icon": "https://maps.gstatic.com/mapfiles/place_api/icons/v1/png_71/school-71.png", "name": "Dr. Pedro de Alba", "opening_hours": {"open_now": false}, "photos": [{"height": 1704, "html_attributions": ["<a href=\"https://maps.google.com/maps/contrib/106666472507068300921\">Xiuh Mitl</a>"], "photo_reference": "CmRaAAAA6eshVpDEffa8jpyThHGqxvgH5Zl5qCK3x8QaMDkg2nWMfhbdCLDmJLCW5GqxFN56T1ju0cnigcpO8r8OtUv8FDWG5HBreo-w4m7QiIALcXos52fY1umEifFSVKXVXNenEhCdMYarMjo_no-weh7CDjH9GhSFAAAgk5vNZSB1GwPywwqU-2c8vw", "width": 2272}], "place_id": "ChIJGUT0zgv-0YUReq8f_aetOXQ", "plus_code": {"compound_code": "9V5W+M4 Mexico City", "global_code": "76F29V5W+M4"}, "rating": 3.7, "reference": "ChIJGUT0zgv-0YUReq8f_aetOXQ", "types": ["primary_school", "school", "point_of_interest", "establishment"], "user_ratings_total": 7}, {"business_status": "OPERATIONAL", "formatted_address": "Ignacio Comonfort 80, San Lucas, Iztapalapa, 09000 Ciudad de M\u00e9xico, CDMX", "geometry": {"location": {"lat": 19.3592157, "lng": -99.0958322}, "viewport": {"northeast": {"lat": 19.36058797989272, "lng": -99.09447567010727}, "southwest": {"lat": 19.35788832010728, "lng": -99.09717532989272}}}, "icon": "https://maps.gstatic.com/mapfiles/place_api/icons/v1/png_71/school-71.png", "name": "COLEGIO TEMACHTIANI", "photos": [{"height": 3456, "html_attributions": ["<a href=\"https://maps.google.com/maps/contrib/100921135832493684664\">SamBirulMX</a>"], "photo_reference": "CmRaAAAAjU1pNPQ5F5A1t-ZvY1-CyKHO8peG-2WcQsnHREYAdlRa27smuZGfSjOP_W_DumozIpmP29udKLkviqlwYHFuMFZU7DGon10Z4lBK2sEafVDtIlw8SqZO7H5N5UkaUg1QEhA7UraQQ9A-VDZJhT9ABWOkGhRF9JsJEpkcJXJ4zweGGTiuR4SdMA", "width": 4608}], "place_id": "ChIJvSrRUuH90YURKH_8gh3z55s", "plus_code": {"compound_code": "9W53+MM Mexico City", "global_code": "76F29W53+MM"}, "rating": 3.8, "reference": "ChIJvSrRUuH90YURKH_8gh3z55s", "types": ["primary_school", "school", "point_of_interest", "establishment"], "user_ratings_total": 5}, {"business_status": "OPERATIONAL", "formatted_address": "EsquinaGuadalupe Victoria, Allende, San Pedro, 09000 Ciudad de M\u00e9xico, CDMX", "geometry": {"location": {"lat": 19.3632049, "lng": -99.0879021}, "viewport": {"northeast": {"lat": 19.36450647989272, "lng": -99.08656067010727}, "southwest": {"lat": 19.36180682010728, "lng": -99.08926032989272}}}, "icon": "https://maps.gstatic.com/mapfiles/place_api/icons/v1/png_71/school-71.png", "name": "Escuela Primaria \"Esther R. Maceda\"", "opening_hours": {"open_now": false}, "place_id": "ChIJGVNMSej90YURTaI5Sy8GWio", "plus_code": {"compound_code": "9W76+7R Mexico City", "global_code": "76F29W76+7R"}, "rating": 4, "reference": "ChIJGVNMSej90YURTaI5Sy8GWio", "types": ["primary_school", "school", "point_of_interest", "establishment"], "user_ratings_total": 7}, {"business_status": "OPERATIONAL", "formatted_address": "Av. Toltecas 22, Sta B\u00e1rbara, Iztapalapa, 09000 Ciudad de M\u00e9xico, CDMX", "geometry": {"location": {"lat": 19.3592119, "lng": -99.104642}, "viewport": {"northeast": {"lat": 19.36053887989272, "lng": -99.10322562010727}, "southwest": {"lat": 19.35783922010728, "lng": -99.10592527989272}}}, "icon": "https://maps.gstatic.com/mapfiles/place_api/icons/v1/png_71/school-71.png", "name": "Dr. Pedro de Alba", "opening_hours": {"open_now": false}, "photos": [{"height": 1704, "html_attributions": ["<a href=\"https://maps.google.com/maps/contrib/106666472507068300921\">Xiuh Mitl</a>"], "photo_reference": "CmRaAAAA7bSsdRCPMyDvUuDWgEESsp_Kjtnqx9_V8476zh3njMBeCC5yfcdOff7c07OGtuiPBR8rAMgbobFTPZLvksX9DhiVW1mvW6hrniuX9UKxwG96Ct8fMcLwUKla4Jvw8a0iEhClj1-RvPsSdxt-6pIIIlmEGhS8MGsbtxm6hSSpG8Sa8FoHOWev_A", "width": 2272}], "place_id": "ChIJGUT0zgv-0YUReq8f_aetOXQ", "plus_code": {"compound_code": "9V5W+M4 Mexico City", "global_code": "76F29V5W+M4"}, "rating": 3.7, "reference": "ChIJGUT0zgv-0YUReq8f_aetOXQ", "types": ["primary_school", "school", "point_of_interest", "establishment"], "user_ratings_total": 7}, {"business_status": "OPERATIONAL", "formatted_address": "Calle Alfonso Toro, Escuadr\u00f3n 201, Iztapalapa, 09060 Ciudad de M\u00e9xico, CDMX", "geometry": {"location": {"lat": 19.3671164, "lng": -99.11171569999999}, "viewport": {"northeast": {"lat": 19.36843152989272, "lng": -99.11036952010728}, "southwest": {"lat": 19.36573187010728, "lng": -99.11306917989272}}}, "icon": "https://maps.gstatic.com/mapfiles/place_api/icons/v1/png_71/school-71.png", "name": "ELEMENTARY SCHOOL JUANA DE Asbaje", "opening_hours": {"open_now": false}, "photos": [{"height": 3096, "html_attributions": ["<a href=\"https://maps.google.com/maps/contrib/111110660026337759575\">A Google User</a>"], "photo_reference": "CmRaAAAAxtNRja1MjJDyCPqLKmQ6q0iuwXctOuvGzIpGM_dEzAzmvJNuTUTwgSwp9fUxA_M3Qzjo5J6XxeYBuc8Sy2Bi4LGx_dPTQl6cQsYmMIK_4eF1_FWvN1kagZLttts-VV4XEhC3icKRJqQ2EP7GoRk86lhFGhQeo6nwEiRo0rRhddw7YTmq2Ii5Nw", "width": 4128}], "place_id": "ChIJnT5VY3L-0YUR5NByTZY3VHA", "plus_code": {"compound_code": "9V8Q+R8 Mexico City", "global_code": "76F29V8Q+R8"}, "rating": 4.2, "reference": "ChIJnT5VY3L-0YUR5NByTZY3VHA", "types": ["primary_school", "school", "point_of_interest", "establishment"], "user_ratings_total": 13}, {"business_status": "OPERATIONAL", "formatted_address": "Agrario 11, San Sim\u00f3n Culhuacan, Iztapalapa, 09800 Ciudad de M\u00e9xico, CDMX", "geometry": {"location": {"lat": 19.3326548, "lng": -99.10746879999999}, "viewport": {"northeast": {"lat": 19.33389787989272, "lng": -99.10613337010727}, "southwest": {"lat": 19.33119822010728, "lng": -99.10883302989272}}}, "icon": "https://maps.gstatic.com/mapfiles/place_api/icons/v1/png_71/school-71.png", "name": "Escuela Primar\u00eda Profesor Graciano S\u00e1nchez", "photos": [{"height": 3024, "html_attributions": ["<a href=\"https://maps.google.com/maps/contrib/114425437188696325259\">Rodrigo Acecas</a>"], "photo_reference": "CmRaAAAAMXNWY8w__CxggpJn7AY0R6TKVqzaNa_GhSEbW2Wzy1GrcOvCosB5h_kXevO1Dz6XXvp5JCF_tkbUgXc8J5uuZI-GKZZHeWywizJB0jEN_OPELSPUVNd5Hgdn5kIuBDhIEhCvBu3YsS8ZwuYNiNx30OoMGhRxlZJOV4Yy1f3vZrsptsYi0wrO6Q", "width": 4032}], "place_id": "ChIJ_4hSo_sBzoURPtG_FVr6H0M", "plus_code": {"compound_code": "8VMV+32 Mexico City", "global_code": "76F28VMV+32"}, "rating": 4.6, "reference": "ChIJ_4hSo_sBzoURPtG_FVr6H0M", "types": ["primary_school", "school", "point_of_interest", "establishment"], "user_ratings_total": 5}, {"business_status": "OPERATIONAL", "formatted_address": "Agust\u00edn de Coulomb 1, Fuego Nuevo, Iztapalapa, 09800 Ciudad de M\u00e9xico, CDMX", "geometry": {"location": {"lat": 19.3328226, "lng": -99.09532139999999}, "viewport": {"northeast": {"lat": 19.33411397989272, "lng": -99.09396412010729}, "southwest": {"lat": 19.33141432010727, "lng": -99.09666377989272}}}, "icon": "https://maps.gstatic.com/mapfiles/place_api/icons/v1/png_71/school-71.png", "name": "Escuela Primaria Ernesto Garc\u00eda Cabral", "place_id": "ChIJpRwsnAQCzoUR0xC8K4CX7gE", "plus_code": {"compound_code": "8WM3+4V Mexico City", "global_code": "76F28WM3+4V"}, "rating": 4.5, "reference": "ChIJpRwsnAQCzoUR0xC8K4CX7gE", "types": ["primary_school", "school", "point_of_interest", "establishment"], "user_ratings_total": 17}, {"business_status": "OPERATIONAL", "formatted_address": "Agust\u00edn de Coulomb 1, Fuego Nuevo, Iztapalapa, 09800 Ciudad de M\u00e9xico, CDMX", "geometry": {"location": {"lat": 19.3328226, "lng": -99.09532139999999}, "viewport": {"northeast": {"lat": 19.33411397989272, "lng": -99.09396412010729}, "southwest": {"lat": 19.33141432010727, "lng": -99.09666377989272}}}, "icon": "https://maps.gstatic.com/mapfiles/place_api/icons/v1/png_71/school-71.png", "name": "Escuela Primaria Ernesto Garc\u00eda Cabral", "place_id": "ChIJpRwsnAQCzoUR0xC8K4CX7gE", "plus_code": {"compound_code": "8WM3+4V Mexico City", "global_code": "76F28WM3+4V"}, "rating": 4.5, "reference": "ChIJpRwsnAQCzoUR0xC8K4CX7gE", "types": ["primary_school", "school", "point_of_interest", "establishment"], "user_ratings_total": 17}]