[{"business_status": "OPERATIONAL", "formatted_address": "Callej\u00f3n Estrella 4, San Pablo, Iztapalapa, 09000 Ciudad de M\u00e9xico, CDMX", "geometry": {"location": {"lat": 19.3585021, "lng": -99.0898079}, "viewport": {"northeast": {"lat": 19.35981502989273, "lng": -99.08825757010729}, "southwest": {"lat": 19.35711537010728, "lng": -99.09095722989274}}}, "icon": "https://maps.gstatic.com/mapfiles/place_api/icons/v1/png_71/atm-71.png", "name": "Atm/Cajero BBVA Suc Ermita El Manto601", "opening_hours": {"open_now": true}, "place_id": "ChIJP6IwUe_90YURTv8I3eBDJFA", "plus_code": {"compound_code": "9W56+C3 Mexico City", "global_code": "76F29W56+C3"}, "rating": 3.3, "reference": "ChIJP6IwUe_90YURTv8I3eBDJFA", "types": ["atm", "finance", "point_of_interest", "establishment"], "user_ratings_total": 3}, {"business_status": "OPERATIONAL", "formatted_address": "09000, Ayuntamiento 60, San Pablo, Iztapalapa, Ciudad de M\u00e9xico, CDMX", "geometry": {"location": {"lat": 19.3585691, "lng": -99.0922289}, "viewport": {"northeast": {"lat": 19.35988787989272, "lng": -99.09075872010727}, "southwest": {"lat": 19.35718822010728, "lng": -99.09345837989272}}}, "icon": "https://maps.gstatic.com/mapfiles/place_api/icons/v1/png_71/atm-71.png", "name": "cajero afirme", "opening_hours": {"open_now": true}, "photos": [{"height": 3366, "html_attributions": ["<a href=\"https://maps.google.com/maps/contrib/114642632612407118350\">Roberto Reyes</a>"], "photo_reference": "CmRaAAAAioMS8u88oH1p1snNLFfsSLFkbC7KdULsIW9Wtdxvo-3Mi4QR269KSOUyDJuBemEL4ZYQjI_M4Es6IP4QH_hmDghr9MDOvkb1ipf7ttfScmcceZfwikrUJK-wCFQCETfjEhDaVW8g-VB718m8vD6eV1a8GhTD8ylWvI_8IL8Db0pGpIgseaNr1A", "width": 5984}], "place_id": "ChIJob8c2OX90YURr3yPNHRms4c", "plus_code": {"compound_code": "9W55+C4 Mexico City", "global_code": "76F29W55+C4"}, "rating": 0, "reference": "ChIJob8c2OX90YURr3yPNHRms4c", "types": ["atm", "finance", "point_of_interest", "establishment"], "user_ratings_total": 0}, {"business_status": "OPERATIONAL", "formatted_address": "Av. Javier Rojo G\u00f3mez 1201, San Pedro, Iztapalapa, 09360 Ciudad de M\u00e9xico, CDMX", "geometry": {"location": {"lat": 19.3652071, "lng": -99.08394009999999}, "viewport": {"northeast": {"lat": 19.36637357989272, "lng": -99.0820455701073}, "southwest": {"lat": 19.36367392010728, "lng": -99.08474522989273}}}, "icon": "https://maps.gstatic.com/mapfiles/place_api/icons/v1/png_71/atm-71.png", "name": "Atm/Cajero BBVA Afina Servicios Advos.", "opening_hours": {"open_now": true}, "place_id": "ChIJz2_24sH90YURVtsoBj-dzK4", "plus_code": {"compound_code": "9W88+3C Mexico City", "global_code": "76F29W88+3C"}, "rating": 2.3, "reference": "ChIJz2_24sH90YURVtsoBj-dzK4", "types": ["atm", "finance", "point_of_interest", "establishment"], "user_ratings_total": 3}, {"business_status": "OPERATIONAL", "formatted_address": "Ermita Iztapalapa 1441, El Molino Iztapalapa, Iztapalapa, 09830 Ciudad de M\u00e9xico, CDMX", "geometry": {"location": {"lat": 19.3559018, "lng": -99.0861683}, "viewport": {"northeast": {"lat": 19.35725162989272, "lng": -99.08481847010728}, "southwest": {"lat": 19.35455197010727, "lng": -99.08751812989273}}}, "icon": "https://maps.gstatic.com/mapfiles/place_api/icons/v1/png_71/bank-71.png", "name": "Scotiabank", "opening_hours": {"open_now": false}, "photos": [{"height": 3024, "html_attributions": ["<a href=\"https://maps.google.com/maps/contrib/108166672272246752782\">Guillermo Guerrero</a>"], "photo_reference": "CmRaAAAAYr9sEEj_cxo-kblHlGqgiaGR0yuVOjLwqJ5XMCxYQEeQ3gKjNpeV1glnU3fpTrn6cVYkBT2k7RC-9zPFHW3ZydQ_kLXSc9OFogAfRuzrYZsQj4OV-V9aMimDLAgrhGErEhAZGo4Z0ytbRr4BsQQHUTy_GhSxbbmCUvT1A0qamGmBG2QB266gsg", "width": 4032}], "place_id": "ChIJh8tl1Qn-0YUR-x4j2YtbCjM", "plus_code": {"compound_code": "9W47+9G Mexico City", "global_code": "76F29W47+9G"}, "rating": 3.1, "reference": "ChIJh8tl1Qn-0YUR-x4j2YtbCjM", "types": ["bank", "atm", "finance", "point_of_interest", "establishment"], "user_ratings_total": 22}, {"business_status": "OPERATIONAL", "formatted_address": "Privada Ermita Iztapalapa 160, Amp Ricardo Flores Mag\u00f3n, Iztapalapa, 09820 Ciudad de M\u00e9xico, CDMX", "geometry": {"location": {"lat": 19.355338, "lng": -99.095557}, "viewport": {"northeast": {"lat": 19.35654077989272, "lng": -99.09418667010726}, "southwest": {"lat": 19.35384112010728, "lng": -99.09688632989271}}}, "icon": "https://maps.gstatic.com/mapfiles/place_api/icons/v1/png_71/atm-71.png", "name": "Atm/Cajero BBVA Suc Ermita464", "opening_hours": {"open_now": true}, "place_id": "ChIJO4AAh-T90YUR3Wryw3bq2mw", "plus_code": {"compound_code": "9W43+4Q Mexico City", "global_code": "76F29W43+4Q"}, "rating": 2.7, "reference": "ChIJO4AAh-T90YUR3Wryw3bq2mw", "types": ["atm", "finance", "point_of_interest", "establishment"], "user_ratings_total": 3}, {"business_status": "OPERATIONAL", "formatted_address": "Ermita Iztapalapa 1042, San Pablo, Iztapalapa, 09000 Ciudad de M\u00e9xico, CDMX", "geometry": {"location": {"lat": 19.3565911, "lng": -99.09891929999999}, "viewport": {"northeast": {"lat": 19.35785332989272, "lng": -99.09755507010728}, "southwest": {"lat": 19.35515367010728, "lng": -99.10025472989271}}}, "icon": "https://maps.gstatic.com/mapfiles/place_api/icons/v1/png_71/atm-71.png", "name": "ATM / CASHIER BANCOMER SUC IZTAPALAPA", "opening_hours": {"open_now": true}, "place_id": "ChIJQfs9s-P90YUR826hv6IraoY", "plus_code": {"compound_code": "9W42+JC Mexico City", "global_code": "76F29W42+JC"}, "rating": 2.5, "reference": "ChIJQfs9s-P90YUR826hv6IraoY", "types": ["atm", "finance", "point_of_interest", "establishment"], "user_ratings_total": 2}, {"business_status": "OPERATIONAL", "formatted_address": "Ermita Iztapalapa 1835, Los \u00c1ngeles, Iztapalapa, 09830 Ciudad de M\u00e9xico, CDMX", "geometry": {"location": {"lat": 19.3498799, "lng": -99.07436729999999}, "viewport": {"northeast": {"lat": 19.35122972989272, "lng": -99.07301747010727}, "southwest": {"lat": 19.34853007010728, "lng": -99.07571712989271}}}, "icon": "https://maps.gstatic.com/mapfiles/place_api/icons/v1/png_71/atm-71.png", "name": "BBVA Bancomer", "opening_hours": {"open_now": false}, "photos": [{"height": 2250, "html_attributions": ["<a href=\"https://maps.google.com/maps/contrib/100114696847630980224\">gustavo gaytan</a>"], "photo_reference": "CmRaAAAAhC0I1tWnLrRXs3kMQx-5-P6bd2j668FbvEMLeMGTLpdZXIFaMAEpeNYnBLJSOYxKvBuW-MRBDiWm5JgteKQmxhSAd_VAIb_kFvHWrir6AYYUWBCAxIIQlqXZW68kRd1VEhB-mThH8vUs4UzshpgfaAw_GhSxFVWItNHqJOX0ERSyprJqH6SBiQ", "width": 4000}], "place_id": "ChIJB7gjnY790YURN-OMYqNBiIQ", "plus_code": {"compound_code": "8WXG+X7 Mexico City", "global_code": "76F28WXG+X7"}, "rating": 2.9, "reference": "ChIJB7gjnY790YURN-OMYqNBiIQ", "types": ["atm", "finance", "point_of_interest", "establishment"], "user_ratings_total": 16}, {"business_status": "OPERATIONAL", "formatted_address": "3a. Cerrada Carril, 2da Amp San Miguel, Iztapalapa, 09360 Ciudad de M\u00e9xico, CDMX", "geometry": {"location": {"lat": 19.3502624, "lng": -99.07149710000002}, "viewport": {"northeast": {"lat": 19.35155052989272, "lng": -99.07019362010729}, "southwest": {"lat": 19.34885087010727, "lng": -99.07289327989274}}}, "icon": "https://maps.gstatic.com/mapfiles/place_api/icons/v1/png_71/atm-71.png", "name": "ATM Bancomer", "opening_hours": {"open_now": true}, "photos": [{"height": 3840, "html_attributions": ["<a href=\"https://maps.google.com/maps/contrib/108691575607238380807\">Nely Leonel</a>"], "photo_reference": "CmRaAAAARaEkGK2Vw_Z1a_bXyzxdUp5IE8XgC775QoMRtNkKPhEZ_PBGwxQ8sLC7XfLLfQJd_30g-t5bB2T596UhbDnMKLfA2i3xbPFCl5-8PFR0CCFaSiks_2dhBWOJRRIzVucREhBAK3NIiyMbKWzlC4UA-BQPGhTUuh0jd0RKr0BrEZ1eGYClUmI0pA", "width": 5120}], "place_id": "ChIJmUPr8Y790YUR43rZjhYePwE", "plus_code": {"compound_code": "9W2H+4C Mexico City", "global_code": "76F29W2H+4C"}, "rating": 3, "reference": "ChIJmUPr8Y790YUR43rZjhYePwE", "types": ["atm", "finance", "point_of_interest", "establishment"], "user_ratings_total": 9}, {"business_status": "OPERATIONAL", "formatted_address": "Ermita Iztapalapa 2013, Los \u00c1ngeles, Iztapalapa, 09830 Ciudad de M\u00e9xico, CDMX", "geometry": {"location": {"lat": 19.3457461, "lng": -99.07073539999999}, "viewport": {"northeast": {"lat": 19.34705967989272, "lng": -99.06939587010727}, "southwest": {"lat": 19.34436002010728, "lng": -99.07209552989272}}}, "icon": "https://maps.gstatic.com/mapfiles/place_api/icons/v1/png_71/atm-71.png", "name": "BBVA Bancomer", "opening_hours": {"open_now": true}, "photos": [{"height": 2368, "html_attributions": ["<a href=\"https://maps.google.com/maps/contrib/110499894291937238915\">Chiquilinelgrande Elgrande</a>"], "photo_reference": "CmRaAAAAlEnD_ZZ5vM36P-6erRxu8tqrYP2mBBzcIYd7wVy3j4ZhNBBCKlVUQRxgB9EGrG92tHSdrWMh_87USIBT3L65lEHJic8is1CFdLrAchRsB5oZ3dBR5YxCFqrZvCUQT-r0EhB7k6Y5PDvbAiPoDuBTdUR7GhS_zLPFlNOGnPytJqUjI_0lRuzJrw", "width": 2198}], "place_id": "ChIJK6lFjoj90YUREt6NDwLGuyw", "plus_code": {"compound_code": "8WWH+7P Los \u00c1ngeles, Mexico City", "global_code": "76F28WWH+7P"}, "rating": 5, "reference": "ChIJK6lFjoj90YUREt6NDwLGuyw", "types": ["atm", "finance", "point_of_interest", "establishment"], "user_ratings_total": 2}, {"business_status": "OPERATIONAL", "formatted_address": "Ermita Iztapalapa 2955, 2da Amp San Miguel, Iztapalapa, 09830 Ciudad de M\u00e9xico, CDMX", "geometry": {"location": {"lat": 19.3504094, "lng": -99.0720783}, "viewport": {"northeast": {"lat": 19.35168562989272, "lng": -99.07074922010727}, "southwest": {"lat": 19.34898597010728, "lng": -99.07344887989272}}}, "icon": "https://maps.gstatic.com/mapfiles/place_api/icons/v1/png_71/atm-71.png", "name": "Cajero Banorte", "opening_hours": {"open_now": true}, "place_id": "ChIJDy8bjI790YURqsSFxG6f-TY", "plus_code": {"compound_code": "9W2H+55 Mexico City", "global_code": "76F29W2H+55"}, "rating": 2.6, "reference": "ChIJDy8bjI790YURqsSFxG6f-TY", "types": ["atm", "finance", "point_of_interest", "establishment"], "user_ratings_total": 9}, {"business_status": "OPERATIONAL", "formatted_address": "Ermita Iztapalapa 1863, Los \u00c1ngeles, Iztapalapa, 09710 Ciudad de M\u00e9xico, CDMX", "geometry": {"location": {"lat": 19.349795, "lng": -99.0735356}, "viewport": {"northeast": {"lat": 19.35135567989272, "lng": -99.07207482010728}, "southwest": {"lat": 19.34865602010727, "lng": -99.07477447989272}}}, "icon": "https://maps.gstatic.com/mapfiles/place_api/icons/v1/png_71/atm-71.png", "name": "Atm/Cajero BBVA Suc Ermita Rojo Gomez973", "opening_hours": {"open_now": false}, "photos": [{"height": 4224, "html_attributions": ["<a href=\"https://maps.google.com/maps/contrib/113230650033458584004\">osiris lopez</a>"], "photo_reference": "CmRaAAAA__qeyhBsQ-NHo3P9yVqMkLF-EqOwFbKSnH9Hb0yscCqzpPSX9GobpOyF7GtRerGKAWLqrIW9WahXwalU1qeOOCdxfqSnBR-q43NA3CawttAIDJfgMYpkzKcIrA35t80aEhDhiAUjUKGGvHbpw2JdhAnWGhSsCnzjpF4QAeptRq2-N_rcOwLDLw", "width": 5632}], "place_id": "ChIJF_lsno790YURk2Zu1vuXFaM", "plus_code": {"compound_code": "8WXG+WH Mexico City", "global_code": "76F28WXG+WH"}, "rating": 1.8, "reference": "ChIJF_lsno790YURk2Zu1vuXFaM", "types": ["atm", "finance", "point_of_interest", "establishment"], "user_ratings_total": 11}, {"business_status": "OPERATIONAL", "formatted_address": "Ermita Iztapalapa 1788, San Miguel, Iztapalapa, 09360 Ciudad de M\u00e9xico, CDMX", "geometry": {"location": {"lat": 19.351645, "lng": -99.0756404}, "viewport": {"northeast": {"lat": 19.35291272989272, "lng": -99.07433207010729}, "southwest": {"lat": 19.35021307010728, "lng": -99.07703172989274}}}, "icon": "https://maps.gstatic.com/mapfiles/place_api/icons/v1/png_71/atm-71.png", "name": "Santander", "opening_hours": {"open_now": true}, "photos": [{"height": 1616, "html_attributions": ["<a href=\"https://maps.google.com/maps/contrib/105348795323172634927\">DjSikario Vazquez</a>"], "photo_reference": "CmRaAAAALdIGZamFUC3VcJVkp4Si57Gpa73nsbcuCeGFn_WKJJDnDb8MHBRGlXWWLctW-YEPk0VNoX7AiggNQeBynOuBvbpEkUzVxoCmBOPAsqjUri3fuy0XM-8FZax9S5KHko1aEhBtN45vUA-sz0-2H3xX3Mg-GhTFg1ZcLNQ3vieC8XSv4duECqF1wQ", "width": 3264}], "place_id": "ChIJBewPsI390YURTiMsvEGzG04", "plus_code": {"compound_code": "9W2F+MP Mexico City", "global_code": "76F29W2F+MP"}, "rating": 1.8, "reference": "ChIJBewPsI390YURTiMsvEGzG04", "types": ["atm", "finance", "point_of_interest", "establishment"], "user_ratings_total": 80}, {"business_status": "OPERATIONAL", "formatted_address": "Aculco, Eje 6 Sur 560, \u00c1rea Federal Central de Abastos, Iztapalapa, 09000 Ciudad de M\u00e9xico, CDMX", "geometry": {"location": {"lat": 19.3677629, "lng": -99.09694820000001}, "viewport": {"northeast": {"lat": 19.36906167989272, "lng": -99.09561552010729}, "southwest": {"lat": 19.36636202010728, "lng": -99.09831517989274}}}, "icon": "https://maps.gstatic.com/mapfiles/place_api/icons/v1/png_71/atm-71.png", "name": "ATM / Cash Bancomer Suc. La Nueva Viga", "opening_hours": {"open_now": true}, "place_id": "ChIJ9QHwi9790YUREXpnf2V3W5k", "plus_code": {"compound_code": "9W93+46 Mexico City", "global_code": "76F29W93+46"}, "rating": 0, "reference": "ChIJ9QHwi9790YUREXpnf2V3W5k", "types": ["atm", "finance", "point_of_interest", "establishment"], "user_ratings_total": 0}, {"business_status": "OPERATIONAL", "formatted_address": "Av. Antonio D\u00edaz Soto y Gama 21, Iztapalapa, 09250 Ciudad de M\u00e9xico, CDMX", "geometry": {"location": {"lat": 19.3592914, "lng": -99.063307}, "viewport": {"northeast": {"lat": 19.36076392989272, "lng": -99.06192557010729}, "southwest": {"lat": 19.35806427010727, "lng": -99.06462522989273}}}, "icon": "https://maps.gstatic.com/mapfiles/place_api/icons/v1/png_71/atm-71.png", "name": "ATM/CAJERO SANTANDER CHEDRAUI IZTAPALAPA", "opening_hours": {"open_now": true}, "place_id": "ChIJRdPm8Zv90YUR8TyrtmENX30", "plus_code": {"compound_code": "9W5P+PM Mexico City", "global_code": "76F29W5P+PM"}, "rating": 1, "reference": "ChIJRdPm8Zv90YUR8TyrtmENX30", "types": ["atm", "finance", "point_of_interest", "establishment"], "user_ratings_total": 1}, {"business_status": "OPERATIONAL", "formatted_address": "Ermita Iztapalapa 1863, Local 4 09830, Los \u00c1ngeles, 09830 Ciudad de M\u00e9xico", "geometry": {"location": {"lat": 19.3496025, "lng": -99.0738702}, "viewport": {"northeast": {"lat": 19.35089917989272, "lng": -99.07228382010727}, "southwest": {"lat": 19.34819952010728, "lng": -99.07498347989272}}}, "icon": "https://maps.gstatic.com/mapfiles/place_api/icons/v1/png_71/atm-71.png", "name": "Santander", "photos": [{"height": 1920, "html_attributions": ["<a href=\"https://maps.google.com/maps/contrib/117478150343797312249\">Miguel Cortes</a>"], "photo_reference": "CmRaAAAAvByT8Hx9sCP9MGLxOMo_OZv6Ny3vbijqerjoMs9DMckbZQrqoJcqISM0b1_JYu8p1y-EwJrWt-2YR6Nsd65UoWH87xYD9MgIHK0W6X42RP1C1fZqmj0I9GWeUZ0_SzlCEhAI6_yvH72K6Da8VpIaPSdcGhSsXdwFR_-Mdo2Z4iH3rG5yptPqfg", "width": 1080}], "place_id": "ChIJEyyzIYz90YUR4XSoPw8zKds", "plus_code": {"compound_code": "8WXG+RF Mexico City", "global_code": "76F28WXG+RF"}, "rating": 2.5, "reference": "ChIJEyyzIYz90YUR4XSoPw8zKds", "types": ["atm", "finance", "point_of_interest", "establishment"], "user_ratings_total": 2}, {"business_status": "OPERATIONAL", "formatted_address": "Los \u00c1ngeles, Iztapalapa, 09830 Mexico City", "geometry": {"location": {"lat": 19.3460048, "lng": -99.06908039999999}, "viewport": {"northeast": {"lat": 19.34733162989272, "lng": -99.06760887010728}, "southwest": {"lat": 19.34463197010728, "lng": -99.07030852989273}}}, "icon": "https://maps.gstatic.com/mapfiles/place_api/icons/v1/png_71/atm-71.png", "name": "Cajero ATM Citibanamex", "place_id": "ChIJX78ljoj90YURhpouSlUsZeo", "plus_code": {"compound_code": "8WWJ+C9 Mexico City", "global_code": "76F28WWJ+C9"}, "rating": 1, "reference": "ChIJX78ljoj90YURhpouSlUsZeo", "types": ["atm", "finance", "point_of_interest", "establishment"], "user_ratings_total": 1}, {"business_status": "OPERATIONAL", "formatted_address": "Av. Antonio D\u00edaz Soto y Gama 21, Zona Urbana Ejidal Santa Mar\u00eda Aztahuacan, Iztapalapa, 09250 Ciudad de M\u00e9xico, CDMX", "geometry": {"location": {"lat": 19.3593556, "lng": -99.06322349999999}, "viewport": {"northeast": {"lat": 19.36078877989272, "lng": -99.06185222010727}, "southwest": {"lat": 19.35808912010728, "lng": -99.06455187989272}}}, "icon": "https://maps.gstatic.com/mapfiles/place_api/icons/v1/png_71/atm-71.png", "name": "Afirme", "place_id": "ChIJ1Vm38Zv90YURHzfJwuuOjF8", "plus_code": {"compound_code": "9W5P+PP Mexico City", "global_code": "76F29W5P+PP"}, "rating": 0, "reference": "ChIJ1Vm38Zv90YURHzfJwuuOjF8", "types": ["atm", "finance", "point_of_interest", "establishment"], "user_ratings_total": 0}, {"business_status": "OPERATIONAL", "formatted_address": "Soto y Gama 21, Zona Urbana Ejidal Santa Mar\u00eda Aztahuacan, Iztapalapa, 09250 Ciudad de M\u00e9xico, CDMX", "geometry": {"location": {"lat": 19.3593, "lng": -99.06320000000001}, "viewport": {"northeast": {"lat": 19.36075687989272, "lng": -99.06182262010728}, "southwest": {"lat": 19.35805722010727, "lng": -99.06452227989271}}}, "icon": "https://maps.gstatic.com/mapfiles/place_api/icons/v1/png_71/atm-71.png", "name": "Atm/Cajero BBVA Chedraui Iztapalapa (2", "opening_hours": {"open_now": true}, "place_id": "ChIJ0YaX8Zv90YURMfcrUKOAkkQ", "plus_code": {"compound_code": "9W5P+PP Mexico City", "global_code": "76F29W5P+PP"}, "rating": 3.7, "reference": "ChIJ0YaX8Zv90YURMfcrUKOAkkQ", "types": ["atm", "finance", "point_of_interest", "establishment"], "user_ratings_total": 6}, {"business_status": "OPERATIONAL", "formatted_address": "Pasillo 4 s/n, \u00c1rea Federal Central de Abastos, Iztapalapa, 09040 Ciudad de M\u00e9xico, CDMX", "geometry": {"location": {"lat": 19.3715036, "lng": -99.0888769}, "viewport": {"northeast": {"lat": 19.37287942989272, "lng": -99.08752622010726}, "southwest": {"lat": 19.37017977010727, "lng": -99.09022587989271}}}, "icon": "https://maps.gstatic.com/mapfiles/place_api/icons/v1/png_71/atm-71.png", "name": "BBVA Central De Abasto", "opening_hours": {"open_now": false}, "photos": [{"height": 2160, "html_attributions": ["<a href=\"https://maps.google.com/maps/contrib/107441426291253023518\">Nash Rojas</a>"], "photo_reference": "CmRaAAAAZlajbatFeG_14PuLG5eE8aWVx8p-8Eo4JyK_YtOUO8OU55so2U_qsHv5_381t6tspqLhK-hM6BIl8KgYlBaoUIWHPH14p9UI31kSVNiTooy9RgGNZDn2hpZIWN3dVCtMEhDSRH5xIiKKsnf8fDxa4JcZGhSrWOGgsyHHl8iyYBjHth1DFM64pw", "width": 3840}], "place_id": "ChIJccc9DcX90YURmVGJg6GyGKY", "plus_code": {"compound_code": "9WC6+JC Mexico City", "global_code": "76F29WC6+JC"}, "rating": 4.8, "reference": "ChIJccc9DcX90YURmVGJg6GyGKY", "types": ["atm", "finance", "point_of_interest", "establishment"], "user_ratings_total": 5}, {"business_status": "OPERATIONAL", "formatted_address": "Av. Tlahuac 125, Santa Isabel Industrial, Iztapalapa, 09820 Ciudad de M\u00e9xico, CDMX", "geometry": {"location": {"lat": 19.3520295, "lng": -99.1068841}, "viewport": {"northeast": {"lat": 19.35334472989272, "lng": -99.10531902010727}, "southwest": {"lat": 19.35064507010728, "lng": -99.10801867989271}}}, "icon": "https://maps.gstatic.com/mapfiles/place_api/icons/v1/png_71/atm-71.png", "name": "ATM / CASHIER BANCOMER SUC Tulyehualco", "opening_hours": {"open_now": true}, "place_id": "ChIJCWFpAQb-0YURYh4mMA4lcvY", "plus_code": {"compound_code": "9V2V+R6 Mexico City", "global_code": "76F29V2V+R6"}, "rating": 3, "reference": "ChIJCWFpAQb-0YURYh4mMA4lcvY", "types": ["atm", "finance", "point_of_interest", "establishment"], "user_ratings_total": 2}]