[{"business_status": "OPERATIONAL", "formatted_address": "Av, Ermita Iztapalapa n\u00famero 1542, San Miguel, Iztapalapa, 09360 Ciudad de M\u00e9xico, CDMX", "geometry": {"location": {"lat": 19.3550555, "lng": -99.08328739999999}, "viewport": {"northeast": {"lat": 19.35633312989272, "lng": -99.08197472010727}, "southwest": {"lat": 19.35363347010728, "lng": -99.08467437989272}}}, "icon": "https://maps.gstatic.com/mapfiles/place_api/icons/v1/png_71/generic_business-71.png", "name": "El rey del autolavado.", "opening_hours": {"open_now": true}, "photos": [{"height": 1773, "html_attributions": ["<a href=\"https://maps.google.com/maps/contrib/115785792000296041494\">A Google User</a>"], "photo_reference": "CmRaAAAAm5Oic_m490JCL4ebKGYjnjfA7xXFM6_-gJfpw5pUlU1-DIQCYDbJ2Z-G6AOktpHrbfmAlOz6YmH3Y9Ll9zJyGW6XwU063NcOztfssbNPQeNmZdCdKeIC1YlPT23_E0lQEhCw2caUJgrke2kZl2DZcMHrGhQDMSdWOc79GSPxJVibqYbo4IkDpg", "width": 1773}], "place_id": "ChIJxVV40ov90YUR8UgxNroztt4", "plus_code": {"compound_code": "9W48+2M Mexico City", "global_code": "76F29W48+2M"}, "rating": 4.5, "reference": "ChIJxVV40ov90YUR8UgxNroztt4", "types": ["car_wash", "point_of_interest", "establishment"], "user_ratings_total": 26}, {"business_status": "OPERATIONAL", "formatted_address": "Esquina Allende, Eje 5 Oriente (Av. Javier Rojo G\u00f3mez), San Pedro, Iztapalapa, 09000 Ciudad de M\u00e9xico, CDMX", "geometry": {"location": {"lat": 19.3603238, "lng": -99.0846747}, "viewport": {"northeast": {"lat": 19.36166872989272, "lng": -99.08333432010728}, "southwest": {"lat": 19.35896907010728, "lng": -99.08603397989272}}}, "icon": "https://maps.gstatic.com/mapfiles/place_api/icons/v1/png_71/generic_business-71.png", "name": "AUTOLAVADO", "opening_hours": {"open_now": false}, "place_id": "ChIJQ5IY4uv90YURsG-lm6IKjIw", "plus_code": {"compound_code": "9W68+44 Mexico City", "global_code": "76F29W68+44"}, "rating": 4.3, "reference": "ChIJQ5IY4uv90YURsG-lm6IKjIw", "types": ["car_wash", "point_of_interest", "establishment"], "user_ratings_total": 4}, {"business_status": "OPERATIONAL", "formatted_address": "5 de Mayo 106, San Lucas, Iztapalapa, 09000 Ciudad de M\u00e9xico, CDMX", "geometry": {"location": {"lat": 19.361947, "lng": -99.0968}, "viewport": {"northeast": {"lat": 19.36334437989272, "lng": -99.09543512010728}, "southwest": {"lat": 19.36064472010728, "lng": -99.09813477989273}}}, "icon": "https://maps.gstatic.com/mapfiles/place_api/icons/v1/png_71/generic_business-71.png", "name": "Autolavado Vallort", "opening_hours": {"open_now": false}, "photos": [{"height": 4160, "html_attributions": ["<a href=\"https://maps.google.com/maps/contrib/102517006521792939096\">Isma Pe\u00f1a</a>"], "photo_reference": "CmRaAAAAOnBiubCjtcC284GhRmS2M2b4oBUAAyo8NiSyMrsFhAklLy-EbckVL8ED0r24gekDz9gKDe28S3vFVgHNMUFcDXEpqtwyYrKnRprKdanaG9zhC-mup01HLInQJgpTdWgaEhBRIHYuBuUTXmUOSJwnRw9DGhSqjtgjuJl56j4GuYmR-PJhklywDg", "width": 3120}], "place_id": "ChIJ_azZ2-D90YURQKNY7Uz1nAc", "plus_code": {"compound_code": "9W63+Q7 Mexico City", "global_code": "76F29W63+Q7"}, "rating": 3.8, "reference": "ChIJ_azZ2-D90YURQKNY7Uz1nAc", "types": ["car_wash", "point_of_interest", "establishment"], "user_ratings_total": 93}, {"business_status": "OPERATIONAL", "formatted_address": "Ermita Iztapalapa 1764-1724, 8va Amp San Miguel, Iztapalapa, 09360 Ciudad de M\u00e9xico, CDMX", "geometry": {"location": {"lat": 19.3521958, "lng": -99.0770615}, "viewport": {"northeast": {"lat": 19.35349002989272, "lng": -99.07573957010727}, "southwest": {"lat": 19.35079037010728, "lng": -99.07843922989272}}}, "icon": "https://maps.gstatic.com/mapfiles/place_api/icons/v1/png_71/generic_business-71.png", "name": "Auto lavado", "place_id": "ChIJ-Sz1Wdj90YURUhLH3zub0_g", "plus_code": {"compound_code": "9W2F+V5 Mexico City", "global_code": "76F29W2F+V5"}, "rating": 2.5, "reference": "ChIJ-Sz1Wdj90YURUhLH3zub0_g", "types": ["car_wash", "point_of_interest", "establishment"], "user_ratings_total": 2}, {"business_status": "OPERATIONAL", "formatted_address": "Fco. Pascual Garcia 12, San Lucas, Iztapalapa, 09000 Ciudad de M\u00e9xico, CDMX", "geometry": {"location": {"lat": 19.3563, "lng": -99.096054}, "viewport": {"northeast": {"lat": 19.35763987989272, "lng": -99.09458012010727}, "southwest": {"lat": 19.35494022010728, "lng": -99.09727977989272}}}, "icon": "https://maps.gstatic.com/mapfiles/place_api/icons/v1/png_71/generic_business-71.png", "name": "Auto Lavado Vane", "opening_hours": {"open_now": false}, "photos": [{"height": 1200, "html_attributions": ["<a href=\"https://maps.google.com/maps/contrib/112625069448625314712\">A Google User</a>"], "photo_reference": "CmRaAAAANEKYYqD0QxGoF4g3qoiKGKCr3vkg6ZhQNoL8xzfDMSqj_r8pzVXkD_byjj9hcwQq9-6_iOuYthHuN5F3QDlK7-9qQs1kjGXSSs7WNqcIucromBmOb7dX5JADkKa_y6AiEhANBOVnhThOOvG2qFjcAAugGhTZO1Fq91gLdjogjSD_Bc_uhR1r8w", "width": 1600}], "place_id": "ChIJvSTGoTP90YURkaxbgSm5XXI", "plus_code": {"compound_code": "9W43+GH Mexico City", "global_code": "76F29W43+GH"}, "rating": 0, "reference": "ChIJvSTGoTP90YURkaxbgSm5XXI", "types": ["car_wash", "point_of_interest", "establishment"], "user_ratings_total": 0}, {"business_status": "OPERATIONAL", "formatted_address": "09830, Espuela 37, Los \u00c1ngeles, Iztapalapa, Ciudad de M\u00e9xico, CDMX", "geometry": {"location": {"lat": 19.3453319, "lng": -99.0716319}, "viewport": {"northeast": {"lat": 19.34667962989272, "lng": -99.07027307010729}, "southwest": {"lat": 19.34397997010728, "lng": -99.07297272989274}}}, "icon": "https://maps.gstatic.com/mapfiles/place_api/icons/v1/png_71/generic_business-71.png", "name": "Lavado de Autos en Seco", "opening_hours": {"open_now": false}, "photos": [{"height": 2988, "html_attributions": ["<a href=\"https://maps.google.com/maps/contrib/111724889729966410643\">jav pingo</a>"], "photo_reference": "CmRaAAAAHyOoWx9CjCE-EO5obrX6J0bO9xjH3UCHJGLHW65owfi25_75DvSqlkGAgjqshaNBabOZ0ElLZozhnhHfpgyzvX4NkcOxGfOCY3d_r_DMFX69ChSv8sRmuS_ZVz1RC-k8EhABGAhyDACb-8f4FcHejRuKGhR0YLIrRVbomedqw60LBH4ccQqDtg", "width": 3984}], "place_id": "ChIJayx_CIn90YUR1gYed7Xt1tw", "plus_code": {"compound_code": "8WWH+48 Mexico City", "global_code": "76F28WWH+48"}, "rating": 5, "reference": "ChIJayx_CIn90YUR1gYed7Xt1tw", "types": ["car_wash", "point_of_interest", "establishment"], "user_ratings_total": 4}, {"business_status": "OPERATIONAL", "formatted_address": "Av. Luis Hidalgo Monroy 34A, San Miguel, Iztapalapa, 09360 Ciudad de M\u00e9xico, CDMX", "geometry": {"location": {"lat": 19.3548275, "lng": -99.07615380000001}, "viewport": {"northeast": {"lat": 19.35612922989272, "lng": -99.07482447010727}, "southwest": {"lat": 19.35342957010727, "lng": -99.07752412989272}}}, "icon": "https://maps.gstatic.com/mapfiles/place_api/icons/v1/png_71/generic_business-71.png", "name": "Auto Wash Express", "opening_hours": {"open_now": true}, "photos": [{"height": 2988, "html_attributions": ["<a href=\"https://maps.google.com/maps/contrib/114960709014693034636\">Carlos santamaria martinez</a>"], "photo_reference": "CmRaAAAAiwrgLrAozjMnAj6bbJYsxhLyNPTDCUKAJLlOED0AFmn_eN4HwEKd8wbRJ__rdAIEGpO3z-Cn6QMZm6QDbg3pfWQlpO7RXXmI2Le_sSXiTpFxvqINSJksCgxYJpHsMkBGEhBIFf4N5KtU_0mBBUcYMTeGGhTgAzOAlQenYlkQlRs4neyiB879Zw", "width": 5312}], "place_id": "ChIJBXyJY5L90YURvKm8dHbC3gE", "plus_code": {"compound_code": "9W3F+WG Mexico City", "global_code": "76F29W3F+WG"}, "rating": 4.1, "reference": "ChIJBXyJY5L90YURvKm8dHbC3gE", "types": ["car_wash", "point_of_interest", "establishment"], "user_ratings_total": 11}, {"business_status": "OPERATIONAL", "formatted_address": "Aztecas 18, La Asunci\u00f3n, Iztapalapa, 09000 Ciudad de M\u00e9xico, CDMX", "geometry": {"location": {"lat": 19.361457, "lng": -99.092699}, "viewport": {"northeast": {"lat": 19.36279557989272, "lng": -99.09131842010729}, "southwest": {"lat": 19.36009592010728, "lng": -99.09401807989272}}}, "icon": "https://maps.gstatic.com/mapfiles/place_api/icons/v1/png_71/generic_business-71.png", "name": "Super Cars Wash Los Primos", "opening_hours": {"open_now": false}, "photos": [{"height": 4096, "html_attributions": ["<a href=\"https://maps.google.com/maps/contrib/113764616750501932229\">A Google User</a>"], "photo_reference": "CmRaAAAALw-dwSMEUEUHNxdpE3wJpZS2hn_zDqiqLTQ5pTjdbgrc7dE_EALsWvV8lIDaTCbtrTvQsrWgLLVmXjlu0W2O9X30ol3TMT59xEOHnexDFlzG3mVMZqA7nNP69yEKqfxEEhDQpICD-2zqJzeh62S9GlKPGhQwgmrp4vwrlmJBq7CFQOGbTHCm7Q", "width": 2304}], "place_id": "ChIJVe_4U-b90YUR6YB5HhjRKe4", "plus_code": {"compound_code": "9W64+HW Mexico City", "global_code": "76F29W64+HW"}, "rating": 4.2, "reference": "ChIJVe_4U-b90YUR6YB5HhjRKe4", "types": ["car_wash", "point_of_interest", "establishment"], "user_ratings_total": 14}, {"business_status": "OPERATIONAL", "formatted_address": "Fco. Pascual Garcia numero 12, San Lucas, Iztapalapa, 09000 Ciudad de M\u00e9xico, CDMX", "geometry": {"location": {"lat": 19.356235, "lng": -99.09583699999999}, "viewport": {"northeast": {"lat": 19.35758537989272, "lng": -99.09449362010727}, "southwest": {"lat": 19.35488572010728, "lng": -99.09719327989272}}}, "icon": "https://maps.gstatic.com/mapfiles/place_api/icons/v1/png_71/generic_business-71.png", "name": "Car Wash \"Vane\"", "opening_hours": {"open_now": false}, "photos": [{"height": 1080, "html_attributions": ["<a href=\"https://maps.google.com/maps/contrib/106957391242888419851\">Angel Osorio</a>"], "photo_reference": "CmRaAAAA3ejU6S0tSVOWalWG_V3saiY1SemhKwp-4AoIrecAc8-wihYBKsjv61ZotQY0Kb29aC9IHcwpiK-O-ksoQ6AU7Lix_B5yu9vY1kCcZE6o1sP9zmwgXRnZcDsurHFXuruXEhAHcW-yJF7SEiSGrMxmwxq4GhQGbfCvqYrs7NnyH3tqb6uIEOoniQ", "width": 1920}], "place_id": "ChIJEdQYvNP90YURGTUzdpVZHNc", "plus_code": {"compound_code": "9W43+FM Mexico City", "global_code": "76F29W43+FM"}, "rating": 5, "reference": "ChIJEdQYvNP90YURGTUzdpVZHNc", "types": ["car_wash", "point_of_interest", "establishment"], "user_ratings_total": 2}, {"business_status": "OPERATIONAL", "formatted_address": "Av. Luis Hidalgo Monroy 436, San Miguel, Iztapalapa, 09360 Ciudad de M\u00e9xico, CDMX", "geometry": {"location": {"lat": 19.3549785, "lng": -99.07657069999999}, "viewport": {"northeast": {"lat": 19.35628147989272, "lng": -99.07523902010728}, "southwest": {"lat": 19.35358182010728, "lng": -99.07793867989272}}}, "icon": "https://maps.gstatic.com/mapfiles/place_api/icons/v1/png_71/generic_business-71.png", "name": "Autolavado Ram\u00edrez", "opening_hours": {"open_now": false}, "place_id": "ChIJo1L1iZL90YURfz18m5VeRrI", "plus_code": {"compound_code": "9W3F+X9 Mexico City", "global_code": "76F29W3F+X9"}, "rating": 4.2, "reference": "ChIJo1L1iZL90YURfz18m5VeRrI", "types": ["car_wash", "point_of_interest", "establishment"], "user_ratings_total": 47}, {"business_status": "OPERATIONAL", "formatted_address": "5 de Mayo 267, Sta B\u00e1rbara, Iztapalapa, 09000 Ciudad de M\u00e9xico, CDMX", "geometry": {"location": {"lat": 19.3632224, "lng": -99.10056850000001}, "viewport": {"northeast": {"lat": 19.36452022989272, "lng": -99.09923477010727}, "southwest": {"lat": 19.36182057010727, "lng": -99.10193442989272}}}, "icon": "https://maps.gstatic.com/mapfiles/place_api/icons/v1/png_71/generic_business-71.png", "name": "LAVADO Y ENGRASADO", "opening_hours": {"open_now": false}, "photos": [{"height": 3072, "html_attributions": ["<a href=\"https://maps.google.com/maps/contrib/113802000917676876238\">A Google User</a>"], "photo_reference": "CmRaAAAAV5jxkat3q4fPe4KXBVH2JU1n33Ab1uOgdiAn2ZoxFz6NSP88FVsyJq2qycgbmmJCLjcSpFLscFGOSp0kvYP_By9nVhqByhQ2IIBQutaSOgkpRpI2GoGs9inpVkeKjQhKEhB7chSiMgsJlZiiFsmOoGMxGhQbM7KZBdzaduLtnrl1aaymSsTEtQ", "width": 4608}], "place_id": "ChIJQfY5F-D90YURNooR0Iy57mg", "plus_code": {"compound_code": "9V7X+7Q Mexico City", "global_code": "76F29V7X+7Q"}, "rating": 4.3, "reference": "ChIJQfY5F-D90YURNooR0Iy57mg", "types": ["car_wash", "point_of_interest", "establishment"], "user_ratings_total": 83}, {"business_status": "OPERATIONAL", "formatted_address": "Av.Luis Hidalgo Monroy 427 C, Barrio San Miguel, 09360 Iztapalapa, CDMX", "geometry": {"location": {"lat": 19.35334, "lng": -99.072364}, "viewport": {"northeast": {"lat": 19.35473547989272, "lng": -99.07098607010728}, "southwest": {"lat": 19.35203582010728, "lng": -99.07368572989272}}}, "icon": "https://maps.gstatic.com/mapfiles/place_api/icons/v1/png_71/generic_business-71.png", "name": "AutoLavado Hidalgo", "opening_hours": {"open_now": false}, "photos": [{"height": 3072, "html_attributions": ["<a href=\"https://maps.google.com/maps/contrib/100921223360870405607\">Diego Ivan Roque Soto</a>"], "photo_reference": "CmRaAAAAgRkvfNM5Yz4Ti3GE8Aj3JodnPdhXy6Gucz4XM4EC7AagXon-aFFn5KVdkg8z22T2O25LqDL5bqz149zw5FpadT9NaNtArVbBFZ2NyhNhJ_w6FuBgoYHkVeEKBBFzonH4EhCT3E_K7ypUKyMlV_o172UKGhQ6PriF1cjZrvwL9kGKQ9XGKQghDw", "width": 3072}], "place_id": "ChIJL6dtGI790YURDDBBbNaUDtk", "plus_code": {"compound_code": "9W3H+83 Mexico City", "global_code": "76F29W3H+83"}, "rating": 4.3, "reference": "ChIJL6dtGI790YURDDBBbNaUDtk", "types": ["car_wash", "point_of_interest", "establishment"], "user_ratings_total": 196}, {"business_status": "OPERATIONAL", "formatted_address": "Jose Ma. Morels Manzana 4 Lote 14, Valle de Luces 1ra Secc, Iztapalapa, 09800 Ciudad de M\u00e9xico, CDMX", "geometry": {"location": {"lat": 19.3379571, "lng": -99.1007211}, "viewport": {"northeast": {"lat": 19.33927302989272, "lng": -99.09938047010729}, "southwest": {"lat": 19.33657337010728, "lng": -99.10208012989273}}}, "icon": "https://maps.gstatic.com/mapfiles/place_api/icons/v1/png_71/generic_business-71.png", "name": "CAR WASH", "opening_hours": {"open_now": false}, "place_id": "ChIJfw5uLQACzoUR_x71DHVc8Xg", "plus_code": {"compound_code": "8VQX+5P Mexico City", "global_code": "76F28VQX+5P"}, "rating": 0, "reference": "ChIJfw5uLQACzoUR_x71DHVc8Xg", "types": ["car_wash", "point_of_interest", "establishment"], "user_ratings_total": 0}, {"business_status": "OPERATIONAL", "formatted_address": "Av Jalisco 61, Iztapalapa, 09300 Ciudad de M\u00e9xico, CDMX", "geometry": {"location": {"lat": 19.3672323, "lng": -99.07317979999999}, "viewport": {"northeast": {"lat": 19.36863127989272, "lng": -99.07179777010727}, "southwest": {"lat": 19.36593162010728, "lng": -99.07449742989272}}}, "icon": "https://maps.gstatic.com/mapfiles/place_api/icons/v1/png_71/generic_business-71.png", "name": "Autolavado A Presi\u00f3n", "opening_hours": {"open_now": true}, "photos": [{"height": 1080, "html_attributions": ["<a href=\"https://maps.google.com/maps/contrib/109597164447184710291\">Adonai S Techie Mauleon</a>"], "photo_reference": "CmRaAAAAkp4CLVK5wyfA7dHJzi46AEk17lMEYg3y0m1uozrM94MoHBvUmEd7Rf7FF-D5CMxB91QyWIOj852hh_nf4xy29SIPnT7Vd2TPBJ5jBIIyHiynV5BXDmL-8Bwkgm85sPBwEhCl_ELSuYApRm4pp-ERHFfTGhQhHc172gpnBn8GjBKGOML6NLWkIA", "width": 1920}], "place_id": "ChIJVVR5fRz90YURVscSKdt-yMc", "plus_code": {"compound_code": "9W8G+VP Mexico City", "global_code": "76F29W8G+VP"}, "rating": 4, "reference": "ChIJVVR5fRz90YURVscSKdt-yMc", "types": ["car_wash", "point_of_interest", "establishment"], "user_ratings_total": 56}, {"business_status": "OPERATIONAL", "formatted_address": "09838, Calle Alheli 13, Plan de Iguala, Iztapalapa, Ciudad de M\u00e9xico, CDMX", "geometry": {"location": {"lat": 19.3506094, "lng": -99.084704}, "viewport": {"northeast": {"lat": 19.35194997989272, "lng": -99.08331802010728}, "southwest": {"lat": 19.34925032010728, "lng": -99.08601767989273}}}, "icon": "https://maps.gstatic.com/mapfiles/place_api/icons/v1/png_71/generic_business-71.png", "name": "Estetica Automotriz A KY CON EL ZETA", "photos": [{"height": 3456, "html_attributions": ["<a href=\"https://maps.google.com/maps/contrib/116482693013432818531\">Fco Peredo</a>"], "photo_reference": "CmRaAAAA9abKks2_HGYAT7CC9uS3hPq70oc6HPfwuWAM_i5oKg6sZ-oBCgxH4wtMeBtEGdSkktTuabjET3yNDK85h-ll4Dj80XTxwsvW4PCWAIfPz3X8IsVX7qQd51v9WztHtMqUEhAr4s6hRsWH6aFbICJ6hCmjGhT1vargzQigMD-6mviiBaIn0WoWMg", "width": 4608}], "place_id": "ChIJrQ5jKvL90YURL1t0XJGhC9s", "plus_code": {"compound_code": "9W28+64 Mexico City", "global_code": "76F29W28+64"}, "rating": 4.3, "reference": "ChIJrQ5jKvL90YURL1t0XJGhC9s", "types": ["car_wash", "point_of_interest", "establishment"], "user_ratings_total": 3}, {"business_status": "OPERATIONAL", "formatted_address": "Anillo Perif. 59, Constituci\u00f3n de 1917, Iztapalapa, 09260 Ciudad de M\u00e9xico, CDMX", "geometry": {"location": {"lat": 19.3477798, "lng": -99.06025600000001}, "viewport": {"northeast": {"lat": 19.34914362989272, "lng": -99.05896182010729}, "southwest": {"lat": 19.34644397010728, "lng": -99.06166147989272}}}, "icon": "https://maps.gstatic.com/mapfiles/place_api/icons/v1/png_71/generic_business-71.png", "name": "Lavado De Autos Cort\u00e9s", "place_id": "ChIJdxXXcIH90YURGesBv0dllE8", "plus_code": {"compound_code": "8WXQ+4V Mexico City", "global_code": "76F28WXQ+4V"}, "rating": 0, "reference": "ChIJdxXXcIH90YURGesBv0dllE8", "types": ["car_wash", "point_of_interest", "establishment"], "user_ratings_total": 0}, {"business_status": "OPERATIONAL", "formatted_address": "Torres Quintero 103, San Miguel, Iztapalapa, 09360 Ciudad de M\u00e9xico, CDMX", "geometry": {"location": {"lat": 19.3574336, "lng": -99.0753333}, "viewport": {"northeast": {"lat": 19.35877957989272, "lng": -99.07396847010729}, "southwest": {"lat": 19.35607992010728, "lng": -99.07666812989274}}}, "icon": "https://maps.gstatic.com/mapfiles/place_api/icons/v1/png_71/generic_business-71.png", "name": "NERMIL", "photos": [{"height": 4160, "html_attributions": ["<a href=\"https://maps.google.com/maps/contrib/108459594391899716285\">Elizabeth Cano</a>"], "photo_reference": "CmRaAAAAczh8ZzGdkWgqFR29TzP7pSs9ohSqYplbZc-T0lIruOIWeoiyJhwtxBt0N0Clhnyiv2Oo6dzGy3S-EePjz0V71MweQwRCKCvYt2cMx4ICyepssLn-hOvd05bkPIZQwmDREhA3AyFOS3zmGrcqLfG-2DxPGhR_pzvJEC92MWnU1HMak1xr84YO6g", "width": 3120}], "place_id": "ChIJMxRqt5P90YURd3N4DpWYPXs", "plus_code": {"compound_code": "9W4F+XV Mexico City", "global_code": "76F29W4F+XV"}, "rating": 2.7, "reference": "ChIJMxRqt5P90YURd3N4DpWYPXs", "types": ["car_wash", "point_of_interest", "establishment"], "user_ratings_total": 23}, {"business_status": "OPERATIONAL", "formatted_address": "Av. Puente Ram\u00edrez 49, 2da Amp San Juan, Iztapalapa, 09839 Ciudad de M\u00e9xico, CDMX", "geometry": {"location": {"lat": 19.3388453, "lng": -99.0718679}, "viewport": {"northeast": {"lat": 19.34023807989272, "lng": -99.07051902010727}, "southwest": {"lat": 19.33753842010728, "lng": -99.07321867989272}}}, "icon": "https://maps.gstatic.com/mapfiles/place_api/icons/v1/png_71/generic_business-71.png", "name": "AUTOLAVADO", "opening_hours": {"open_now": true}, "place_id": "ChIJm55X8XYCzoURssnv09pIHFo", "plus_code": {"compound_code": "8WQH+G7 Mexico City", "global_code": "76F28WQH+G7"}, "rating": 4.6, "reference": "ChIJm55X8XYCzoURssnv09pIHFo", "types": ["car_wash", "point_of_interest", "establishment"], "user_ratings_total": 18}, {"business_status": "OPERATIONAL", "formatted_address": "Av. Michoac\u00e1n 32, Iztapalapa, 09300 Ciudad de M\u00e9xico, CDMX", "geometry": {"location": {"lat": 19.3661038, "lng": -99.07435629999999}, "viewport": {"northeast": {"lat": 19.36741387989272, "lng": -99.07301527010726}, "southwest": {"lat": 19.36471422010727, "lng": -99.07571492989271}}}, "icon": "https://maps.gstatic.com/mapfiles/place_api/icons/v1/png_71/generic_business-71.png", "name": "Autoservicio lavado y engrasado Michoacan", "opening_hours": {"open_now": false}, "photos": [{"height": 1052, "html_attributions": ["<a href=\"https://maps.google.com/maps/contrib/101632033585964440473\">samueL Ram\u00edrez</a>"], "photo_reference": "CmRaAAAAf6P4w4Ipb39WtXqVh5AEuGXUUPS0c7jg6cjxcsxzOmf5CBCLaykvH-MWzZ2XXDMoSXges3zCzuiSTQip3RGsMXxKfnHs3LT1XODFg758HekGc7yfeBRT85V2blUvWfxaEhAO0_RMn3M89HCBVARUxIpjGhQDrGN7TUS7mrgEJvkB7lb2kdq92w", "width": 1049}], "place_id": "ChIJk-O2BL790YURWcV-sXkhM6c", "plus_code": {"compound_code": "9W8G+C7 Mexico City", "global_code": "76F29W8G+C7"}, "rating": 4.3, "reference": "ChIJk-O2BL790YURWcV-sXkhM6c", "types": ["car_wash", "point_of_interest", "establishment"], "user_ratings_total": 53}, {"business_status": "OPERATIONAL", "formatted_address": "Calle 3 #1, San Juan Xalpa, Iztapalapa, 09850 Ciudad de M\u00e9xico, CDMX", "geometry": {"location": {"lat": 19.3374347, "lng": -99.08550389999999}, "viewport": {"northeast": {"lat": 19.33878402989272, "lng": -99.08415077010729}, "southwest": {"lat": 19.33608437010728, "lng": -99.08685042989273}}}, "icon": "https://maps.gstatic.com/mapfiles/place_api/icons/v1/png_71/generic_business-71.png", "name": "Autolavado \u201cLAMON\u201d Car Wash & Detailing", "opening_hours": {"open_now": true}, "photos": [{"height": 3730, "html_attributions": ["<a href=\"https://maps.google.com/maps/contrib/117272790670555130867\">A Google User</a>"], "photo_reference": "CmRaAAAAwvJ2_oWR1kUre_zbOxI-zdpepr2m0RlGQv1uYdciTDpZtOCKYTGP9KaOQOi0PcXDvwk5VcfwzCy9_sTNnPscYQzcSOXaHwkH9HWsz6jH0_AOvINUTeQ5iDEfwb3SEpa1EhBWQjqBfSQw7SPrgq0KG0zKGhRzhwZy-RpEZ20ISZAN1WUx2Qo9_Q", "width": 6410}], "place_id": "ChIJUa4JJxEDzoURnjZ7e4EfD1o", "plus_code": {"compound_code": "8WP7+XQ Mexico City", "global_code": "76F28WP7+XQ"}, "rating": 4.1, "reference": "ChIJUa4JJxEDzoURnjZ7e4EfD1o", "types": ["car_wash", "point_of_interest", "establishment"], "user_ratings_total": 55}]