[{"business_status": "OPERATIONAL", "formatted_address": "Av. Leyes de Reforma 34, \u00c1rea Federal Central de Abastos, Iztapalapa, 09040 Ciudad de M\u00e9xico, CDMX", "geometry": {"location": {"lat": 19.3803498, "lng": -99.08784589999999}, "viewport": {"northeast": {"lat": 19.38156217989272, "lng": -99.08649742010728}, "southwest": {"lat": 19.37886252010728, "lng": -99.08919707989273}}}, "icon": "https://maps.gstatic.com/mapfiles/place_api/icons/v1/png_71/generic_business-71.png", "name": "Hertz Central de Abastos", "opening_hours": {"open_now": false}, "photos": [{"height": 2448, "html_attributions": ["<a href=\"https://maps.google.com/maps/contrib/104535823614953348577\">anthony charlz Riuk</a>"], "photo_reference": "CmRaAAAAA4DZ_EXX-PM_5VtE95zyIn_6hqjMORJjtQQimvGf3CE9yXV0lLBxuOZkhlsobTy6iq2btZ76NOi96oXtDTAU4-b-Mei15lrZM5oBQyJa1ByC_R18gisDk9qUBm6_n4cXEhA4d8-agiryPaQehWSj-araGhTN-oOOWw4PzlXOWEr2GbtThiji1A", "width": 3264}], "place_id": "ChIJp-jeVs790YURQaI6y5cpA5M", "plus_code": {"compound_code": "9WJ6+4V Mexico City", "global_code": "76F29WJ6+4V"}, "rating": 4.1, "reference": "ChIJp-jeVs790YURQaI6y5cpA5M", "types": ["car_rental", "point_of_interest", "establishment"], "user_ratings_total": 91}, {"business_status": "OPERATIONAL", "formatted_address": "Canal de Miramontes 2537, Coapa, Prado Coyoac\u00e1n, Coyoac\u00e1n, 04810 Ciudad de M\u00e9xico, CDMX", "geometry": {"location": {"lat": 19.3211016, "lng": -99.1332824}, "viewport": {"northeast": {"lat": 19.32251147989272, "lng": -99.13185357010728}, "southwest": {"lat": 19.31981182010728, "lng": -99.13455322989272}}}, "icon": "https://maps.gstatic.com/mapfiles/place_api/icons/v1/png_71/generic_business-71.png", "name": "Promusa", "opening_hours": {"open_now": false}, "photos": [{"height": 464, "html_attributions": ["<a href=\"https://maps.google.com/maps/contrib/112922248530005226217\">Promusa Renta de Autos Distrito Federal</a>"], "photo_reference": "CmRaAAAA-z5tOZ8FUn3OK_Pdmk9ngsU076K1x1b3AZ2FMDUAq21xXN62gXuF67DrOpE4TyurEN8vPyWrj2Daz68lat8vFXwTV7rsmqJnu2UrP4UOqoVdoUxS5zqoDFLw2b-HnbrOEhAUqUcd63yRpPWrrP1gv1ksGhRihRT6LDPTlG8YNoNY8zO1wcMBnA", "width": 724}], "place_id": "ChIJ5QVLrAr_0YURCto3DM_GiZg", "plus_code": {"compound_code": "8VC8+CM Mexico City", "global_code": "76F28VC8+CM"}, "rating": 3.4, "reference": "ChIJ5QVLrAr_0YURCto3DM_GiZg", "types": ["car_rental", "point_of_interest", "establishment"], "user_ratings_total": 51}, {"business_status": "OPERATIONAL", "formatted_address": "Cereales 110, Progreso del Sur, Iztapalapa, 09810 Ciudad de M\u00e9xico, CDMX", "geometry": {"location": {"lat": 19.3529598, "lng": -99.11358369999999}, "viewport": {"northeast": {"lat": 19.35431262989273, "lng": -99.11227007010729}, "southwest": {"lat": 19.35161297010728, "lng": -99.11496972989274}}}, "icon": "https://maps.gstatic.com/mapfiles/place_api/icons/v1/png_71/generic_business-71.png", "name": "Autofac Rent", "place_id": "ChIJCfadExD-0YURaZdJK_2tJYc", "plus_code": {"compound_code": "9V3P+5H Mexico City", "global_code": "76F29V3P+5H"}, "rating": 0, "reference": "ChIJCfadExD-0YURaZdJK_2tJYc", "types": ["car_rental", "point_of_interest", "establishment"], "user_ratings_total": 0}, {"business_status": "OPERATIONAL", "formatted_address": "Cerrada Santa Cruz 11 20, Las Arboledas, Iztapalapa, 09780 Ciudad de M\u00e9xico, CDMX", "geometry": {"location": {"lat": 19.3162149, "lng": -99.07033659999999}, "viewport": {"northeast": {"lat": 19.31759457989272, "lng": -99.06897612010728}, "southwest": {"lat": 19.31489492010728, "lng": -99.07167577989273}}}, "icon": "https://maps.gstatic.com/mapfiles/place_api/icons/v1/png_71/generic_business-71.png", "name": "Renta De Camionetas Landeros", "place_id": "ChIJ62jnrKEDzoUR94xShSysmYM", "plus_code": {"compound_code": "8W8H+FV Mexico City", "global_code": "76F28W8H+FV"}, "rating": 0, "reference": "ChIJ62jnrKEDzoUR94xShSysmYM", "types": ["car_rental", "point_of_interest", "establishment"], "user_ratings_total": 0}, {"business_status": "OPERATIONAL", "formatted_address": "Calz. de Tlalpan No. 2097, Parque San Andr\u00e9s, Coyoac\u00e1n, 04040 Ciudad de M\u00e9xico, CDMX", "geometry": {"location": {"lat": 19.3433279, "lng": -99.1443291}, "viewport": {"northeast": {"lat": 19.34468922989272, "lng": -99.14292382010727}, "southwest": {"lat": 19.34198957010728, "lng": -99.1456234798927}}}, "icon": "https://maps.gstatic.com/mapfiles/place_api/icons/v1/png_71/generic_business-71.png", "name": "Casanova Rent a Car Tlalpan", "opening_hours": {"open_now": false}, "photos": [{"height": 1080, "html_attributions": ["<a href=\"https://maps.google.com/maps/contrib/113953320279902266352\">A Google User</a>"], "photo_reference": "CmRaAAAAftC0CEGNex0t-cGFvVYLtvmNpsiLQxjBZ5tO6oqilMXVyCFdQMO_fwJwpijIbTi7BfiYwRB6lslEP1AtiZdvpzIww-3TlYvcFRceBXJCBGFBZnl_cTITdtEyBD16SD9DEhA1PFyj6Fn0_ZKVn6LMohRrGhSOULZlm_IjQ2I2U9dDAsZpn4__9Q", "width": 1980}], "place_id": "ChIJtdQH4tEBzoUROz74C-OaaTs", "plus_code": {"compound_code": "8VV4+87 Mexico City", "global_code": "76F28VV4+87"}, "rating": 3.9, "reference": "ChIJtdQH4tEBzoUROz74C-OaaTs", "types": ["car_rental", "point_of_interest", "establishment"], "user_ratings_total": 1177}, {"business_status": "OPERATIONAL", "formatted_address": "Calz Acoxpa 438, Coapa, Ex-Hacienda Coapa, Tlalpan, 14300 Ciudad de M\u00e9xico, CDMX", "geometry": {"location": {"lat": 19.2983192, "lng": -99.13675769999999}, "viewport": {"northeast": {"lat": 19.29962677989272, "lng": -99.13535787010727}, "southwest": {"lat": 19.29692712010727, "lng": -99.13805752989272}}}, "icon": "https://maps.gstatic.com/mapfiles/place_api/icons/v1/png_71/generic_business-71.png", "name": "Hertz", "opening_hours": {"open_now": false}, "photos": [{"height": 2048, "html_attributions": ["<a href=\"https://maps.google.com/maps/contrib/101599736402135555556\">Jos\u00e9 Alberto Castro</a>"], "photo_reference": "CmRaAAAAFN953ulcpMlwzA1UWDDLUOVTNLDcGCj_GhsB9fheEQe6-B7pidJql8ccOpyxGwq5a6MovhPKP-fmHg-chpoiY9dTO11tE2zozn3nyHfrwAYlnawOVbCcgEFbS-qvvcoLEhCi7vTjSI0SwFiPgQT-FtHcGhR-xjD69yyyaji3HVb0EtlJR7TNHQ", "width": 1536}], "place_id": "ChIJ2fNeJa8BzoURCF1bB0F9vvQ", "plus_code": {"compound_code": "7VX7+87 Mexico City", "global_code": "76F27VX7+87"}, "rating": 3.2, "reference": "ChIJ2fNeJa8BzoURCF1bB0F9vvQ", "types": ["car_rental", "point_of_interest", "establishment"], "user_ratings_total": 172}, {"business_status": "OPERATIONAL", "formatted_address": "Avenida Nte 260, Agr\u00edcola Pantitl\u00e1n, Iztacalco, 08100 Ciudad de M\u00e9xico, CDMX", "geometry": {"location": {"lat": 19.4102582, "lng": -99.06222729999999}, "viewport": {"northeast": {"lat": 19.41150547989272, "lng": -99.06089307010728}, "southwest": {"lat": 19.40880582010728, "lng": -99.06359272989272}}}, "icon": "https://maps.gstatic.com/mapfiles/place_api/icons/v1/png_71/generic_business-71.png", "name": "BUSES RENTAL", "photos": [{"height": 2560, "html_attributions": ["<a href=\"https://maps.google.com/maps/contrib/104990693260932864712\">A Google User</a>"], "photo_reference": "CmRaAAAAVLn8-l3bgnL27lmcOeom7tWe99yhOcAIWrDRkEX255V9adoJkAazHCids90XrzZQGaUq3XhqayNSddcOjaQgL3odeUq-bIfuRR45o_iVBh8Xl5XUKuhsa8KItc0H8gLzEhBO0f-SEWaoRZCbbb08LH_JGhSfjE30xM8YQbjNRZzgcMAU5p_CbA", "width": 1536}], "place_id": "ChIJzcUrhF780YURsjvN-6kwtUc", "plus_code": {"compound_code": "CW6Q+44 Mexico City", "global_code": "76F2CW6Q+44"}, "rating": 3.3, "reference": "ChIJzcUrhF780YURsjvN-6kwtUc", "types": ["car_rental", "point_of_interest", "establishment"], "user_ratings_total": 3}, {"business_status": "OPERATIONAL", "formatted_address": "Aeropuerto Internacional, Av. Capit\u00e1n Carlos Le\u00f3n S/N, Venustiano Carranza, 15620 Ciudad de M\u00e9xico, CDMX", "geometry": {"location": {"lat": 19.4216683, "lng": -99.0772298}, "viewport": {"northeast": {"lat": 19.42294767989272, "lng": -99.07589647010728}, "southwest": {"lat": 19.42024802010727, "lng": -99.07859612989273}}}, "icon": "https://maps.gstatic.com/mapfiles/place_api/icons/v1/png_71/generic_business-71.png", "name": "Renta de Autos DF", "opening_hours": {"open_now": false}, "photos": [{"height": 2368, "html_attributions": ["<a href=\"https://maps.google.com/maps/contrib/108290977583830599641\">Alex L\u00f3pez</a>"], "photo_reference": "CmRaAAAAunlfpMbak3xKUYhWzglrw86kDpGiYwAYw7Nk7qZC1jB66Cjmnfb4sN-1KppONoH5w6_VLSiM6IWlhZ9Z0TdIfbkA0WCnFjOtDrTxrahCQB44JIQvfJ7BApYlyceukNOkEhCX7Gu00CmjzEi-VChogGx2GhQQkH6LkDW0ChSfMvCkHGErcFHAgA", "width": 4208}], "place_id": "ChIJO9Le3Gz80YURIzyibbRDID8", "plus_code": {"compound_code": "CWCF+M4 Mexico City", "global_code": "76F2CWCF+M4"}, "rating": 2.4, "reference": "ChIJO9Le3Gz80YURIzyibbRDID8", "types": ["car_rental", "point_of_interest", "establishment"], "user_ratings_total": 9}, {"business_status": "OPERATIONAL", "formatted_address": "Calle Sonora S/N, M\u00e9xico (Lic. Benito Ju\u00e1rez), Venustiano Carranza, 15620 Ciudad de M\u00e9xico, CDMX", "geometry": {"location": {"lat": 19.441301, "lng": -99.0765485}, "viewport": {"northeast": {"lat": 19.44267602989272, "lng": -99.07519472010728}, "southwest": {"lat": 19.43997637010728, "lng": -99.07789437989271}}}, "icon": "https://maps.gstatic.com/mapfiles/place_api/icons/v1/png_71/generic_business-71.png", "name": "Europcar", "opening_hours": {"open_now": true}, "photos": [{"height": 960, "html_attributions": ["<a href=\"https://maps.google.com/maps/contrib/100331184592517220941\">Europcar</a>"], "photo_reference": "CmRaAAAAYvourzgcP9lO0ha0c9zQSjGcerW1Be4WdDpcnx3M7ku3ZidKj11hNPKimIMTjVkTa13UNlHc5SkOc195lPDljLv6jXZjgvGqqL0QvtM2TKUYissDi8wuaSOPYFlRvwiREhDUB0AqWz-JMSfMdZIVI2ZZGhRwU15gnMPVdevdESMn5mBClLfmNQ", "width": 1280}], "place_id": "ChIJXXU2dov70YURQT705mjVeaQ", "plus_code": {"compound_code": "CWRF+G9 Mexico City", "global_code": "76F2CWRF+G9"}, "rating": 3.7, "reference": "ChIJXXU2dov70YURQT705mjVeaQ", "types": ["car_rental", "point_of_interest", "establishment"], "user_ratings_total": 412}, {"business_status": "OPERATIONAL", "formatted_address": "Tepetlapa 2083, Coapa, Cafetales I, Coyoac\u00e1n, 04910 Ciudad de M\u00e9xico, CDMX", "geometry": {"location": {"lat": 19.3150965, "lng": -99.1075839}, "viewport": {"northeast": {"lat": 19.31655612989272, "lng": -99.10622407010729}, "southwest": {"lat": 19.31385647010728, "lng": -99.10892372989272}}}, "icon": "https://maps.gstatic.com/mapfiles/place_api/icons/v1/png_71/generic_business-71.png", "name": "Lili Charter", "place_id": "ChIJu_crmIwBzoURFk5TBSTRPRE", "plus_code": {"compound_code": "8V8R+2X Mexico City", "global_code": "76F28V8R+2X"}, "rating": 0, "reference": "ChIJu_crmIwBzoURFk5TBSTRPRE", "types": ["car_rental", "point_of_interest", "establishment"], "user_ratings_total": 0}, {"business_status": "OPERATIONAL", "formatted_address": "Calle Sinaloa #70 Col, Pe\u00f1\u00f3n de los Ba\u00f1os, Venustiano Carranza, 15520 Ciudad de M\u00e9xico", "geometry": {"location": {"lat": 19.4370515, "lng": -99.08277989999999}, "viewport": {"northeast": {"lat": 19.43839937989272, "lng": -99.08137632010727}, "southwest": {"lat": 19.43569972010728, "lng": -99.08407597989272}}}, "icon": "https://maps.gstatic.com/mapfiles/place_api/icons/v1/png_71/generic_business-71.png", "name": "AB Car Rental & Trucks", "opening_hours": {"open_now": false}, "photos": [{"height": 629, "html_attributions": ["<a href=\"https://maps.google.com/maps/contrib/111004169243549254816\">Renta de Autos Aeropuerto Mexico DF</a>"], "photo_reference": "CmRaAAAATxqR3IwjfrZ0-2-mi8CYGu8jG8JXAlFCyi_LvaKjdz2342v5XGCANLNzOylku6BN1vl3pMyR9Njgi3LmCfLlLdiSDTY_ZujXVl9beDPoh1ChFwYsmkf9mCnUQ5uCA2b2EhAiHI3rK4m2GjX4v6hGhVM9GhTf7VdpF2WxJuj2aKTrhI6vqHIFMg", "width": 1024}], "place_id": "ChIJtxgSkPX70YURSwENlKNDLAg", "plus_code": {"compound_code": "CWP8+RV Mexico City", "global_code": "76F2CWP8+RV"}, "rating": 4, "reference": "ChIJtxgSkPX70YURSwENlKNDLAg", "types": ["car_rental", "point_of_interest", "establishment"], "user_ratings_total": 30}, {"business_status": "OPERATIONAL", "formatted_address": "Av. Miguel Hidalgo 81, Sta Cruz Meyehualco, Iztapalapa, 09700 Ciudad de M\u00e9xico, CDMX", "geometry": {"location": {"lat": 19.3383506, "lng": -99.04581979999999}, "viewport": {"northeast": {"lat": 19.33970042989272, "lng": -99.04446997010726}, "southwest": {"lat": 19.33700077010728, "lng": -99.04716962989271}}}, "icon": "https://maps.gstatic.com/mapfiles/place_api/icons/v1/png_71/generic_business-71.png", "name": "Taller", "place_id": "ChIJrU1wOikDzoURIGCYFVv2sJ8", "plus_code": {"compound_code": "8XQ3+8M Mexico City", "global_code": "76F28XQ3+8M"}, "rating": 0, "reference": "ChIJrU1wOikDzoURIGCYFVv2sJ8", "types": ["car_rental", "point_of_interest", "establishment"], "user_ratings_total": 0}, {"business_status": "OPERATIONAL", "formatted_address": "Ote. 251 27, Agr\u00edcola Oriental, Iztacalco, 08500 Ciudad de M\u00e9xico, CDMX", "geometry": {"location": {"lat": 19.4004277, "lng": -99.065176}, "viewport": {"northeast": {"lat": 19.40176997989272, "lng": -99.06378992010727}, "southwest": {"lat": 19.39907032010728, "lng": -99.06648957989272}}}, "icon": "https://maps.gstatic.com/mapfiles/place_api/icons/v1/png_71/generic_business-71.png", "name": "Jeo Tours", "opening_hours": {"open_now": true}, "photos": [{"height": 540, "html_attributions": ["<a href=\"https://maps.google.com/maps/contrib/112792766696812675839\">A Google User</a>"], "photo_reference": "CmRaAAAAvnjhGkU5mZMkNzi3jLthduEdsJvwHF5zPDmsbyZuKFkGT5XY7mlS5durOsCoRyRdNLtA4zrhyXuD1Wb9ktZXXlDiUdPyRsWiTDsIsJJxMvhNQxoENpG2aWgswNBKHQ2JEhAYUNSy_z8ETV99oxm6Y6PhGhRE7A4A5SZznQqoDYtfvMa5fNS3Eg", "width": 540}], "place_id": "ChIJabRK8Tb80YURs38QwZU1zSM", "plus_code": {"compound_code": "CW2M+5W Mexico City", "global_code": "76F2CW2M+5W"}, "rating": 4.4, "reference": "ChIJabRK8Tb80YURs38QwZU1zSM", "types": ["car_rental", "point_of_interest", "establishment"], "user_ratings_total": 26}, {"business_status": "OPERATIONAL", "formatted_address": "Calle 27 116, Ignacio Zaragoza, Venustiano Carranza, 15000 Ciudad de M\u00e9xico, CDMX", "geometry": {"location": {"lat": 19.4132177, "lng": -99.09326469999999}, "viewport": {"northeast": {"lat": 19.41458607989272, "lng": -99.0919284201073}, "southwest": {"lat": 19.41188642010728, "lng": -99.09462807989273}}}, "icon": "https://maps.gstatic.com/mapfiles/place_api/icons/v1/png_71/generic_business-71.png", "name": "Renta de vans y camionetas con chofer | Mexivan", "place_id": "ChIJocBAI4H90YURamglKMawrnY", "plus_code": {"compound_code": "CW74+7M Mexico City", "global_code": "76F2CW74+7M"}, "rating": 0, "reference": "ChIJocBAI4H90YURamglKMawrnY", "types": ["car_rental", "point_of_interest", "establishment"], "user_ratings_total": 0}, {"business_status": "OPERATIONAL", "formatted_address": "Aeropuerto Internacional de, Avenida Fuerza A\u00e9rea Mexicana 520 Local-H Col. Federal Del, Venustiano Carranza, 15700 Ciudad de M\u00e9xico, CDMX", "geometry": {"location": {"lat": 19.4248677, "lng": -99.08942189999999}, "viewport": {"northeast": {"lat": 19.42625532989272, "lng": -99.08804722010727}, "southwest": {"lat": 19.42355567010728, "lng": -99.0907468798927}}}, "icon": "https://maps.gstatic.com/mapfiles/place_api/icons/v1/png_71/generic_business-71.png", "name": "Keddy Renta de Autos CDMX Aeropuerto", "opening_hours": {"open_now": true}, "photos": [{"height": 393, "html_attributions": ["<a href=\"https://maps.google.com/maps/contrib/108961781203955903899\">A Google User</a>"], "photo_reference": "CmRaAAAAdVqC-tv27-I_atV83CSbRBqpd7rNLiFZ_17_VCtkYiAqiXBawoPxul2xMkoVOgM0HMm4CkscChGxjXOIxsw1Qgpi9PcIue0qhz3q3IHtfgGOFv3ysCifLogSi5vIKzLBEhCjsEI9JhUYaL_HDsj1ypjtGhRC6nMUaOn3b769bwsdH18fijPqPA", "width": 700}], "place_id": "ChIJC4HpUqT90YUROEFd3vcOH0s", "plus_code": {"compound_code": "CWF6+W6 Mexico City", "global_code": "76F2CWF6+W6"}, "rating": 2.3, "reference": "ChIJC4HpUqT90YUROEFd3vcOH0s", "types": ["car_rental", "point_of_interest", "establishment"], "user_ratings_total": 12}, {"business_status": "OPERATIONAL", "formatted_address": "Medell\u00edn 350, Roma Sur, Cuauht\u00e9moc, 06760 Ciudad de M\u00e9xico, CDMX", "geometry": {"location": {"lat": 19.4041653, "lng": -99.16237249999999}, "viewport": {"northeast": {"lat": 19.40548032989273, "lng": -99.16117922010729}, "southwest": {"lat": 19.40278067010728, "lng": -99.16387887989272}}}, "icon": "https://maps.gstatic.com/mapfiles/place_api/icons/v1/png_71/generic_business-71.png", "name": "Renta de autos DF, alquiler de autom\u00f3vil, coches, renta de camionetas, M\u00e9xico DF.", "opening_hours": {"open_now": false}, "place_id": "ChIJG062IRT_0YURRsyZkG2agGM", "plus_code": {"compound_code": "CR3Q+M3 Mexico City", "global_code": "76F2CR3Q+M3"}, "rating": 2.4, "reference": "ChIJG062IRT_0YURRsyZkG2agGM", "types": ["car_rental", "point_of_interest", "establishment"], "user_ratings_total": 17}, {"business_status": "OPERATIONAL", "formatted_address": "Parroquia 1056, Sta Cruz Atoyac, Benito Ju\u00e1rez, 03310 Ciudad de M\u00e9xico, CDMX", "geometry": {"location": {"lat": 19.3679944, "lng": -99.16261039999999}, "viewport": {"northeast": {"lat": 19.36919287989272, "lng": -99.16129697010727}, "southwest": {"lat": 19.36649322010728, "lng": -99.16399662989271}}}, "icon": "https://maps.gstatic.com/mapfiles/place_api/icons/v1/png_71/generic_business-71.png", "name": "Enterprise Rent A Car", "opening_hours": {"open_now": false}, "photos": [{"height": 956, "html_attributions": ["<a href=\"https://maps.google.com/maps/contrib/108713962268295885751\">A Google User</a>"], "photo_reference": "CmRaAAAAD6_DQ8jaif1C09ZIyak8X4omyaWWJUTtlZ8PaqRqmm3Fz4ywowHryNpIDocpF4s14A6kNU5UraaD5Ol1zD6Z-mJt4Orpp6R3ohEepxRCPW5La2AW6tmzgrBGwby9LVCmEhA5poxwhRQO6zkOdIPoyBipGhS0Q2FWbuUIzu83D6bOn1ynT0VSPg", "width": 1280}], "place_id": "ChIJq6o6D7z_0YURcX-S4p6J1xE", "plus_code": {"compound_code": "9R9P+5X Mexico City", "global_code": "76F29R9P+5X"}, "rating": 1, "reference": "ChIJq6o6D7z_0YURcX-S4p6J1xE", "types": ["car_rental", "point_of_interest", "establishment"], "user_ratings_total": 3}, {"business_status": "OPERATIONAL", "formatted_address": "Enrique Farman #117, Aviaci\u00f3n Civil, Venustiano Carranza, 15740 Ciudad de M\u00e9xico, CDMX", "geometry": {"location": {"lat": 19.4147031, "lng": -99.0782974}, "viewport": {"northeast": {"lat": 19.41609427989273, "lng": -99.07701692010727}, "southwest": {"lat": 19.41339462010728, "lng": -99.07971657989272}}}, "icon": "https://maps.gstatic.com/mapfiles/place_api/icons/v1/png_71/generic_business-71.png", "name": "AV Group Tourist Travel Truck Rentals", "opening_hours": {"open_now": false}, "photos": [{"height": 960, "html_attributions": ["<a href=\"https://maps.google.com/maps/contrib/103080429787911057985\">AV GROUP TRAVEL</a>"], "photo_reference": "CmRaAAAAyYjkHlRlc8ar5_DYbRsTMIpDuQxlxKdqrYKedbmAODJkwDdoMuWzLOgXOXIFCdJifqmtMfZLI4o0KYdbCNGspFxRAAGnRtT1l2omodG6t3zv9fT9B1Sl85t439hvNAkUEhC_1WEzsiGTMlFdmgygGfdxGhS30XWU24heL4qgorzYyrGCSzenyA", "width": 689}], "place_id": "ChIJE7Fx8-X70YURGF1u8WYceyU", "plus_code": {"compound_code": "CW7C+VM Mexico City", "global_code": "76F2CW7C+VM"}, "rating": 4.2, "reference": "ChIJE7Fx8-X70YURGF1u8WYceyU", "types": ["car_rental", "travel_agency", "point_of_interest", "establishment"], "user_ratings_total": 6}, {"business_status": "OPERATIONAL", "formatted_address": "Cuenca 94, \u00c1lamos, Benito Ju\u00e1rez, 03400 Ciudad de M\u00e9xico, CDMX", "geometry": {"location": {"lat": 19.3925821, "lng": -99.1422254}, "viewport": {"northeast": {"lat": 19.39396302989272, "lng": -99.14087287010729}, "southwest": {"lat": 19.39126337010728, "lng": -99.14357252989274}}}, "icon": "https://maps.gstatic.com/mapfiles/place_api/icons/v1/png_71/generic_business-71.png", "name": "Budget", "place_id": "ChIJue56MPz-0YURhTmi6BqlP4Y", "plus_code": {"compound_code": "9VV5+24 Mexico City", "global_code": "76F29VV5+24"}, "rating": 0, "reference": "ChIJue56MPz-0YURhTmi6BqlP4Y", "types": ["car_rental", "point_of_interest", "establishment"], "user_ratings_total": 0}, {"business_status": "OPERATIONAL", "formatted_address": "Av. Capit\u00e1n Carlos Le\u00f3n s/n, Pe\u00f1\u00f3n de los Ba\u00f1os, Venustiano Carranza, 15520 Ciudad de M\u00e9xico, CDMX", "geometry": {"location": {"lat": 19.4216236, "lng": -99.078204}, "viewport": {"northeast": {"lat": 19.42294227989272, "lng": -99.07682012010727}, "southwest": {"lat": 19.42024262010728, "lng": -99.07951977989272}}}, "icon": "https://maps.gstatic.com/mapfiles/place_api/icons/v1/png_71/generic_business-71.png", "name": "Hertz", "opening_hours": {"open_now": true}, "photos": [{"height": 3024, "html_attributions": ["<a href=\"https://maps.google.com/maps/contrib/113038214337466556760\">Lalo Padilla</a>"], "photo_reference": "CmRaAAAAEcvVK4hPpkSXMjADdYxer8o5qqjK7-x1Sjd4ftpUeHqAi2IMYlCUuKjFasrZKC-Sfsq2qTtZFwRvxPDaA4tV4Hga8X_usAbAIcrJ8g3k4jGaXY46ZdrlHfpcy-sKXMHeEhADuODd5v4a2mYDQgdD_YKeGhRidJI7L2yuAh13rSmkx6xeVCei8Q", "width": 4032}], "place_id": "ChIJsZQJH2380YURsSe4v8O45Zk", "plus_code": {"compound_code": "CWCC+JP Mexico City", "global_code": "76F2CWCC+JP"}, "rating": 3.2, "reference": "ChIJsZQJH2380YURsSe4v8O45Zk", "types": ["car_rental", "point_of_interest", "establishment"], "user_ratings_total": 100}]