[{"business_status": "OPERATIONAL", "formatted_address": "Ermita Iztapalapa 1393, San Pablo, Iztapalapa, 09000 Ciudad de M\u00e9xico, CDMX", "geometry": {"location": {"lat": 19.3568592, "lng": -99.0878829}, "viewport": {"northeast": {"lat": 19.35844867989272, "lng": -99.08637977010727}, "southwest": {"lat": 19.35574902010728, "lng": -99.08907942989272}}}, "icon": "https://maps.gstatic.com/mapfiles/place_api/icons/v1/png_71/shopping-71.png", "name": "Delectric", "opening_hours": {"open_now": false}, "photos": [{"height": 3120, "html_attributions": ["<a href=\"https://maps.google.com/maps/contrib/110680879761507030388\">Juan Manuel Pita Moctezuma</a>"], "photo_reference": "CmRaAAAADBHsL1PKkqfXo4aagDVinVOY24ly1TcTX3tIYiHQiB3QuPNWtARVJuaY-JdKWhFnBOiaqhAi9_wcAJGwCIeOjE61ZMtLVeLAEevZXt_7th5Ic-cAnw7EYrFs4A0GJ9OgEhCSq1Mnrvjo0NACxesmGBzFGhTfb4SGD4V1IuF1Wkauee7glvfviw", "width": 4160}], "place_id": "ChIJX4vRHe_90YUROMHm6wWNyV0", "plus_code": {"compound_code": "9W46+PR Mexico City", "global_code": "76F29W46+PR"}, "rating": 4.2, "reference": "ChIJX4vRHe_90YUROMHm6wWNyV0", "types": ["electronics_store", "point_of_interest", "store", "establishment"], "user_ratings_total": 121}, {"business_status": "OPERATIONAL", "formatted_address": "Ermita Iztapalapa 1853, 2da Amp San Miguel, Iztapalapa, 09830 Ciudad de M\u00e9xico, CDMX", "geometry": {"location": {"lat": 19.3499094, "lng": -99.07482770000001}, "viewport": {"northeast": {"lat": 19.35166597989272, "lng": -99.07327287010729}, "southwest": {"lat": 19.34896632010727, "lng": -99.07597252989274}}}, "icon": "https://maps.gstatic.com/mapfiles/place_api/icons/v1/png_71/shopping-71.png", "name": "RadioShack", "opening_hours": {"open_now": true}, "photos": [{"height": 2340, "html_attributions": ["<a href=\"https://maps.google.com/maps/contrib/104987202215943596517\">Noe Redbandera Oficial</a>"], "photo_reference": "CmRaAAAAp4TFQCc0nNT6V0lQjcP2GHXwisu-aYawc3ax6Nh9BXPuuEWSXF02isepR0rke6aU5cwm5LSF9yub6eou3tV8TAdkoWA_3L8F1--CGLLtMgXBKHRZiFnA49VQ2Pj-GOf7EhA8CAthY3P7uF_Q7jZL625LGhRZddVfl3g7OGEOvJYCw5kStHbvIg", "width": 4160}], "place_id": "ChIJ4bdGso390YURZWVV36DKTEs", "plus_code": {"compound_code": "8WXG+X3 Mexico City", "global_code": "76F28WXG+X3"}, "price_level": 2, "rating": 4.1, "reference": "ChIJ4bdGso390YURZWVV36DKTEs", "types": ["electronics_store", "point_of_interest", "store", "establishment"], "user_ratings_total": 225}, {"business_status": "OPERATIONAL", "formatted_address": "5 de Mayo 76, San Ignacio, Iztapalapa, 09000 Ciudad de M\u00e9xico, CDMX", "geometry": {"location": {"lat": 19.3616223, "lng": -99.0956333}, "viewport": {"northeast": {"lat": 19.36301827989272, "lng": -99.09426892010727}, "southwest": {"lat": 19.36031862010728, "lng": -99.09696857989272}}}, "icon": "https://maps.gstatic.com/mapfiles/place_api/icons/v1/png_71/shopping-71.png", "name": "Electr\u00f3nica Guerrero", "opening_hours": {"open_now": false}, "photos": [{"height": 1600, "html_attributions": ["<a href=\"https://maps.google.com/maps/contrib/100256998439982125895\">A Google User</a>"], "photo_reference": "CmRaAAAA4op3ZIRreMmu89ms_XhPLsi9dK4z2HwjdUe7sywEwdoNLXIteU1y5r0wO7KakjUCqJysR0iVKQObPzK90PJvuysKeBhCsURYAeQv1M7zI-ULIwb0JQMi7wdDpYgsf5sXEhD6PO8lQhM2VFE6qYdx16vcGhS2mJC-rJ77YlH8kpkfbt8mS4tqdw", "width": 1200}], "place_id": "ChIJXQyQaNH90YURlXrW36w8bwU", "plus_code": {"compound_code": "9W63+JP Mexico City", "global_code": "76F29W63+JP"}, "rating": 0, "reference": "ChIJXQyQaNH90YURlXrW36w8bwU", "types": ["electronics_store", "point_of_interest", "store", "establishment"], "user_ratings_total": 0}, {"business_status": "OPERATIONAL", "formatted_address": "Av. Javier Rojo G\u00f3mez 5b, San Miguel, Iztapalapa, 09360 Ciudad de M\u00e9xico, CDMX", "geometry": {"location": {"lat": 19.3570192, "lng": -99.08615669999999}, "viewport": {"northeast": {"lat": 19.35839767989272, "lng": -99.08486527010727}, "southwest": {"lat": 19.35569802010728, "lng": -99.08756492989272}}}, "icon": "https://maps.gstatic.com/mapfiles/place_api/icons/v1/png_71/shopping-71.png", "name": "Hospital Celular Rojo G\u00f3mez", "opening_hours": {"open_now": true}, "photos": [{"height": 3120, "html_attributions": ["<a href=\"https://maps.google.com/maps/contrib/104574765529810744060\">crysthofer el indio</a>"], "photo_reference": "CmRaAAAAVdwQ9Nfqg40rbNsL_5_uNA-nuXvy4uz1bbas0wOK-cPTw1xSwEmrhoHY_LF050NgzCWqjlkfEM450WEQ_FRsNF4dtBcvRz9w1THbTOa3pzoNhNzCzxRE312WWBRPtpL-EhCNw41rvzBFjU7ZFr3vV4_5GhTWfa9s7bgR61AZeUpzF-sEkPzUrA", "width": 4160}], "place_id": "ChIJdyRaVCX90YURT8xAJrKPyRg", "plus_code": {"compound_code": "9W47+RG Mexico City", "global_code": "76F29W47+RG"}, "rating": 0, "reference": "ChIJdyRaVCX90YURT8xAJrKPyRg", "types": ["electronics_store", "point_of_interest", "store", "establishment"], "user_ratings_total": 0}, {"business_status": "OPERATIONAL", "formatted_address": "El Salvador #23 Local A, Centro, 06000 Ciudad de M\u00e9xico, CDMX", "geometry": {"location": {"lat": 19.4300876, "lng": -99.1401138}, "viewport": {"northeast": {"lat": 19.43146512989272, "lng": -99.13875587010727}, "southwest": {"lat": 19.42876547010728, "lng": -99.14145552989272}}}, "icon": "https://maps.gstatic.com/mapfiles/place_api/icons/v1/png_71/shopping-71.png", "name": "CDMX Electr\u00f3nica Centro", "opening_hours": {"open_now": false}, "photos": [{"height": 938, "html_attributions": ["<a href=\"https://maps.google.com/maps/contrib/100246622682014321766\">A Google User</a>"], "photo_reference": "CmRaAAAAMCfJ3V6umfdxN3fkcSo4z3Z8G8F0MlEDg8FSidpDib4XwOGzgnqHk96qwnES1wbDwmDzMCkmAAeneRGodxy3Deixt5NNDmw300EtXSama4NzPeAEol7lgO2akwm2i7xhEhDhCJUHtmUxq3riJxXGFtRNGhSzuInpadkxDNhLzqUWCRE-UzITZw", "width": 1250}], "place_id": "ChIJ9ZGdOiL_0YURXxyp2em7ib4", "plus_code": {"compound_code": "CVJ5+2X Mexico City", "global_code": "76F2CVJ5+2X"}, "rating": 4.8, "reference": "ChIJ9ZGdOiL_0YURXxyp2em7ib4", "types": ["electronics_store", "point_of_interest", "store", "establishment"], "user_ratings_total": 106}, {"business_status": "OPERATIONAL", "formatted_address": "San Pablo, Iztapalapa, 09000 Mexico City", "geometry": {"location": {"lat": 19.3566713, "lng": -99.0881892}, "viewport": {"northeast": {"lat": 19.35800312989272, "lng": -99.08683897010728}, "southwest": {"lat": 19.35530347010728, "lng": -99.08953862989273}}}, "icon": "https://maps.gstatic.com/mapfiles/place_api/icons/v1/png_71/shopping-71.png", "name": "Bodega pintura", "photos": [{"height": 4160, "html_attributions": ["<a href=\"https://maps.google.com/maps/contrib/109255194062826134450\">Saul Rodriguez</a>"], "photo_reference": "CmRaAAAA4ENblrNzycybcZtMoFrxAIEs6ZanSS-tsl-lthbJjsRXFK4qhNy2-jdC6PePE1bG-knP8jCphGYexZs2HJj7pG29C7DFO8RTfXqR5Cj6l85LksD4VBnU2FYPpDr0lxoKEhBXnqklwLVzVslS_icHvad6GhSn15MhP_DuuOCAYa9pdPpAIhrRYg", "width": 2336}], "place_id": "ChIJxy-CBe_90YURpLsPpeUGVto", "plus_code": {"compound_code": "9W46+MP Mexico City", "global_code": "76F29W46+MP"}, "rating": 0, "reference": "ChIJxy-CBe_90YURpLsPpeUGVto", "types": ["electronics_store", "point_of_interest", "store", "establishment"], "user_ratings_total": 0}, {"business_status": "OPERATIONAL", "formatted_address": "Ermita Iztapalapa 1328, Amp Ricardo Flores Mag\u00f3n, Iztapalapa, 09000 Ciudad de M\u00e9xico, CDMX", "geometry": {"location": {"lat": 19.3586616, "lng": -99.0890884}, "viewport": {"northeast": {"lat": 19.35990042989272, "lng": -99.08779057010729}, "southwest": {"lat": 19.35720077010728, "lng": -99.09049022989272}}}, "icon": "https://maps.gstatic.com/mapfiles/place_api/icons/v1/png_71/shopping-71.png", "name": "Mega Elektra Iztapalapa San Pablo", "opening_hours": {"open_now": true}, "photos": [{"height": 2096, "html_attributions": ["<a href=\"https://maps.google.com/maps/contrib/117356300501619480687\">Kerim Garci</a>"], "photo_reference": "CmRaAAAAZrrkmzVPeXPuEk_bPzce9zuY83_-lzgtKIyxVTdD3rsnPF5etOJqOJxWCEmS8Jfn2br8yNd8ND9IrudRPH2zFg8pULWUhw2egHY2oElzvZgaS1DlxV41EsHOQDrLrZKdEhCf19nIhPV8ODrjanAd146pGhRZrAoSuORHaaohd9hQdlBX5sD3YQ", "width": 3724}], "place_id": "ChIJGx5lTO_90YURaWe-HWxVoHM", "plus_code": {"compound_code": "9W56+F9 Mexico City", "global_code": "76F29W56+F9"}, "rating": 3.7, "reference": "ChIJGx5lTO_90YURaWe-HWxVoHM", "types": ["electronics_store", "furniture_store", "home_goods_store", "point_of_interest", "store", "establishment"], "user_ratings_total": 877}, {"business_status": "OPERATIONAL", "formatted_address": "Avenida Santa Ana, Culhuacan CTM V, Coyoac\u00e1n, 04480 Ciudad de M\u00e9xico, CDMX", "geometry": {"location": {"lat": 19.32864, "lng": -99.11412899999999}, "viewport": {"northeast": {"lat": 19.32997077989272, "lng": -99.11278117010728}, "southwest": {"lat": 19.32727112010728, "lng": -99.11548082989273}}}, "icon": "https://maps.gstatic.com/mapfiles/place_api/icons/v1/png_71/shopping-71.png", "name": "Omega Electronics", "opening_hours": {"open_now": false}, "photos": [{"height": 1899, "html_attributions": ["<a href=\"https://maps.google.com/maps/contrib/104706341966405225541\">Omega Electronics</a>"], "photo_reference": "CmRaAAAAvqFpp3Pc8Iu5DYanihIY0GMpnM_Ztiu__gWMslgPLCZaUcIGCckhRyR2TbQ3Z2JN-khl70XgI-NnbopRn9GgeSGhqqIB__9fxcWoWAjEVSkyHj_GO9Y22_g8Rv7gDlQdEhBFs1LZgcuZKDWt72h5NFN2GhSmkgZAdrTBe2M5-VP4c1bFI2lzBg", "width": 3306}], "place_id": "ChIJS0RaYeUBzoURcL9kJv8_His", "plus_code": {"compound_code": "8VHP+F8 Mexico City", "global_code": "76F28VHP+F8"}, "rating": 4.4, "reference": "ChIJS0RaYeUBzoURcL9kJv8_His", "types": ["electronics_store", "point_of_interest", "store", "establishment"], "user_ratings_total": 60}, {"business_status": "OPERATIONAL", "formatted_address": "Ermita Iztapalapa 2955, San Miguel, Iztapalapa, 09360 Ciudad de M\u00e9xico, CDMX", "geometry": {"location": {"lat": 19.3502113, "lng": -99.07159899999999}, "viewport": {"northeast": {"lat": 19.35148327989272, "lng": -99.07025982010727}, "southwest": {"lat": 19.34878362010727, "lng": -99.07295947989272}}}, "icon": "https://maps.gstatic.com/mapfiles/place_api/icons/v1/png_71/shopping-71.png", "name": "Compras TV Iztapalapa", "photos": [{"height": 3456, "html_attributions": ["<a href=\"https://maps.google.com/maps/contrib/106601951629316928851\">Raul Cortes</a>"], "photo_reference": "CmRaAAAAgPfx6KCO4pF6z3c9z1rUftTBqCEnVGbEK1ji0SNY1aPxMa0KMYRtCOjAlgKGi2wZRF7Dat2eULs8BmM_dZ-TIkKuRQ4JWz17jsBEa6bcjcdjpZdDaJyz6zvYq6TGBRTMEhByfdNHPAUAHuXI-jZXN2gsGhRaEj2cojbbWry0lMnp9MhsT0wIjA", "width": 4608}], "place_id": "ChIJjYJh74790YURKXUHsvbghsQ", "plus_code": {"compound_code": "9W2H+39 Mexico City", "global_code": "76F29W2H+39"}, "rating": 3.6, "reference": "ChIJjYJh74790YURKXUHsvbghsQ", "types": ["electronics_store", "point_of_interest", "store", "establishment"], "user_ratings_total": 14}, {"business_status": "OPERATIONAL", "formatted_address": "Velo de Novia 103, Los \u00c1ngeles, Iztapalapa, 09830 Ciudad de M\u00e9xico, CDMX", "geometry": {"location": {"lat": 19.344317, "lng": -99.06586039999999}, "viewport": {"northeast": {"lat": 19.34565977989272, "lng": -99.06448122010728}, "southwest": {"lat": 19.34296012010728, "lng": -99.06718087989273}}}, "icon": "https://maps.gstatic.com/mapfiles/place_api/icons/v1/png_71/shopping-71.png", "name": "INTERNET Y ELECTRONICA DANTE", "place_id": "ChIJj8aNo4f90YUR4sUIkICo77M", "plus_code": {"compound_code": "8WVM+PM Mexico City", "global_code": "76F28WVM+PM"}, "rating": 0, "reference": "ChIJj8aNo4f90YUR4sUIkICo77M", "types": ["electronics_store", "point_of_interest", "store", "establishment"], "user_ratings_total": 0}, {"business_status": "OPERATIONAL", "formatted_address": "Ermita Iztapalapa 385, El Santuario, Iztapalapa, 09820 Ciudad de M\u00e9xico, CDMX", "geometry": {"location": {"lat": 19.3562435, "lng": -99.0906995}, "viewport": {"northeast": {"lat": 19.35766282989272, "lng": -99.0893589701073}, "southwest": {"lat": 19.35496317010728, "lng": -99.09205862989273}}}, "icon": "https://maps.gstatic.com/mapfiles/place_api/icons/v1/png_71/shopping-71.png", "name": "Refrigeraci\u00f3n Comercial Lascares", "opening_hours": {"open_now": false}, "photos": [{"height": 2340, "html_attributions": ["<a href=\"https://maps.google.com/maps/contrib/107209882250019871555\">Rafael Reyes Calder\u00f3n</a>"], "photo_reference": "CmRaAAAAjAbsdgaHuvT6cpsY3FQzGtkL6B94iXuA8PVptrsN1qK2MhggxioJ7y_tgaOww4DnXHdvK78TIsZ5eHBb1e5Jy88pArhDUiZ3ptRWnPSVvg5lnlZv8FmcitMvOIEztgw5EhC7nAYNDjCWbF6nyez3GrnWGhS6qpuo7F1EoQK-PsOt6xqnufJHAQ", "width": 4160}], "place_id": "ChIJIS7Dg-X90YURubpkliImKFw", "plus_code": {"compound_code": "9W45+FP Mexico City", "global_code": "76F29W45+FP"}, "rating": 4.5, "reference": "ChIJIS7Dg-X90YURubpkliImKFw", "types": ["electronics_store", "home_goods_store", "point_of_interest", "store", "establishment"], "user_ratings_total": 4}, {"business_status": "OPERATIONAL", "formatted_address": "Eje 8 Sur, Santa Isabel Industrial, 09820 Iztapalapa, CDMX", "geometry": {"location": {"lat": 19.3560579, "lng": -99.10704869999999}, "viewport": {"northeast": {"lat": 19.35741192989272, "lng": -99.1057514201073}, "southwest": {"lat": 19.35471227010728, "lng": -99.10845107989273}}}, "icon": "https://maps.gstatic.com/mapfiles/place_api/icons/v1/png_71/shopping-71.png", "name": "Mitzu Ermita", "opening_hours": {"open_now": false}, "photos": [{"height": 4608, "html_attributions": ["<a href=\"https://maps.google.com/maps/contrib/101226785813533469313\">A Google User</a>"], "photo_reference": "CmRaAAAAZtYjnGFeH0WOFQDqs-dX8fETo-i8zeu34Dzf79DE_DnhTW5XAg9EjBF04CDvuSBaUpF0Llfziio9bjtX5bUxfBbdTxgj2j_Ys9QHdedpyR0WJh1rYDeaR3FZvZIKUhXiEhDXh5mPoUMyr57cvX-JJ2pkGhSrDwLdgdLrH0Ea5A0dImJVr0B5AA", "width": 3456}], "place_id": "ChIJZaepzQ7-0YUR9LB0f7LYI1s", "plus_code": {"compound_code": "9V4V+C5 Mexico City", "global_code": "76F29V4V+C5"}, "rating": 3.9, "reference": "ChIJZaepzQ7-0YUR9LB0f7LYI1s", "types": ["electronics_store", "point_of_interest", "store", "establishment"], "user_ratings_total": 148}, {"business_status": "OPERATIONAL", "formatted_address": "Cerrada Iturbide 12, San Lucas, Iztapalapa, 09000 Ciudad de M\u00e9xico, CDMX", "geometry": {"location": {"lat": 19.3614263, "lng": -99.09630240000001}, "viewport": {"northeast": {"lat": 19.36266982989272, "lng": -99.09501132010729}, "southwest": {"lat": 19.35997017010727, "lng": -99.09771097989274}}}, "icon": "https://maps.gstatic.com/mapfiles/place_api/icons/v1/png_71/shopping-71.png", "name": "Reparadoc", "opening_hours": {"open_now": true}, "place_id": "ChIJk4xIvuP90YUR94qDsOEJk3A", "plus_code": {"compound_code": "9W63+HF Mexico City", "global_code": "76F29W63+HF"}, "rating": 0, "reference": "ChIJk4xIvuP90YUR94qDsOEJk3A", "types": ["electronics_store", "point_of_interest", "store", "establishment"], "user_ratings_total": 0}, {"business_status": "OPERATIONAL", "formatted_address": "Canal de Apatlaco, Av. R\u00edo Churubusco 1635, \u00c1rea Federal Central de Abastos, Iztapalapa, 09040 CDMX", "geometry": {"location": {"lat": 19.3764898, "lng": -99.09515019999999}, "viewport": {"northeast": {"lat": 19.37782982989272, "lng": -99.09364732010727}, "southwest": {"lat": 19.37513017010728, "lng": -99.09634697989272}}}, "icon": "https://maps.gstatic.com/mapfiles/place_api/icons/v1/png_71/shopping-71.png", "name": "RadioShack", "opening_hours": {"open_now": true}, "photos": [{"height": 367, "html_attributions": ["<a href=\"https://maps.google.com/maps/contrib/103467831667089539472\">RadioShack</a>"], "photo_reference": "CmRaAAAAzLUoS4ZIOc_f18d_LfgETm4N6J3koBBirb0LQmST1vdXOOWY4V-yi6PcQHg5IK46dcivM5bgQ8RaAstM_2ZxgwcURD9EjrN5DU3xu0r2skMqitN2mQrOripHHTJzBUtREhBPEUL7zngNCqkfIxRxB2CJGhTCWskqZNpdKNgrrjd2uH8PLAYakA", "width": 489}], "place_id": "ChIJGV8uKE_50YURAMm4AfnOTx8", "plus_code": {"compound_code": "9WG3+HW \u00c1rea Federal Central de Abastos, Mexico City", "global_code": "76F29WG3+HW"}, "price_level": 2, "rating": 4.2, "reference": "ChIJGV8uKE_50YURAMm4AfnOTx8", "types": ["electronics_store", "point_of_interest", "store", "establishment"], "user_ratings_total": 114}, {"business_status": "OPERATIONAL", "formatted_address": "08000, Sur 145 2108, Bramadero Ramos Mill\u00e1n, Iztacalco, Ciudad de M\u00e9xico, CDMX", "geometry": {"location": {"lat": 19.3920186, "lng": -99.0978059}, "viewport": {"northeast": {"lat": 19.39336107989272, "lng": -99.09637662010729}, "southwest": {"lat": 19.39066142010728, "lng": -99.09907627989273}}}, "icon": "https://maps.gstatic.com/mapfiles/place_api/icons/v1/png_71/shopping-71.png", "name": "Electronica Sahrai", "opening_hours": {"open_now": true}, "photos": [{"height": 4160, "html_attributions": ["<a href=\"https://maps.google.com/maps/contrib/101679251696313242500\">tebo mijangos</a>"], "photo_reference": "CmRaAAAA2uWrVGDzKh3smnGU3sKys8YFyGMlfHuDKgSAakf3SoMbpPC16oxs8jCBJ8mKvUBqIcJ-ZcjoO0kPE6EqOMPSoMlDiCPsUQeFSl56lAJA9pKr6AR9D_rfxv1eRjNuz_T3EhDSRduG0LJuAvo5nPy7cGbPGhQZygS8ztkjQL3msQv0QYb59RsJoQ", "width": 3120}], "place_id": "ChIJmf0_uiv80YURqMwUamlLd_o", "plus_code": {"compound_code": "9WR2+RV Mexico City", "global_code": "76F29WR2+RV"}, "rating": 4.9, "reference": "ChIJmf0_uiv80YURqMwUamlLd_o", "types": ["electronics_store", "point_of_interest", "store", "establishment"], "user_ratings_total": 9}, {"business_status": "OPERATIONAL", "formatted_address": "Av. Michoac\u00e1n 52, Leyes de Reforma 2da Secc, Iztapalapa, Ciudad de M\u00e9xico, CDMX", "geometry": {"location": {"lat": 19.3654349, "lng": -99.0681754}, "viewport": {"northeast": {"lat": 19.36668012989272, "lng": -99.06684827010727}, "southwest": {"lat": 19.36398047010728, "lng": -99.06954792989272}}}, "icon": "https://maps.gstatic.com/mapfiles/place_api/icons/v1/png_71/shopping-71.png", "name": "Reparaciones Y Refacciones Alan", "opening_hours": {"open_now": false}, "photos": [{"height": 4608, "html_attributions": ["<a href=\"https://maps.google.com/maps/contrib/114436596529779356521\">A Google User</a>"], "photo_reference": "CmRaAAAAYB7sxG9d2QZzGiIR8t9yhl1vW1fFR5S7psNvy6iMnNElETh4xy-S1FB68dmr79Rc2cD7RwBQyJON5yAdpw9CmIJrgEZoAJvJ-pCQLWOxP9pYo6fYAegZQ2XtJoqdjh9wEhA1YFidMF1XBuW742qWUsbFGhT5lLCc278eSi4MiuN9QJLjjGU6fQ", "width": 3456}], "place_id": "ChIJZ1sE-Jf90YURIkFMMbv5BaQ", "plus_code": {"compound_code": "9W8J+5P Mexico City", "global_code": "76F29W8J+5P"}, "rating": 4.3, "reference": "ChIJZ1sE-Jf90YURIkFMMbv5BaQ", "types": ["electronics_store", "point_of_interest", "store", "establishment"], "user_ratings_total": 4}, {"business_status": "OPERATIONAL", "formatted_address": "R\u00edo Churubusco Central de Abasto No. 1635, Benito Ju\u00e1rez, 09040 Ciudad de M\u00e9xico", "geometry": {"location": {"lat": 19.371666, "lng": -99.0925355}, "viewport": {"northeast": {"lat": 19.37301582989272, "lng": -99.09118567010728}, "southwest": {"lat": 19.37031617010728, "lng": -99.09388532989271}}}, "icon": "https://maps.gstatic.com/mapfiles/place_api/icons/v1/png_71/shopping-71.png", "name": "CeX", "opening_hours": {"open_now": false}, "photos": [{"height": 1920, "html_attributions": ["<a href=\"https://maps.google.com/maps/contrib/106828542253368168686\">MOISES Mendoza</a>"], "photo_reference": "CmRaAAAAeduHLMm2oK1_QEsXVonG9l_gM5UsrFhJSQBBrU1xj_-WeR0bxrbLfLIFjwJlbsrfeMYQboe4_MBm1QncnWzD7QrRE05U_8QGbOFwYLRJt15NMpmiK1AP3w-UfTWgmc_AEhDJiKvJcytQW2xDFFfluVOgGhRXU3pmQbstCUzTjnRtlXN1PldJag", "width": 1080}], "place_id": "ChIJjX1CTdf90YUR6F2Hrd_sWco", "plus_code": {"compound_code": "9WC4+MX Mexico City", "global_code": "76F29WC4+MX"}, "price_level": 1, "rating": 3.9, "reference": "ChIJjX1CTdf90YUR6F2Hrd_sWco", "types": ["electronics_store", "movie_rental", "point_of_interest", "store", "establishment"], "user_ratings_total": 1078}, {"business_status": "OPERATIONAL", "formatted_address": "Calle San Mart\u00edn 9, Lomas el Manto, Iztapalapa, 09830 Ciudad de M\u00e9xico, CDMX", "geometry": {"location": {"lat": 19.351115, "lng": -99.0875773}, "viewport": {"northeast": {"lat": 19.35243897989272, "lng": -99.08623212010728}, "southwest": {"lat": 19.34973932010728, "lng": -99.08893177989272}}}, "icon": "https://maps.gstatic.com/mapfiles/place_api/icons/v1/png_71/shopping-71.png", "name": "Abraham Hojalatero", "place_id": "ChIJp7WYiLn90YURSVDDbHD8_k0", "plus_code": {"compound_code": "9W26+CX Mexico City", "global_code": "76F29W26+CX"}, "rating": 0, "reference": "ChIJp7WYiLn90YURSVDDbHD8_k0", "types": ["electronics_store", "point_of_interest", "store", "establishment"], "user_ratings_total": 0}, {"business_status": "OPERATIONAL", "formatted_address": "San Rafael Atlixco 2503, San Francisco Tlaltenco, 09020 Iztapalapa", "geometry": {"location": {"lat": 19.3856324, "lng": -99.07845499999999}, "viewport": {"northeast": {"lat": 19.38703257989272, "lng": -99.07706722010728}, "southwest": {"lat": 19.38433292010728, "lng": -99.07976687989273}}}, "icon": "https://maps.gstatic.com/mapfiles/place_api/icons/v1/png_71/shopping-71.png", "name": "Reparaciones Electronicas y Digitales S.A. de C.V.", "opening_hours": {"open_now": false}, "place_id": "ChIJzR5Um7X90YURrsKwGWfOVnI", "plus_code": {"compound_code": "9WPC+7J Mexico City", "global_code": "76F29WPC+7J"}, "rating": 3.2, "reference": "ChIJzR5Um7X90YURrsKwGWfOVnI", "types": ["electronics_store", "point_of_interest", "store", "establishment"], "user_ratings_total": 13}, {"business_status": "OPERATIONAL", "formatted_address": "Av. R\u00edo Churubusco 310, Granjas M\u00e9xico, Iztacalco, 08400 Ciudad de M\u00e9xico, CDMX", "geometry": {"location": {"lat": 19.3985511, "lng": -99.0981723}, "viewport": {"northeast": {"lat": 19.39990597989272, "lng": -99.09685177010728}, "southwest": {"lat": 19.39720632010728, "lng": -99.09955142989273}}}, "icon": "https://maps.gstatic.com/mapfiles/place_api/icons/v1/png_71/shopping-71.png", "name": "Toner MJ", "opening_hours": {"open_now": false}, "place_id": "ChIJg06CQRH90YUR5Zj6TpisDOk", "plus_code": {"compound_code": "9WX2+CP Mexico City", "global_code": "76F29WX2+CP"}, "rating": 0, "reference": "ChIJg06CQRH90YUR5Zj6TpisDOk", "types": ["electronics_store", "point_of_interest", "store", "establishment"], "user_ratings_total": 0}]