[{"business_status": "OPERATIONAL", "formatted_address": "09837, Ermita Iztapalapa 1551, 8va Amp San Miguel, Iztapalapa, Ciudad de M\u00e9xico, CDMX", "geometry": {"location": {"lat": 19.354264, "lng": -99.0831147}, "viewport": {"northeast": {"lat": 19.35578182989272, "lng": -99.08167912010728}, "southwest": {"lat": 19.35308217010728, "lng": -99.08437877989272}}}, "icon": "https://maps.gstatic.com/mapfiles/place_api/icons/v1/png_71/shopping-71.png", "name": "MUEBLE & HOGAR", "opening_hours": {"open_now": false}, "place_id": "ChIJaSjblO390YURSLGlGjCUvak", "plus_code": {"compound_code": "9W38+PQ Mexico City", "global_code": "76F29W38+PQ"}, "rating": 4.5, "reference": "ChIJaSjblO390YURSLGlGjCUvak", "types": ["home_goods_store", "point_of_interest", "store", "establishment"], "user_ratings_total": 2}, {"business_status": "OPERATIONAL", "formatted_address": "Esq. Texcoco, Coronel S. El\u00edas Gonz\u00e1lez 64, Iztapalapa, 09100 Ciudad de M\u00e9xico, CDMX", "geometry": {"location": {"lat": 19.398786, "lng": -99.0540528}, "viewport": {"northeast": {"lat": 19.40015962989272, "lng": -99.05269022010728}, "southwest": {"lat": 19.39745997010728, "lng": -99.05538987989273}}}, "icon": "https://maps.gstatic.com/mapfiles/place_api/icons/v1/png_71/shopping-71.png", "name": "Tienda de art\u00edculos para el hogar", "opening_hours": {"open_now": false}, "place_id": "ChIJdfizBvn80YURAalIMuKi6qA", "plus_code": {"compound_code": "9WXW+G9 Mexico City", "global_code": "76F29WXW+G9"}, "rating": 3, "reference": "ChIJdfizBvn80YURAalIMuKi6qA", "types": ["home_goods_store", "point_of_interest", "store", "establishment"], "user_ratings_total": 1}, {"business_status": "OPERATIONAL", "formatted_address": "Ermita Iztapalapa 762, Granjas San Antonio, Iztapalapa, 09070 Ciudad de M\u00e9xico, CDMX", "geometry": {"location": {"lat": 19.35658, "lng": -99.10811299999999}, "viewport": {"northeast": {"lat": 19.35782787989272, "lng": -99.10677607010729}, "southwest": {"lat": 19.35512822010728, "lng": -99.10947572989272}}}, "icon": "https://maps.gstatic.com/mapfiles/place_api/icons/v1/png_71/shopping-71.png", "name": "whatshome", "opening_hours": {"open_now": false}, "photos": [{"height": 4160, "html_attributions": ["<a href=\"https://maps.google.com/maps/contrib/101053748943745485317\">Brenda Torres</a>"], "photo_reference": "CmRaAAAAzE_xJ3zyCda0BbIaz9tr1muv7yZ_W8Yx26Xo5VJsbtwxkreX0-CCdoRpy2EKyzDk3CtV-KW4w6PyjHAUpgc3iy7F1wF5qQQrIjVnDt78obcccv_9YRSt5KfUQ0ahGIPAEhDue1bX2zrsOJV-Sh7z7nfNGhQHv1q57kr6M-TylASICm_wVGxhgw", "width": 2340}], "place_id": "ChIJkyOFwA7-0YURiw-rJ6Kqaqc", "plus_code": {"compound_code": "9V4R+JQ Mexico City", "global_code": "76F29V4R+JQ"}, "rating": 4.7, "reference": "ChIJkyOFwA7-0YURiw-rJ6Kqaqc", "types": ["home_goods_store", "point_of_interest", "store", "establishment"], "user_ratings_total": 59}, {"business_status": "OPERATIONAL", "formatted_address": "Av, Camino Real a San Lorenzo 42, El Manto, Iztapalapa, 09830 CDMX", "geometry": {"location": {"lat": 19.3544124, "lng": -99.0849803}, "viewport": {"northeast": {"lat": 19.35599202989272, "lng": -99.08348337010729}, "southwest": {"lat": 19.35329237010728, "lng": -99.08618302989272}}}, "icon": "https://maps.gstatic.com/mapfiles/place_api/icons/v1/png_71/shopping-71.png", "name": "Compa\u00f1\u00eda DiB de M\u00e9xico", "photos": [{"height": 2250, "html_attributions": ["<a href=\"https://maps.google.com/maps/contrib/113075107859397825709\">A Google User</a>"], "photo_reference": "CmRaAAAAl2igS0akW4x5wr63RsoV6HCYqbDW8NKxEKZQWwcSv-qZuUiqyNgdDkAM_X4Qh0_o9jTUjIuftp6gkVZylUnPEoVnx4X24YtA6SjOVDflCLIdUfXyYels2TcuDrv0nLQSEhBYQ2C16xphznFLOa6XTkZ4GhQTm8jolU19BG-WJ3SEJ52gYIRhVA", "width": 3000}], "place_id": "ChIJTw1dde790YURjyBItJOEPVU", "plus_code": {"compound_code": "9W38+Q2 El Manto, Mexico City", "global_code": "76F29W38+Q2"}, "rating": 4.6, "reference": "ChIJTw1dde790YURjyBItJOEPVU", "types": ["home_goods_store", "point_of_interest", "store", "establishment"], "user_ratings_total": 20}, {"business_status": "OPERATIONAL", "formatted_address": "Av Canal de Tezontle 1512, \u00c1rea Federal Central de Abastos, Iztapalapa, 09040 Ciudad de M\u00e9xico, CDMX", "geometry": {"location": {"lat": 19.3831995, "lng": -99.0831867}, "viewport": {"northeast": {"lat": 19.38445347989273, "lng": -99.08204182010726}, "southwest": {"lat": 19.38175382010728, "lng": -99.08474147989271}}}, "icon": "https://maps.gstatic.com/mapfiles/place_api/icons/v1/png_71/shopping-71.png", "name": "The Home Store", "opening_hours": {"open_now": true}, "photos": [{"height": 2268, "html_attributions": ["<a href=\"https://maps.google.com/maps/contrib/113532466503959516920\">Rub\u00e9n Miranda</a>"], "photo_reference": "CmRaAAAAurZ7A7z7ZbdqmJWAJiuGBcE9iV9xj40v9mqzqvkkmJmI1pz9IAPOWgHL4TaUbjtuG6CJJG3Cp5rAMDW1jimqBEgktXv5zzAAomgRV-nR1bM_7Q7_zUKdzcR5S7htNuIUEhCVdoO-mfFCEwifzbqDwRg7GhSYhKZMZsY3FD-N5TGqzl1Iv9q-ew", "width": 4032}], "place_id": "ChIJcZDCwsv90YURghBMxTsN1Fg", "plus_code": {"compound_code": "9WM8+7P Mexico City", "global_code": "76F29WM8+7P"}, "rating": 4.4, "reference": "ChIJcZDCwsv90YURghBMxTsN1Fg", "types": ["home_goods_store", "point_of_interest", "store", "establishment"], "user_ratings_total": 999}, {"business_status": "OPERATIONAL", "formatted_address": "Mercado Cabecera de Iztapalapa Local 19 entre Calle Ayuntamiento y, Cerrada Lerdo, San Pablo, 09000 Ciudad de M\u00e9xico, CDMX", "geometry": {"location": {"lat": 19.3606293, "lng": -99.0913138}, "viewport": {"northeast": {"lat": 19.36198637989272, "lng": -99.08999237010728}, "southwest": {"lat": 19.35928672010727, "lng": -99.09269202989273}}}, "icon": "https://maps.gstatic.com/mapfiles/place_api/icons/v1/png_71/shopping-71.png", "name": "Jarceria y Articulos de barro \"Don Agustin\"", "opening_hours": {"open_now": true}, "photos": [{"height": 3120, "html_attributions": ["<a href=\"https://maps.google.com/maps/contrib/110278901847584383571\">Harim Monta\u00f1o</a>"], "photo_reference": "CmRaAAAATxeYU17CgrIcD5vSvo77Ob6qlVtYS0iFK4Az5WG2AbSH3zOBsdZNbmRjCEl4BfSEMLx3EqyGLiw_Hpl4a8Z0V5GkTnWMUh9M0tn4ayy_p7qARpYD0FOemYWywnolGbK6EhDXbhGKVoKtPgIlZj3EzocXGhSB4Pr1McHumuN3xEF0DlTyxcvqbA", "width": 4160}], "place_id": "ChIJRQXUPeb90YURfMN7D8F5qao", "plus_code": {"compound_code": "9W65+7F Mexico City", "global_code": "76F29W65+7F"}, "rating": 5, "reference": "ChIJRQXUPeb90YURfMN7D8F5qao", "types": ["home_goods_store", "point_of_interest", "store", "establishment"], "user_ratings_total": 1}, {"business_status": "OPERATIONAL", "formatted_address": "San Francisco 3, El Santuario, Iztapalapa, 09836 Ciudad de M\u00e9xico, CDMX", "geometry": {"location": {"lat": 19.353743, "lng": -99.09237189999999}, "viewport": {"northeast": {"lat": 19.35509282989273, "lng": -99.09102207010727}, "southwest": {"lat": 19.35239317010728, "lng": -99.09372172989272}}}, "icon": "https://maps.gstatic.com/mapfiles/place_api/icons/v1/png_71/shopping-71.png", "name": "La fiestecilla de la limpieza", "opening_hours": {"open_now": false}, "photos": [{"height": 1836, "html_attributions": ["<a href=\"https://maps.google.com/maps/contrib/102793796258688296517\">humberto trejo cruz</a>"], "photo_reference": "CmRaAAAAYw17DgvkM5g7I_ZWr_zQWPGK1i30TAdAmbvx17cf-RGJWlJr4_-DXOvYwhe1hhmcZgE5IKrvy2vV8ggJj-RlP8YVPG5uzsC-lquVs8lBcKhWKRGp2QnducaSwGq51perEhDEAMFBsqzapeGdCyvdOtHnGhTdnp_gtnpB_A33V6ijcftgsAI-Nw", "width": 3264}], "place_id": "ChIJt406GOMDzoURK15YqD2vX5A", "plus_code": {"compound_code": "9W35+F3 Mexico City", "global_code": "76F29W35+F3"}, "rating": 4.5, "reference": "ChIJt406GOMDzoURK15YqD2vX5A", "types": ["home_goods_store", "point_of_interest", "store", "establishment"], "user_ratings_total": 2}, {"business_status": "OPERATIONAL", "formatted_address": "Av. Hidalgo # 128 Local L, Dentro de Plaza Hidalgo, San Pablo, 09000 Iztapalapa, CDMX", "geometry": {"location": {"lat": 19.359821, "lng": -99.09050599999999}, "viewport": {"northeast": {"lat": 19.36112527989272, "lng": -99.08917102010727}, "southwest": {"lat": 19.35842562010728, "lng": -99.09187067989272}}}, "icon": "https://maps.gstatic.com/mapfiles/place_api/icons/v1/png_71/shopping-71.png", "name": "Pl\u00e1sticos y Dulces \"Carry\"", "opening_hours": {"open_now": false}, "photos": [{"height": 1836, "html_attributions": ["<a href=\"https://maps.google.com/maps/contrib/106749126897685522445\">Pl\u00e1sticos y Dulces Mar\u00eda Del Carmen &quot;Carry&quot;</a>"], "photo_reference": "CmRaAAAACKNEzmUWALP86QlI8guZ-9FJku9Ffmxj3m42ErR4UVmWFrwI3oLLiQkgrSUwNhEOUNZWIqfFttGCKUMP7Ii3iYMu-hxYu86gadj3_cBtSV46sJjw0vkBiJNkX58cmKNiEhBMKzqJrIwb29TeUonsY6JWGhSOtKxkVfV7uz3vZMTsptG9LvTIEg", "width": 3264}], "place_id": "ChIJK3jvHOb90YURS0ruymrBmCE", "plus_code": {"compound_code": "9W55+WQ Mexico City", "global_code": "76F29W55+WQ"}, "rating": 5, "reference": "ChIJK3jvHOb90YURS0ruymrBmCE", "types": ["home_goods_store", "point_of_interest", "store", "establishment"], "user_ratings_total": 6}, {"business_status": "OPERATIONAL", "formatted_address": "Aldama 108, San Pablo, Iztapalapa, 09000 Ciudad de M\u00e9xico, CDMX", "geometry": {"location": {"lat": 19.358892, "lng": -99.0899615}, "viewport": {"northeast": {"lat": 19.36019902989272, "lng": -99.08862317010728}, "southwest": {"lat": 19.35749937010728, "lng": -99.09132282989272}}}, "icon": "https://maps.gstatic.com/mapfiles/place_api/icons/v1/png_71/shopping-71.png", "name": "Tupperware", "place_id": "ChIJp-ohBHb90YURMcziGqFBThw", "plus_code": {"compound_code": "9W56+H2 Mexico City", "global_code": "76F29W56+H2"}, "rating": 2, "reference": "ChIJp-ohBHb90YURMcziGqFBThw", "types": ["home_goods_store", "point_of_interest", "store", "establishment"], "user_ratings_total": 2}, {"business_status": "OPERATIONAL", "formatted_address": "09856, Oscar Loya 19, Amp Veracruzana, Iztapalapa, Ciudad de M\u00e9xico, CDMX", "geometry": {"location": {"lat": 19.3502876, "lng": -99.0900053}, "viewport": {"northeast": {"lat": 19.35161157989272, "lng": -99.08865617010728}, "southwest": {"lat": 19.34891192010727, "lng": -99.09135582989272}}}, "icon": "https://maps.gstatic.com/mapfiles/place_api/icons/v1/png_71/shopping-71.png", "name": "MISCELANEA IVAN", "opening_hours": {"open_now": true}, "place_id": "ChIJJ-FlfvD90YURrjlbNx91LAo", "plus_code": {"compound_code": "9W25+4X Mexico City", "global_code": "76F29W25+4X"}, "rating": 3.9, "reference": "ChIJJ-FlfvD90YURrjlbNx91LAo", "types": ["home_goods_store", "point_of_interest", "store", "establishment"], "user_ratings_total": 11}, {"business_status": "OPERATIONAL", "formatted_address": "Mercado Iztapalapa Local 23-24, San Pablo, Iztapalapa, 09000 Ciudad de M\u00e9xico", "geometry": {"location": {"lat": 19.3605236, "lng": -99.0913118}, "viewport": {"northeast": {"lat": 19.36188507989272, "lng": -99.09000737010727}, "southwest": {"lat": 19.35918542010728, "lng": -99.09270702989272}}}, "icon": "https://maps.gstatic.com/mapfiles/place_api/icons/v1/png_71/shopping-71.png", "name": "Jarcier\u00eda Yanet", "opening_hours": {"open_now": false}, "photos": [{"height": 4032, "html_attributions": ["<a href=\"https://maps.google.com/maps/contrib/108066775386258575153\">A Google User</a>"], "photo_reference": "CmRaAAAA-WQnWgWjLJE3sZrXs5sDzTO3VAFz8KGSDkNelf5-QEXV0eZSOnPH0jvorf04RErYLbKBk_lit3CIr05cDRpyg3YO4m1eqney2yG_sagHIV1EGgDslLPwxRoj0CDkrPI6EhD19Xf4OPQ5fzHYk7cE20eiGhTvglx4rlI9QdMOy91gAAQJsADIeQ", "width": 3024}], "place_id": "ChIJ56pGSRP90YURvtr6KoX-pqs", "plus_code": {"compound_code": "9W65+6F Mexico City", "global_code": "76F29W65+6F"}, "rating": 5, "reference": "ChIJ56pGSRP90YURvtr6KoX-pqs", "types": ["home_goods_store", "point_of_interest", "store", "establishment"], "user_ratings_total": 1}, {"business_status": "OPERATIONAL", "formatted_address": "CALLE DE MICHOACAN No. 20 MODULO 14, CENTRO COMERCIAL PRICE SHOES IZTAPALAPA RENOVACION PARQUE, Complejo Industrial Tecnol\u00f3gico, Iztapalapa, 09220 CDMX", "geometry": {"location": {"lat": 19.353409, "lng": -99.0797631}, "viewport": {"northeast": {"lat": 19.35470292989272, "lng": -99.07844187010728}, "southwest": {"lat": 19.35200327010728, "lng": -99.08114152989273}}}, "icon": "https://maps.gstatic.com/mapfiles/place_api/icons/v1/png_71/shopping-71.png", "name": "INTIMA HOGAR", "opening_hours": {"open_now": false}, "photos": [{"height": 3120, "html_attributions": ["<a href=\"https://maps.google.com/maps/contrib/117238907925946526386\">maria teresa Floresreyes</a>"], "photo_reference": "CmRaAAAAsOUIQztwut5aOUsIpOzn3xJMVGaaR0DNU0kUHuO7C2Yw_wMdn9jbkf6-Eo4ngPmtFweAVo9LAr3E3NjdXJMpIfEfHYotn9UXgKMBGhenVVQ5kc6HxPI8Gkl7kpoDo-DAEhD4PhsmF5NiApMUiMYvnWAWGhROc4VVCO-f1Lbv4DsmM5YGsdqwmw", "width": 4160}], "place_id": "ChIJySX_qPL90YURANLU8c917AQ", "plus_code": {"compound_code": "9W3C+93 Complejo Industrial Tecnol\u00f3gico, Mexico City", "global_code": "76F29W3C+93"}, "rating": 4.5, "reference": "ChIJySX_qPL90YURANLU8c917AQ", "types": ["home_goods_store", "point_of_interest", "clothing_store", "store", "establishment"], "user_ratings_total": 2}, {"business_status": "OPERATIONAL", "formatted_address": "Barranca, Plan de Iguala, Iztapalapa, 09838 Ciudad de M\u00e9xico, CDMX", "geometry": {"location": {"lat": 19.3518482, "lng": -99.0855428}, "viewport": {"northeast": {"lat": 19.35319802989272, "lng": -99.08419297010727}, "southwest": {"lat": 19.35049837010727, "lng": -99.08689262989272}}}, "icon": "https://maps.gstatic.com/mapfiles/place_api/icons/v1/png_71/shopping-71.png", "name": "vi", "place_id": "ChIJpehL3rD90YUR_aInuS27luM", "plus_code": {"compound_code": "9W27+PQ Mexico City", "global_code": "76F29W27+PQ"}, "rating": 0, "reference": "ChIJpehL3rD90YUR_aInuS27luM", "types": ["home_goods_store", "point_of_interest", "store", "establishment"], "user_ratings_total": 0}, {"business_status": "OPERATIONAL", "formatted_address": "CALLEJON SEGUNDO CAPILLA DE COL, 2a Cerrada de San Juan 10, Ricardo Flores Mag\u00f3n, Iztapalapa, 09820 Ciudad de M\u00e9xico, CDMX", "geometry": {"location": {"lat": 19.355007, "lng": -99.09796890000001}, "viewport": {"northeast": {"lat": 19.35632222989272, "lng": -99.09655382010729}, "southwest": {"lat": 19.35362257010728, "lng": -99.09925347989272}}}, "icon": "https://maps.gstatic.com/mapfiles/place_api/icons/v1/png_71/shopping-71.png", "name": "REJILLAS Y ALAMBRES PULIDOS SA DE CV", "place_id": "ChIJ1QZrBeP90YUR_6SmMBj6ka0", "plus_code": {"compound_code": "9W42+2R Mexico City", "global_code": "76F29W42+2R"}, "rating": 4.3, "reference": "ChIJ1QZrBeP90YUR_6SmMBj6ka0", "types": ["home_goods_store", "point_of_interest", "store", "establishment"], "user_ratings_total": 9}, {"business_status": "OPERATIONAL", "formatted_address": "Libertad, San Sim\u00f3n, Benito Ju\u00e1rez, 03660 Ciudad de M\u00e9xico, CDMX", "geometry": {"location": {"lat": 19.3722859, "lng": -99.14319619999999}, "viewport": {"northeast": {"lat": 19.37370857989272, "lng": -99.14183347010727}, "southwest": {"lat": 19.37100892010727, "lng": -99.14453312989272}}}, "icon": "https://maps.gstatic.com/mapfiles/place_api/icons/v1/png_71/shopping-71.png", "name": "Articulos para hogar y jarcieria local 110", "opening_hours": {"open_now": false}, "photos": [{"height": 1960, "html_attributions": ["<a href=\"https://maps.google.com/maps/contrib/104622068511202789573\">Carlos Hernandez</a>"], "photo_reference": "CmRaAAAANGP8iB8-DHfuRn0V7qdVy22T2Sx7ou19MSQW5BPnSdXxifKrpFmnh6cGbsVxvN6pZeezrI4AraFvbXWGd5lyR0uu4YzRA4Giln9_CC3c1q_4KCc4iMVuyzuutNt6eiqKEhAdApCL59PXbfxiE_siAqmTGhS0W_Lp4yJl6RdR25Cldkb1IbhF6g", "width": 4032}], "place_id": "ChIJWXoFTvb_0YUR2aULMOxLPVg", "plus_code": {"compound_code": "9VC4+WP Mexico City", "global_code": "76F29VC4+WP"}, "rating": 0, "reference": "ChIJWXoFTvb_0YUR2aULMOxLPVg", "types": ["home_goods_store", "point_of_interest", "store", "establishment"], "user_ratings_total": 0}, {"business_status": "OPERATIONAL", "formatted_address": "Capilla del Carmen 31, El Santuario, Iztapalapa, 09820 Ciudad de M\u00e9xico, CDMX", "geometry": {"location": {"lat": 19.354088, "lng": -99.094447}, "viewport": {"northeast": {"lat": 19.35543592989272, "lng": -99.09309642010727}, "southwest": {"lat": 19.35273627010728, "lng": -99.09579607989272}}}, "icon": "https://maps.gstatic.com/mapfiles/place_api/icons/v1/png_71/shopping-71.png", "name": "Quantum IT & Furnitures", "photos": [{"height": 1836, "html_attributions": ["<a href=\"https://maps.google.com/maps/contrib/110507996501409451044\">Josue Cervantes</a>"], "photo_reference": "CmRaAAAACaNCyR7WDfNasnJRRgd3ugSLzhc0owwyoJl-a7ItwA94oLxBHnbq_z3-KT0jiLAam-DoDr0GAMBCBsP3H6o3q_2M-w_3VUYDSZlZis33TydPKFHCej2ml6vod0EwJYgiEhAaVrOhQZiuiBhur4D0ARX6GhTHnaT9hH8SBllSfS70b_RAmFH3lw", "width": 3264}], "place_id": "ChIJxadRfZj90YURkUjw8EePSo8", "plus_code": {"compound_code": "9W34+J6 Mexico City", "global_code": "76F29W34+J6"}, "rating": 5, "reference": "ChIJxadRfZj90YURkUjw8EePSo8", "types": ["home_goods_store", "point_of_interest", "store", "establishment"], "user_ratings_total": 1}, {"business_status": "OPERATIONAL", "formatted_address": "Ayuntamiento No. 18 O, Iztapalapa, 09000 Ciudad de M\u00e9xico", "geometry": {"location": {"lat": 19.3588846, "lng": -99.09176029999999}, "viewport": {"northeast": {"lat": 19.36024862989272, "lng": -99.09046562010728}, "southwest": {"lat": 19.35754897010727, "lng": -99.09316527989272}}}, "icon": "https://maps.gstatic.com/mapfiles/place_api/icons/v1/png_71/shopping-71.png", "name": "Almacenes Anfora", "place_id": "ChIJ1Z-Gdeb90YURRBFgkBkukdo", "plus_code": {"compound_code": "9W55+H7 Mexico City", "global_code": "76F29W55+H7"}, "rating": 4, "reference": "ChIJ1Z-Gdeb90YURRBFgkBkukdo", "types": ["home_goods_store", "point_of_interest", "store", "establishment"], "user_ratings_total": 1}, {"business_status": "OPERATIONAL", "formatted_address": "Ermita Iztapalapa 1551E, 8va Amp San Miguel, Iztapalapa, 09837 Ciudad de M\u00e9xico, CDMX", "geometry": {"location": {"lat": 19.3546854, "lng": -99.08346929999999}, "viewport": {"northeast": {"lat": 19.35609757989272, "lng": -99.08208767010727}, "southwest": {"lat": 19.35339792010727, "lng": -99.08478732989272}}}, "icon": "https://maps.gstatic.com/mapfiles/place_api/icons/v1/png_71/shopping-71.png", "name": "SecTec", "opening_hours": {"open_now": false}, "photos": [{"height": 2448, "html_attributions": ["<a href=\"https://maps.google.com/maps/contrib/100766813613988829402\">sandra pi\u00f1a</a>"], "photo_reference": "CmRaAAAAmyDdnvObp1wxVViK1StVEsCTWerT1nUAOL8LT-lbD1slSR1DRDmJpY39g2lfuAlm5hVxuoUtop3T1PfUDRpfj30qXqdD3koQOX1Khod_KybByxJ5uC2wxjqy764G-WilEhB9sUnWSPMMwn6e-Y9RE3WhGhSjAX970-hUEnLyWP2TL2KephyICg", "width": 3264}], "place_id": "ChIJGa8y6-390YURQmfWT27wOCw", "plus_code": {"compound_code": "9W38+VJ Mexico City", "global_code": "76F29W38+VJ"}, "rating": 4.7, "reference": "ChIJGa8y6-390YURQmfWT27wOCw", "types": ["home_goods_store", "point_of_interest", "store", "establishment"], "user_ratings_total": 12}, {"business_status": "OPERATIONAL", "formatted_address": "Calle San Pablo 7, El Santuario, Iztapalapa, 09836 Ciudad de M\u00e9xico, CDMX", "geometry": {"location": {"lat": 19.3550708, "lng": -99.0937805}, "viewport": {"northeast": {"lat": 19.35641312989272, "lng": -99.09245467010727}, "southwest": {"lat": 19.35371347010727, "lng": -99.09515432989272}}}, "icon": "https://maps.gstatic.com/mapfiles/place_api/icons/v1/png_71/shopping-71.png", "name": "Comercializadora Y Ferretera Shuma Sa De Cv", "opening_hours": {"open_now": false}, "place_id": "ChIJyxG-7-T90YURDhlq4JMwlws", "plus_code": {"compound_code": "9W44+2F Mexico City", "global_code": "76F29W44+2F"}, "rating": 4.6, "reference": "ChIJyxG-7-T90YURDhlq4JMwlws", "types": ["home_goods_store", "point_of_interest", "store", "establishment"], "user_ratings_total": 16}, {"business_status": "OPERATIONAL", "formatted_address": "Artemio Alpizar Ruz 322, San Miguel, Iztapalapa, 09360 Ciudad de M\u00e9xico, CDMX", "geometry": {"location": {"lat": 19.3574025, "lng": -99.0817018}, "viewport": {"northeast": {"lat": 19.35875232989272, "lng": -99.08035197010727}, "southwest": {"lat": 19.35605267010728, "lng": -99.08305162989272}}}, "icon": "https://maps.gstatic.com/mapfiles/place_api/icons/v1/png_71/shopping-71.png", "name": "Limpieza Facil", "opening_hours": {"open_now": false}, "photos": [{"height": 809, "html_attributions": ["<a href=\"https://maps.google.com/maps/contrib/100240286821906056584\">A Google User</a>"], "photo_reference": "CmRaAAAAbB8Y30WdtSCn11_Nd5znXlh5UUY2GtNSTIE3jFVComtxFAim7q1O6-3EZCO4Uzv0-hhfoUeiHop8lCAUh4DTcEOF_ADnC34KEEOzUKHqJewz61hpiy1h_wCi0k8hk70XEhAdnuRizseXxbtPulS9218-GhQXuHTVr-6cyeq_HxORA7ef1Dt9Og", "width": 1440}], "place_id": "ChIJj0E8Jcn90YURM0AbUaqX5ro", "plus_code": {"compound_code": "9W49+X8 Mexico City", "global_code": "76F29W49+X8"}, "rating": 4.9, "reference": "ChIJj0E8Jcn90YURM0AbUaqX5ro", "types": ["home_goods_store", "point_of_interest", "store", "establishment"], "user_ratings_total": 29}]