[{"business_status": "OPERATIONAL", "formatted_address": "San Pablo, 09000 Mexico City, CDMX", "geometry": {"location": {"lat": 19.3576762, "lng": -99.0882498}, "viewport": {"northeast": {"lat": 19.35907107989272, "lng": -99.08686397010729}, "southwest": {"lat": 19.35637142010728, "lng": -99.08956362989274}}}, "icon": "https://maps.gstatic.com/mapfiles/place_api/icons/v1/png_71/shopping-71.png", "name": "Truper", "place_id": "ChIJI_JIPe_90YURu0xBxCOGqjo", "plus_code": {"compound_code": "9W56+3P Mexico City", "global_code": "76F29W56+3P"}, "rating": 4.8, "reference": "ChIJI_JIPe_90YURu0xBxCOGqjo", "types": ["hardware_store", "point_of_interest", "store", "establishment"], "user_ratings_total": 4}, {"business_status": "OPERATIONAL", "formatted_address": "Ermita Iztapalapa 1361, San Pablo, Iztapalapa, 09000 Ciudad de M\u00e9xico, CDMX", "geometry": {"location": {"lat": 19.357646, "lng": -99.08827199999999}, "viewport": {"northeast": {"lat": 19.35905552989272, "lng": -99.08687447010728}, "southwest": {"lat": 19.35635587010728, "lng": -99.08957412989272}}}, "icon": "https://maps.gstatic.com/mapfiles/place_api/icons/v1/png_71/shopping-71.png", "name": "Barnices, Herrajes y Ferreter\u00eda Luna", "opening_hours": {"open_now": false}, "photos": [{"height": 568, "html_attributions": ["<a href=\"https://maps.google.com/maps/contrib/101058206873447510296\">EDGAR MANUEL LUNA BASTIDA</a>"], "photo_reference": "CmRaAAAAy1LFfClTMwMWE6oI-VzQfk3xaL9Iu3073nrMA_7R_BiJ6UKXa_KQSi9wJ2qxAqcVzOli62Fig8LkoGcA_c4MuPETMVpIrw84CHdvFv6qL3j4rO9d3jP3fYtdW0-NvEbSEhB8d3IZSLxn9176CVtcYtLyGhSZFkp8dZGaNsTbAD-rMso25TQCLg", "width": 1152}], "place_id": "ChIJ1cdEPe_90YURhWQ4XYpcHrk", "plus_code": {"compound_code": "9W56+3M Mexico City", "global_code": "76F29W56+3M"}, "rating": 3.9, "reference": "ChIJ1cdEPe_90YURhWQ4XYpcHrk", "types": ["hardware_store", "point_of_interest", "store", "establishment"], "user_ratings_total": 15}, {"business_status": "OPERATIONAL", "formatted_address": "Juan Alvarez 208, San Miguel, Iztapalapa, 09360 Ciudad de M\u00e9xico, CDMX", "geometry": {"location": {"lat": 19.356386, "lng": -99.080618}, "viewport": {"northeast": {"lat": 19.35761817989273, "lng": -99.07927762010729}, "southwest": {"lat": 19.35491852010728, "lng": -99.08197727989273}}}, "icon": "https://maps.gstatic.com/mapfiles/place_api/icons/v1/png_71/shopping-71.png", "name": "Mi Ferre", "opening_hours": {"open_now": false}, "photos": [{"height": 1080, "html_attributions": ["<a href=\"https://maps.google.com/maps/contrib/114960709014693034636\">Carlos santamaria martinez</a>"], "photo_reference": "CmRaAAAA-3QlMhte9cqr7UTzYbmQAo8kc0FN0YjctgYVVkcdKeUgTXc-MrKQ7pKNbnwGAYd8HUo4NxWT1Y3ezZqNHUMsZSsEUAZsR9_SBklGbS2zDiU1igtDzlR4ApqhYkWfqfdJEhDAYo2_asz3jeQGSOdW94_kGhRBhCTmCJEFmSNnjzwBNPxtwv6a8A", "width": 1920}], "place_id": "ChIJ9wKoE-390YURzzG6cssrrkM", "plus_code": {"compound_code": "9W49+HQ Mexico City", "global_code": "76F29W49+HQ"}, "rating": 4.4, "reference": "ChIJ9wKoE-390YURzzG6cssrrkM", "types": ["hardware_store", "point_of_interest", "store", "establishment"], "user_ratings_total": 30}, {"business_status": "OPERATIONAL", "formatted_address": "Ermita Iztapalapa 83, San Lucas, Iztapalapa, 09000 Ciudad de M\u00e9xico, CDMX", "geometry": {"location": {"lat": 19.3575291, "lng": -99.0941479}, "viewport": {"northeast": {"lat": 19.35892442989272, "lng": -99.09281257010727}, "southwest": {"lat": 19.35622477010728, "lng": -99.09551222989272}}}, "icon": "https://maps.gstatic.com/mapfiles/place_api/icons/v1/png_71/shopping-71.png", "name": "FERRETERIA SERRANO", "opening_hours": {"open_now": false}, "place_id": "ChIJ3_7APuT90YURxKQ-tIHZ0RE", "plus_code": {"compound_code": "9W54+28 Mexico City", "global_code": "76F29W54+28"}, "rating": 0, "reference": "ChIJ3_7APuT90YURxKQ-tIHZ0RE", "types": ["hardware_store", "point_of_interest", "store", "establishment"], "user_ratings_total": 0}, {"business_status": "OPERATIONAL", "formatted_address": "Ermita Iztapalapa #1018, San Lucas, Iztapalapa, 09000 Ciudad de M\u00e9xico, CDMX", "geometry": {"location": {"lat": 19.3565638, "lng": -99.09901339999999}, "viewport": {"northeast": {"lat": 19.35783262989272, "lng": -99.09765027010727}, "southwest": {"lat": 19.35513297010728, "lng": -99.10034992989272}}}, "icon": "https://maps.gstatic.com/mapfiles/place_api/icons/v1/png_71/shopping-71.png", "name": "Fix Ferreteria", "opening_hours": {"open_now": false}, "photos": [{"height": 4608, "html_attributions": ["<a href=\"https://maps.google.com/maps/contrib/105143792918166207379\">German Mora</a>"], "photo_reference": "CmRaAAAAu83OHKvrdB-Dee0P6DZ6LkJ9qHYT1kV7TqBSQQ_-xDaaXPGo0oRcT-Ls64m75vMaposQe2b_RgsiY8_D13R-qAqDicgUG2kYY19tNwvM91q2Iq_KTHnhxaknAM_lsKE3EhCUFfZGaYf9wjcsk5yoorGCGhQBzPAmNwRrp1WZGCXL51RjA0VxoQ", "width": 3456}], "place_id": "ChIJNddvTuL90YURMD4Z60DNGNc", "plus_code": {"compound_code": "9W42+J9 Mexico City", "global_code": "76F29W42+J9"}, "rating": 4.2, "reference": "ChIJNddvTuL90YURMD4Z60DNGNc", "types": ["hardware_store", "point_of_interest", "store", "establishment"], "user_ratings_total": 328}, {"business_status": "OPERATIONAL", "formatted_address": "Esquina Vista Hermosa, Av Estrella, Amp el Santuario, 09820 Ciudad de M\u00e9xico, CDMX", "geometry": {"location": {"lat": 19.3507532, "lng": -99.0957981}, "viewport": {"northeast": {"lat": 19.35211927989273, "lng": -99.09443577010727}, "southwest": {"lat": 19.34941962010728, "lng": -99.09713542989272}}}, "icon": "https://maps.gstatic.com/mapfiles/place_api/icons/v1/png_71/shopping-71.png", "name": "TLAPALERIA Y FERRETERIA ESTRELLA", "opening_hours": {"open_now": false}, "place_id": "ChIJO5-HYvv90YURCfxQ2JswHbA", "plus_code": {"compound_code": "9W23+8M Mexico City", "global_code": "76F29W23+8M"}, "rating": 3.3, "reference": "ChIJO5-HYvv90YURCfxQ2JswHbA", "types": ["hardware_store", "point_of_interest", "store", "establishment"], "user_ratings_total": 4}, {"business_status": "OPERATIONAL", "formatted_address": "Libertad 110, San Lucas, Iztapalapa, 09000 Ciudad de M\u00e9xico, CDMX", "geometry": {"location": {"lat": 19.3582914, "lng": -99.0972704}, "viewport": {"northeast": {"lat": 19.35963787989272, "lng": -99.09590582010728}, "southwest": {"lat": 19.35693822010728, "lng": -99.09860547989273}}}, "icon": "https://maps.gstatic.com/mapfiles/place_api/icons/v1/png_71/shopping-71.png", "name": "7 DE SEPTIEMBRE FERRETERIA", "place_id": "ChIJv8EN3uP90YURd5hVYJEwTic", "plus_code": {"compound_code": "9W53+83 Mexico City", "global_code": "76F29W53+83"}, "rating": 3, "reference": "ChIJv8EN3uP90YURd5hVYJEwTic", "types": ["hardware_store", "point_of_interest", "store", "establishment"], "user_ratings_total": 1}, {"business_status": "OPERATIONAL", "formatted_address": "Pachicalco 24, San Ignacio, Iztapalapa, 09000 Ciudad de M\u00e9xico, CDMX", "geometry": {"location": {"lat": 19.3625998, "lng": -99.0952836}, "viewport": {"northeast": {"lat": 19.36394962989272, "lng": -99.09393142010727}, "southwest": {"lat": 19.36124997010728, "lng": -99.09663107989272}}}, "icon": "https://maps.gstatic.com/mapfiles/place_api/icons/v1/png_71/shopping-71.png", "name": "TLAPALERIA Y FERRETERIA", "opening_hours": {"open_now": false}, "place_id": "ChIJt1j4MOf90YURJZnNXHsyjCs", "plus_code": {"compound_code": "9W73+2V Mexico City", "global_code": "76F29W73+2V"}, "rating": 5, "reference": "ChIJt1j4MOf90YURJZnNXHsyjCs", "types": ["hardware_store", "point_of_interest", "store", "establishment"], "user_ratings_total": 2}, {"business_status": "OPERATIONAL", "formatted_address": "Eje 6 Sur No.79, San Ignacio, Iztapalapa, 09000 Ciudad de M\u00e9xico, CDMX", "geometry": {"location": {"lat": 19.3670621, "lng": -99.0965698}, "viewport": {"northeast": {"lat": 19.36846867989272, "lng": -99.09520502010727}, "southwest": {"lat": 19.36576902010728, "lng": -99.09790467989272}}}, "icon": "https://maps.gstatic.com/mapfiles/place_api/icons/v1/png_71/shopping-71.png", "name": "FERRETERIA \"EL CESAR\"", "opening_hours": {"open_now": false}, "photos": [{"height": 1536, "html_attributions": ["<a href=\"https://maps.google.com/maps/contrib/100091020206518425447\">Ferreteria &quot;El Cesar&quot;</a>"], "photo_reference": "CmRaAAAA83xjVUVZpdD8wW0DhewCamKp-7K4XYbJFTB2JtITOlXk3f2zk9VA5LqbgZpMsng_yu42HRnbhch5sqMnz5ScK5ZCDqZA_mZhjHxEWzjbGFiPUTFI7AQ48tADtd3tz88LEhDO-6JDsRiojf24TMMT2rBXGhSGfauBA2qfG6yd1v11OdrFk0_v8w", "width": 2048}], "place_id": "ChIJF-iYZN790YURwUytDaeuy20", "plus_code": {"compound_code": "9W83+R9 Mexico City", "global_code": "76F29W83+R9"}, "rating": 3.8, "reference": "ChIJF-iYZN790YURwUytDaeuy20", "types": ["hardware_store", "point_of_interest", "store", "establishment"], "user_ratings_total": 60}, {"business_status": "OPERATIONAL", "formatted_address": "Av San Lorenzo 298 B, San Juan, Iztapalapa, 09830 Ciudad de M\u00e9xico, CDMX", "geometry": {"location": {"lat": 19.3395995, "lng": -99.0747162}, "viewport": {"northeast": {"lat": 19.34093407989272, "lng": -99.07341452010728}, "southwest": {"lat": 19.33823442010728, "lng": -99.07611417989271}}}, "icon": "https://maps.gstatic.com/mapfiles/place_api/icons/v1/png_71/shopping-71.png", "name": "Ferreteria", "opening_hours": {"open_now": false}, "photos": [{"height": 3024, "html_attributions": ["<a href=\"https://maps.google.com/maps/contrib/116874378779169891920\">A Google User</a>"], "photo_reference": "CmRaAAAA6fR1rWwrfBDNb9qico8S1BbSL9EhEDDg8eBV615p1OBnngzsTfUyvhwjXnF5609M97XBLVxyA45iiptzwJIk6l51u0ph5C_YoAlWLHzc5TFVI3lwIeYbsxDGgDtnbRMHEhD_sAhOMtptVggTm22ZtzoFGhRutW9KdEqrYCyk8I-5sEexLt82Hw", "width": 4032}], "place_id": "ChIJLQ8wyXUCzoURFcujDEDxBjM", "plus_code": {"compound_code": "8WQG+R4 Mexico City", "global_code": "76F28WQG+R4"}, "rating": 4.2, "reference": "ChIJLQ8wyXUCzoURFcujDEDxBjM", "types": ["hardware_store", "point_of_interest", "store", "establishment"], "user_ratings_total": 14}, {"business_status": "OPERATIONAL", "formatted_address": "R\u00edo Churubusco s/n central de abastos pasillo 4 local 261, Central de Abastos, Iztapalapa, 09040 CDMX", "geometry": {"location": {"lat": 19.3688767, "lng": -99.0893145}, "viewport": {"northeast": {"lat": 19.37022662989272, "lng": -99.08796832010728}, "southwest": {"lat": 19.36752697010728, "lng": -99.09066797989273}}}, "icon": "https://maps.gstatic.com/mapfiles/place_api/icons/v1/png_71/shopping-71.png", "name": "Ferreter\u00eda Campos", "opening_hours": {"open_now": false}, "place_id": "ChIJU57sO8P90YURFb_xNbAOYH4", "plus_code": {"compound_code": "9W96+H7 Mexico City", "global_code": "76F29W96+H7"}, "rating": 0, "reference": "ChIJU57sO8P90YURFb_xNbAOYH4", "types": ["hardware_store", "point_of_interest", "store", "establishment"], "user_ratings_total": 0}, {"business_status": "OPERATIONAL", "formatted_address": "5 de Mayo 145, San Ignacio, Iztapalapa, 09000 Ciudad de M\u00e9xico, CDMX", "geometry": {"location": {"lat": 19.3621474, "lng": -99.09682939999999}, "viewport": {"northeast": {"lat": 19.36363862989272, "lng": -99.09614832010729}, "southwest": {"lat": 19.36093897010728, "lng": -99.09884797989272}}}, "icon": "https://maps.gstatic.com/mapfiles/place_api/icons/v1/png_71/shopping-71.png", "name": "Tlapaleria y Ferreter\u00eda D'Car", "opening_hours": {"open_now": true}, "photos": [{"height": 1600, "html_attributions": ["<a href=\"https://maps.google.com/maps/contrib/116506226237759941057\">A Google User</a>"], "photo_reference": "CmRZAAAAOlN2Yz0NdRDL2WkSGLoxDHNmQsCSc9Wr3z-pJ-9MCATthKxEiWSrO5X-Yk96e_nsfuKpwiAGEAO59rRxKn8ABOXY2Ov3T447eO_Xr016goY-jpqV0g7bN5y-JhuMOi_FEhC-oRtpVrurES5QZolxk-Y2GhTzSWDziQ8cTHyCZpZhTn6Q8eE9jw", "width": 1200}], "place_id": "ChIJza1QLhz90YURL7WSgqd-8iw", "plus_code": {"compound_code": "9W63+V7 Mexico City", "global_code": "76F29W63+V7"}, "rating": 0, "reference": "ChIJza1QLhz90YURL7WSgqd-8iw", "types": ["hardware_store", "point_of_interest", "store", "establishment"], "user_ratings_total": 0}, {"business_status": "OPERATIONAL", "formatted_address": "Ermita Iztapalapa 1050, Sta B\u00e1rbara, Iztapalapa, 09000 Ciudad de M\u00e9xico, CDMX", "geometry": {"location": {"lat": 19.3567058, "lng": -99.0982599}, "viewport": {"northeast": {"lat": 19.35796302989272, "lng": -99.09689192010728}, "southwest": {"lat": 19.35526337010728, "lng": -99.09959157989273}}}, "icon": "https://maps.gstatic.com/mapfiles/place_api/icons/v1/png_71/shopping-71.png", "name": "Ferretera Y Comercial Acosta, S.A. De C.V.", "opening_hours": {"open_now": false}, "photos": [{"height": 4096, "html_attributions": ["<a href=\"https://maps.google.com/maps/contrib/115109586194360118525\">A Google User</a>"], "photo_reference": "CmRaAAAArQfBojxGbEFTDFgBUo7KIhYbCmY7linFPVyAuSuZHbOyvEl9w0tUPHrhJRJa0FjTw6mNB3i24rHDiDgctvdyPt_-63HLjMNpEJ5tcT96n7uRXSRJmztP9t_13Txs1E6oEhBpB0RQrUGzxNHi5rku7hvlGhRTTj6WbQ_1_zQKYy3vmcKAasjOyQ", "width": 3072}], "place_id": "ChIJVfrpaHT-0YUReYIdknVPGGw", "plus_code": {"compound_code": "9W42+MM Mexico City", "global_code": "76F29W42+MM"}, "rating": 4.4, "reference": "ChIJVfrpaHT-0YUReYIdknVPGGw", "types": ["hardware_store", "point_of_interest", "store", "establishment"], "user_ratings_total": 220}, {"business_status": "OPERATIONAL", "formatted_address": "Ermita Iztapalapa Road # 1018, San Lucas, 09000 Ciudad de M\u00e9xico", "geometry": {"location": {"lat": 19.3498696, "lng": -99.0722206}, "viewport": {"northeast": {"lat": 19.35119117989272, "lng": -99.07088552010727}, "southwest": {"lat": 19.34849152010728, "lng": -99.07358517989272}}}, "icon": "https://maps.gstatic.com/mapfiles/place_api/icons/v1/png_71/shopping-71.png", "name": "fix ferreterias", "place_id": "ChIJ7bNp64790YUR4waGKh6oYDw", "rating": 0, "reference": "ChIJ7bNp64790YUR4waGKh6oYDw", "types": ["hardware_store", "point_of_interest", "store", "establishment"], "user_ratings_total": 0}, {"business_status": "OPERATIONAL", "formatted_address": "Espa\u00f1a Esq Mijas #75, Cerro de la Estrella, Iztapalapa, 09860 Ciudad de M\u00e9xico, CDMX", "geometry": {"location": {"lat": 19.3439269, "lng": -99.0914995}, "viewport": {"northeast": {"lat": 19.34517327989272, "lng": -99.09018807010727}, "southwest": {"lat": 19.34247362010728, "lng": -99.09288772989272}}}, "icon": "https://maps.gstatic.com/mapfiles/place_api/icons/v1/png_71/shopping-71.png", "name": "FERRETER\u00cdA Y TLAPALERIA \"GOMEZ\"", "opening_hours": {"open_now": false}, "photos": [{"height": 3072, "html_attributions": ["<a href=\"https://maps.google.com/maps/contrib/109296243024636990510\">A Google User</a>"], "photo_reference": "CmRaAAAADjRdXAfkeXnts5dT4kGZc3sguhXnaQXwBR_qq6EmeQwMlzmvlWsYplZkjca_hT37nnVNFOhiHoGs65c9_c7RYs63sLw0GBS5fuX_I5PTsDp7jnTelpRriYf7zk9wH47JEhCE_iecI4RDFykpmQwaN-HpGhSuGJwmdU6bSvdwEwLufo89dxq02A", "width": 4096}], "place_id": "ChIJgZNdo2wCzoURwGY3T95NOXY", "plus_code": {"compound_code": "8WV5+HC Mexico City", "global_code": "76F28WV5+HC"}, "rating": 0, "reference": "ChIJgZNdo2wCzoURwGY3T95NOXY", "types": ["hardware_store", "point_of_interest", "store", "establishment"], "user_ratings_total": 0}, {"business_status": "OPERATIONAL", "formatted_address": "Ermita Iztapalapa 1938, 2da Amp San Miguel, Iztapalapa, 09360 Ciudad de M\u00e9xico, CDMX", "geometry": {"location": {"lat": 19.3495766, "lng": -99.07124739999999}, "viewport": {"northeast": {"lat": 19.35086537989272, "lng": -99.06992872010727}, "southwest": {"lat": 19.34816572010728, "lng": -99.07262837989272}}}, "icon": "https://maps.gstatic.com/mapfiles/place_api/icons/v1/png_71/shopping-71.png", "name": "Ferretera Kimura", "opening_hours": {"open_now": false}, "photos": [{"height": 3120, "html_attributions": ["<a href=\"https://maps.google.com/maps/contrib/103839803874220358750\">A Google User</a>"], "photo_reference": "CmRaAAAApwtA6zzptsaWcB-kmvH4eVNH0yIbkMzFtn-9mRnVVmxwJH1ipRLlxeMZGdZuh9Cg2fIojydx7SXr18ppkOkg3lr5BCIcsntA50kK_On7t6o7Qx2SDG5zrqXMLoa-zymjEhC8EDmSVJgk_RA4bXynlkygGhT5-aQ2bhmRlIqi6LhKX6C8-UV2nw", "width": 4160}], "place_id": "ChIJ00Sp34790YURGWnRCHMt3rc", "plus_code": {"compound_code": "8WXH+RG Mexico City", "global_code": "76F28WXH+RG"}, "rating": 4.3, "reference": "ChIJ00Sp34790YURGWnRCHMt3rc", "types": ["hardware_store", "point_of_interest", "store", "establishment"], "user_ratings_total": 1031}, {"business_status": "OPERATIONAL", "formatted_address": "Eje 8 Sur 2314, Constituci\u00f3n de 1917, Iztapalapa, 09260 Ciudad de M\u00e9xico, CDMX", "geometry": {"location": {"lat": 19.3465013, "lng": -99.06399329999999}, "viewport": {"northeast": {"lat": 19.34785082989272, "lng": -99.06268302010729}, "southwest": {"lat": 19.34515117010728, "lng": -99.06538267989272}}}, "icon": "https://maps.gstatic.com/mapfiles/place_api/icons/v1/png_71/shopping-71.png", "name": "Ferretera Germ\u00e1n", "opening_hours": {"open_now": false}, "photos": [{"height": 540, "html_attributions": ["<a href=\"https://maps.google.com/maps/contrib/114118771454624835580\">Cesar Sandino</a>"], "photo_reference": "CmRaAAAAQ4rXssDpIrsTwqYxdvz08G3iqHt3_9ySVxytSc_cBBSnP-wg4f8ojIYU9UAXLnNMJGpS6eDhsSEo_VOOLr5E0tVgF_WP_JQahQchjtfOr9xdQVHbCNIwMuDrB51uPcRlEhBnc2tR99dq9JOnpG-cNlPoGhRkkDMLvxovgDj2g56lY-HW11IHjQ", "width": 960}], "place_id": "ChIJZXX_6Yb90YURj_yHqytR2dg", "plus_code": {"compound_code": "8WWP+JC Mexico City", "global_code": "76F28WWP+JC"}, "rating": 3.9, "reference": "ChIJZXX_6Yb90YURj_yHqytR2dg", "types": ["hardware_store", "point_of_interest", "store", "establishment"], "user_ratings_total": 46}, {"business_status": "OPERATIONAL", "formatted_address": "Av. del Rosal 33, Los \u00c1ngeles, Iztapalapa, 09830 Ciudad de M\u00e9xico, CDMX", "geometry": {"location": {"lat": 19.3458372, "lng": -99.07170909999999}, "viewport": {"northeast": {"lat": 19.34721832989272, "lng": -99.07035122010728}, "southwest": {"lat": 19.34451867010728, "lng": -99.07305087989272}}}, "icon": "https://maps.gstatic.com/mapfiles/place_api/icons/v1/png_71/shopping-71.png", "name": "Ferreteria Milo", "opening_hours": {"open_now": true}, "photos": [{"height": 1040, "html_attributions": ["<a href=\"https://maps.google.com/maps/contrib/116371219846115395356\">A Google User</a>"], "photo_reference": "CmRaAAAAYka5ocLKasBL_zqAeTWfpMn_Zk9vIoCyEMIvJ16gukXVXs1ECyicH3uAsZzhf2_SKjY25sHxOlK5DlIHmRySGJ9niaRWtTQPAbKa2RLYcNYMbmi8WtU_BPLeTPRg0bssEhDeCq6-mlO8D6J1gMG-Os_mGhTZZKfJSA2TbW3ORZSZueh6XzFNsQ", "width": 780}], "place_id": "ChIJvwJXkAH90YUR-DnPSP1IWR0", "plus_code": {"compound_code": "8WWH+88 Mexico City", "global_code": "76F28WWH+88"}, "rating": 0, "reference": "ChIJvwJXkAH90YUR-DnPSP1IWR0", "types": ["hardware_store", "point_of_interest", "store", "establishment"], "user_ratings_total": 0}, {"business_status": "OPERATIONAL", "formatted_address": "Av Culturas Prehisp\u00e1nicas 174, Granjas San Antonio, Iztapalapa, 09070 Ciudad de M\u00e9xico, CDMX", "geometry": {"location": {"lat": 19.3653159, "lng": -99.1039519}, "viewport": {"northeast": {"lat": 19.36667302989272, "lng": -99.10264032010728}, "southwest": {"lat": 19.36397337010728, "lng": -99.10533997989272}}}, "icon": "https://maps.gstatic.com/mapfiles/place_api/icons/v1/png_71/shopping-71.png", "name": "FERRETERIA", "opening_hours": {"open_now": true}, "place_id": "ChIJ1TPlIHX-0YURarh8wpWncYw", "plus_code": {"compound_code": "9V8W+4C Mexico City", "global_code": "76F29V8W+4C"}, "rating": 5, "reference": "ChIJ1TPlIHX-0YURarh8wpWncYw", "types": ["hardware_store", "point_of_interest", "store", "establishment"], "user_ratings_total": 2}, {"business_status": "OPERATIONAL", "formatted_address": "Juan de La Barrera, Guadalupe del Moral, Iztapalapa, 09300 Ciudad de M\u00e9xico, CDMX", "geometry": {"location": {"lat": 19.3689653, "lng": -99.0762795}, "viewport": {"northeast": {"lat": 19.37030142989272, "lng": -99.07489412010729}, "southwest": {"lat": 19.36760177010727, "lng": -99.07759377989274}}}, "icon": "https://maps.gstatic.com/mapfiles/place_api/icons/v1/png_71/shopping-71.png", "name": "Ferreteria Del Norte", "place_id": "ChIJ0XM1_L790YURziFlb9brDxA", "plus_code": {"compound_code": "9W9F+HF Mexico City", "global_code": "76F29W9F+HF"}, "rating": 0, "reference": "ChIJ0XM1_L790YURziFlb9brDxA", "types": ["hardware_store", "point_of_interest", "store", "establishment"], "user_ratings_total": 0}]