[{"business_status": "OPERATIONAL", "formatted_address": "Eje 8 Sur, Ermita Iztapalapa, San Miguel, 09360 Ciudad de M\u00e9xico", "geometry": {"location": {"lat": 19.3553227, "lng": -99.08397889999999}, "viewport": {"northeast": {"lat": 19.35661922989272, "lng": -99.08265607010728}, "southwest": {"lat": 19.35391957010728, "lng": -99.08535572989273}}}, "icon": "https://maps.gstatic.com/mapfiles/place_api/icons/v1/png_71/hospital-71.png", "name": "Covidien Mexico", "opening_hours": {}, "place_id": "ChIJaUU82-390YURmgYYOaAlwig", "plus_code": {"compound_code": "9W48+4C Mexico City", "global_code": "76F29W48+4C"}, "rating": 0, "reference": "ChIJaUU82-390YURmgYYOaAlwig", "types": ["hospital", "health", "point_of_interest", "establishment"], "user_ratings_total": 0}, {"business_status": "OPERATIONAL", "formatted_address": "Ermita Iztapalapa 1739, 8va Amp San Miguel, Iztapalapa, 09837 Ciudad de M\u00e9xico, CDMX", "geometry": {"location": {"lat": 19.3515587, "lng": -99.07736849999999}, "viewport": {"northeast": {"lat": 19.35310212989272, "lng": -99.07591972010728}, "southwest": {"lat": 19.35040247010728, "lng": -99.07861937989271}}}, "icon": "https://maps.gstatic.com/mapfiles/place_api/icons/v1/png_71/hospital-71.png", "name": "Imss", "photos": [{"height": 1280, "html_attributions": ["<a href=\"https://maps.google.com/maps/contrib/113460253056086061609\">gaby venegas</a>"], "photo_reference": "CmRaAAAAGMwCAmyf-uyg9hqravKIqwfizLgmphEPPdEYi29IMsYJwsETpCCAkbw_-atyYD-1uhqMbB06GtsFNSTsFLVcRKsYNQPp4eYIJBxuWgBbqTQLgSuB54nT3cNqeESi6E4sEhAKMm_zgtTw8oGkwQ9QrCdeGhRWkSmhNocCrOaXHYryhSP454sa2w", "width": 622}], "place_id": "ChIJlbDfBI390YURZFUhcWvclxU", "plus_code": {"compound_code": "9W2F+J3 Mexico City", "global_code": "76F29W2F+J3"}, "rating": 3.4, "reference": "ChIJlbDfBI390YURZFUhcWvclxU", "types": ["hospital", "health", "point_of_interest", "establishment"], "user_ratings_total": 7}, {"business_status": "OPERATIONAL", "formatted_address": "Magnolia 116, Los \u00c1ngeles, Iztapalapa, 09630 Ciudad de M\u00e9xico, CDMX", "geometry": {"location": {"lat": 19.3443178, "lng": -99.06929439999999}, "viewport": {"northeast": {"lat": 19.34567677989272, "lng": -99.06798212010726}, "southwest": {"lat": 19.34297712010728, "lng": -99.07068177989271}}}, "icon": "https://maps.gstatic.com/mapfiles/place_api/icons/v1/png_71/hospital-71.png", "name": "Hospital Jos\u00e9 Magnolia", "opening_hours": {"open_now": true}, "place_id": "ChIJzRLJPIj90YURZduP2uX188I", "plus_code": {"compound_code": "8WVJ+P7 Mexico City", "global_code": "76F28WVJ+P7"}, "rating": 2.9, "reference": "ChIJzRLJPIj90YURZduP2uX188I", "types": ["hospital", "health", "point_of_interest", "establishment"], "user_ratings_total": 15}, {"business_status": "OPERATIONAL", "formatted_address": "Francisco J. Mujica 48, Constituci\u00f3n de 1917, Iztapalapa, 09260 Ciudad de M\u00e9xico, CDMX", "geometry": {"location": {"lat": 19.3496614, "lng": -99.0620804}, "viewport": {"northeast": {"lat": 19.35095702989272, "lng": -99.0607428201073}, "southwest": {"lat": 19.34825737010728, "lng": -99.06344247989273}}}, "icon": "https://maps.gstatic.com/mapfiles/place_api/icons/v1/png_71/hospital-71.png", "name": "Clinica Constitucion", "opening_hours": {"open_now": true}, "photos": [{"height": 630, "html_attributions": ["<a href=\"https://maps.google.com/maps/contrib/111339414036384536676\">Clinica Constitucion</a>"], "photo_reference": "CmRaAAAAkTC5tjkzFBliFLiXudbk6VNB0h_dSxaTj6WP-B0bvG-tSgLTdIDIjqmF5XdLtkj4q06PMQ5NkHL9T4yWuhdE6GZWfRxjtxGqdyUHTCnViJFQcKcj-9uPRpFpSp2SwLpvEhBietdsOoy11Y_FV-KByeeVGhSAL8HebPJNz0KmrOnzu3-tyqoUrQ", "width": 1702}], "place_id": "ChIJiz0L8YP90YURbFDp4bq5nko", "plus_code": {"compound_code": "8WXQ+V5 Mexico City", "global_code": "76F28WXQ+V5"}, "rating": 3.8, "reference": "ChIJiz0L8YP90YURbFDp4bq5nko", "types": ["hospital", "health", "point_of_interest", "establishment"], "user_ratings_total": 52}, {"business_status": "OPERATIONAL", "formatted_address": "Campa\u00f1a del \u00c9bano s/n, U.H. Vicente Guerrero, Iztapalapa, 09200 Ciudad de M\u00e9xico, CDMX", "geometry": {"location": {"lat": 19.3575459, "lng": -99.0542583}, "viewport": {"northeast": {"lat": 19.35913282989272, "lng": -99.05285317010728}, "southwest": {"lat": 19.35643317010728, "lng": -99.05555282989273}}}, "icon": "https://maps.gstatic.com/mapfiles/place_api/icons/v1/png_71/hospital-71.png", "name": "IMSS General Hospital of Zone 47", "opening_hours": {"open_now": true}, "photos": [{"height": 3492, "html_attributions": ["<a href=\"https://maps.google.com/maps/contrib/113230650033458584004\">Osiris L\u00f3pez Ram\u00edrez</a>"], "photo_reference": "CmRaAAAAZAjNqv6yH1cbd3-Jcgw0OUavNoMTM0nz9nsky3nOxxZRMcc3837ixpk6RBddI98_Z70EE6_ae9s2tKtGIYnuaCx8BIsSyjWTpw01CcYJRHCGd5uZ-c4u4hezAlmk2onlEhDQsabBwrC4pwm7eg-g7KZnGhQV8bEmkWQ4EL5ed1bzPWdwpmwdFA", "width": 4656}], "place_id": "ChIJxXKSVXb90YURmhJ8Mowo4TQ", "plus_code": {"compound_code": "9W5W+27 Mexico City", "global_code": "76F29W5W+27"}, "rating": 2.9, "reference": "ChIJxXKSVXb90YURmhJ8Mowo4TQ", "types": ["hospital", "health", "point_of_interest", "establishment"], "user_ratings_total": 133}, {"business_status": "OPERATIONAL", "formatted_address": "Reforma Aeron\u00e1utica 3018, Reforma Pol\u00edtica, Iztapalapa, 09730 Iztapalapa, CDMX", "geometry": {"location": {"lat": 19.343323, "lng": -99.0273498}, "viewport": {"northeast": {"lat": 19.34497227989272, "lng": -99.02614572010727}, "southwest": {"lat": 19.34227262010728, "lng": -99.02884537989272}}}, "icon": "https://maps.gstatic.com/mapfiles/place_api/icons/v1/png_71/hospital-71.png", "name": "General Hospital Dr. Juan Ramon de la Fuente", "opening_hours": {"open_now": true}, "photos": [{"height": 648, "html_attributions": ["<a href=\"https://maps.google.com/maps/contrib/110703496566904656242\">Rulo Metalero</a>"], "photo_reference": "CmRaAAAAhDFuaredor-uZp4Og3_rKxPumdI61Z4FO7aEHaRPt5_HLJGo-DUR1P5QFsJMUl9NCQoF2wn6Vh85s40-vWPI-pCvrFx4N08BvxW1OpiogOXqQ21CeFwuGLFf7gbGAZUiEhCjZQOBc6Uo4705jhdYAoqTGhSInhdE-XomHz8GltzRFm4juFTq7g", "width": 1152}], "place_id": "ChIJEewZYacCzoURmLmbkzRAxMM", "plus_code": {"compound_code": "8XVF+83 Reforma Pol\u00edtica, Mexico City", "global_code": "76F28XVF+83"}, "rating": 3.1, "reference": "ChIJEewZYacCzoURmLmbkzRAxMM", "types": ["hospital", "health", "point_of_interest", "establishment"], "user_ratings_total": 199}, {"business_status": "OPERATIONAL", "formatted_address": "Calz. Ignacio Zaragoza 1840, Juan Escutia, Iztapalapa, 09100 Ciudad de M\u00e9xico, CDMX", "geometry": {"location": {"lat": 19.3891205, "lng": -99.0451855}, "viewport": {"northeast": {"lat": 19.39056047989272, "lng": -99.04350922010728}, "southwest": {"lat": 19.38786082010728, "lng": -99.04620887989273}}}, "icon": "https://maps.gstatic.com/mapfiles/place_api/icons/v1/png_71/hospital-71.png", "name": "ISSSTE Hospital Regional \"Gral. Ignacio Zaragoza\"", "opening_hours": {"open_now": true}, "photos": [{"height": 4160, "html_attributions": ["<a href=\"https://maps.google.com/maps/contrib/110312214175877563755\">A Google User</a>"], "photo_reference": "CmRaAAAAWxEqfgELeBRTtNzJmapoArLIVQzt3yDk5fkNqVPVEPt-JbxT20ZKRq6sGdZJ11essgMznOHuSW_NMAg9L1gx7sCuPLd8sv1Ikttf-FBJ9-id_tNSb3slg5U2p6tjmUloEhAW_Y_M3sNK3h1q_Qt_NO63GhTYnUABkHjX6LEkpIM6PfEP8wacmw", "width": 3120}], "place_id": "ChIJoQAIGx390YURBG3TVNGWMtM", "plus_code": {"compound_code": "9XQ3+JW Juan Escutia, Mexico City", "global_code": "76F29XQ3+JW"}, "rating": 3.3, "reference": "ChIJoQAIGx390YURBG3TVNGWMtM", "types": ["hospital", "health", "point_of_interest", "establishment"], "user_ratings_total": 256}, {"business_status": "OPERATIONAL", "formatted_address": "Ferrocarril de R\u00edo Fr\u00edo MZ16 LT4, El Rodeo, Iztacalco, 08510 Ciudad de M\u00e9xico, CDMX", "geometry": {"location": {"lat": 19.3931261, "lng": -99.08538109999999}, "viewport": {"northeast": {"lat": 19.39451227989272, "lng": -99.08400992010728}, "southwest": {"lat": 19.39181262010728, "lng": -99.08670957989273}}}, "icon": "https://maps.gstatic.com/mapfiles/place_api/icons/v1/png_71/hospital-71.png", "name": "Centromedico Siglo 21", "place_id": "ChIJ-w_QFX_90YURLZRS8LHoAS8", "plus_code": {"compound_code": "9WV7+7R Mexico City", "global_code": "76F29WV7+7R"}, "rating": 0, "reference": "ChIJ-w_QFX_90YURLZRS8LHoAS8", "types": ["hospital", "health", "point_of_interest", "establishment"], "user_ratings_total": 0}, {"business_status": "OPERATIONAL", "formatted_address": "Av. Tlahuac 4866, San Lorenzo Tezonco, Iztapalapa, Ciudad de M\u00e9xico, CDMX", "geometry": {"location": {"lat": 19.3071537, "lng": -99.0653646}, "viewport": {"northeast": {"lat": 19.30837597989272, "lng": -99.06375482010729}, "southwest": {"lat": 19.30567632010727, "lng": -99.06645447989273}}}, "icon": "https://maps.gstatic.com/mapfiles/place_api/icons/v1/png_71/hospital-71.png", "name": "Specialist Hospital Dr. Belisario Dominguez", "opening_hours": {"open_now": false}, "photos": [{"height": 2976, "html_attributions": ["<a href=\"https://maps.google.com/maps/contrib/107385612292086320587\">Carlos Fuentes</a>"], "photo_reference": "CmRaAAAAGZCk2Nq4PhahyAchyVzt9H5ZmNUkvarWzjmdwv9av7ImsCJx2yael4weBgiHr-nE_gbogFjgwYzHMolpAFiqRNY7cpj3WRHYbELFs7tN7MLdMBAhDbx2aKveIXSLVuBUEhBy6j06aE04Z8b_uYgo829WGhSQTvc4ma1gx9Qc0008J9Od7xI9RA", "width": 3968}], "place_id": "ChIJXcoLFFsCzoURcKCpYcep610", "plus_code": {"compound_code": "8W4M+VV Mexico City", "global_code": "76F28W4M+VV"}, "rating": 3.7, "reference": "ChIJXcoLFFsCzoURcKCpYcep610", "types": ["hospital", "health", "point_of_interest", "establishment"], "user_ratings_total": 238}, {"business_status": "OPERATIONAL", "formatted_address": "Ermita Iztapalapa 272, Sinatel, Iztapalapa, 09470 Ciudad de M\u00e9xico, CDMX", "geometry": {"location": {"lat": 19.3588688, "lng": -99.1318015}, "viewport": {"northeast": {"lat": 19.36014737989273, "lng": -99.13046047010728}, "southwest": {"lat": 19.35744772010728, "lng": -99.13316012989273}}}, "icon": "https://maps.gstatic.com/mapfiles/place_api/icons/v1/png_71/hospital-71.png", "name": "Sanatorium San Agustin", "opening_hours": {"open_now": true}, "photos": [{"height": 1310, "html_attributions": ["<a href=\"https://maps.google.com/maps/contrib/105143792918166207379\">German Mora</a>"], "photo_reference": "CmRaAAAAlTVFSJ-1UIRSgVJjsL9svaGwbGhEVKekvQUZ1-vgjLw8BED5qQ7-9r6_sHfcGnfwqShkeQ2FY5F-lMSq-OM8Q3H0tesxc_luLXyL-ygMrJgdtL5G8xX6oyC8CUoOSChOEhCML3ClbAqBbvPX2xDcnegIGhQs4eSxS5D_fDAzzvYAYgGjaBa6_g", "width": 2048}], "place_id": "ChIJAZTeKBT-0YURezVJTfITYlA", "plus_code": {"compound_code": "9V59+G7 Mexico City", "global_code": "76F29V59+G7"}, "rating": 3.3, "reference": "ChIJAZTeKBT-0YURezVJTfITYlA", "types": ["hospital", "health", "point_of_interest", "establishment"], "user_ratings_total": 72}, {"business_status": "OPERATIONAL", "formatted_address": "Calle Siete #104, Agr\u00edcola Pantitl\u00e1n, Iztacalco, 08100 Ciudad de M\u00e9xico, CDMX", "geometry": {"location": {"lat": 19.4042096, "lng": -99.05797109999999}, "viewport": {"northeast": {"lat": 19.40552997989272, "lng": -99.05658207010728}, "southwest": {"lat": 19.40283032010728, "lng": -99.05928172989272}}}, "icon": "https://maps.gstatic.com/mapfiles/place_api/icons/v1/png_71/hospital-71.png", "name": "Hospital Santa Rosa", "opening_hours": {"open_now": true}, "photos": [{"height": 480, "html_attributions": ["<a href=\"https://maps.google.com/maps/contrib/100133772150191314938\">Hospital Santa Rosa</a>"], "photo_reference": "CmRaAAAAFjZ7aPgpGEEO8P8LmeKJJuqBIPm_t19UNCL-alWRQSxv6XWSXkf9R73mEhbLS5isu98vgFLlyKowzB53DNxGNSn3Jw1dZ1Ydrq_kxWIYBvRgHjKo4OUuf-SJebngomgUEhCbWkaxj6IKyv8lp_s8GCOmGhSyiUj_g1tHJ5SN7PRSXWn4r_iEaQ", "width": 640}], "place_id": "ChIJ1T7SZVj80YURqF12bbB0T6A", "plus_code": {"compound_code": "CW3R+MR Mexico City", "global_code": "76F2CW3R+MR"}, "rating": 2.9, "reference": "ChIJ1T7SZVj80YURqF12bbB0T6A", "types": ["hospital", "health", "point_of_interest", "establishment"], "user_ratings_total": 98}, {"business_status": "OPERATIONAL", "formatted_address": "Armada de Mexico 1476, Coapa, Cafetales I, Coyoac\u00e1n, 04930 Ciudad de M\u00e9xico, CDMX", "geometry": {"location": {"lat": 19.315402, "lng": -99.1108656}, "viewport": {"northeast": {"lat": 19.31670192989272, "lng": -99.10962132010728}, "southwest": {"lat": 19.31400227010728, "lng": -99.11232097989271}}}, "icon": "https://maps.gstatic.com/mapfiles/place_api/icons/v1/png_71/hospital-71.png", "name": "Alexander Hospital Clinica S.A. DE C.V.", "opening_hours": {"open_now": true}, "place_id": "ChIJTYt0P40BzoURrg_prwm0ygE", "plus_code": {"compound_code": "8V8Q+5M Mexico City", "global_code": "76F28V8Q+5M"}, "rating": 4.1, "reference": "ChIJTYt0P40BzoURrg_prwm0ygE", "types": ["hospital", "health", "point_of_interest", "establishment"], "user_ratings_total": 9}, {"business_status": "OPERATIONAL", "formatted_address": "Ermita Iztapalapa 3450, Santa Mar\u00eda Aztahuacan, Iztapalapa, 09500 Ciudad de M\u00e9xico, CDMX", "geometry": {"location": {"lat": 19.3483027, "lng": -99.0189786}, "viewport": {"northeast": {"lat": 19.34961007989273, "lng": -99.01752792010728}, "southwest": {"lat": 19.34691042010729, "lng": -99.02022757989273}}}, "icon": "https://maps.gstatic.com/mapfiles/place_api/icons/v1/png_71/hospital-71.png", "name": "Hospital Ermita", "opening_hours": {"open_now": true}, "photos": [{"height": 3024, "html_attributions": ["<a href=\"https://maps.google.com/maps/contrib/112374839660063071659\">Ignacio Hernandez</a>"], "photo_reference": "CmRaAAAALnRfQWjY5VEu_S58pNd2ywb0kmRvcNYFif1irk3gXFsmlmmEyfBEr9alYNOXctgFGqBRAPUlnVyPXP_C7VRKlwsO1FVk0tdXf8NrmvHj_Soi_UF8461K5ajOwLS9MMVZEhBQasO05DYXk2XRNm7CAaiFGhQshV5n8IYWnyIMir0T9n8AiwB3Yg", "width": 4032}], "place_id": "ChIJLcfD3Z8CzoURTc0yoeBfMPs", "plus_code": {"compound_code": "8XXJ+8C Mexico City", "global_code": "76F28XXJ+8C"}, "rating": 2.7, "reference": "ChIJLcfD3Z8CzoURTc0yoeBfMPs", "types": ["hospital", "health", "point_of_interest", "establishment"], "user_ratings_total": 51}, {"business_status": "OPERATIONAL", "formatted_address": "Eje 4 Sur, Av. Pdte. Plutarco El\u00edas Calles 473, Santa Anita, Iztacalco, 08300 Ciudad de M\u00e9xico, CDMX", "geometry": {"location": {"lat": 19.3986738, "lng": -99.1174278}, "viewport": {"northeast": {"lat": 19.39985767989272, "lng": -99.11602282010729}, "southwest": {"lat": 19.39715802010728, "lng": -99.11872247989272}}}, "icon": "https://maps.gstatic.com/mapfiles/place_api/icons/v1/png_71/hospital-71.png", "name": "IMSS General Hospital of Zone 30", "opening_hours": {"open_now": true}, "photos": [{"height": 2448, "html_attributions": ["<a href=\"https://maps.google.com/maps/contrib/106921891391541124570\">Jonathan Euroza</a>"], "photo_reference": "CmRaAAAAYCKPT-RT9gpxPVhssWV7zUnXc8KWrCvbt-k61xkcpdvozYt0KfFwKtlELJVw_UVxEh4JMBPFvsTTaWmhl9D7zn7GqVVcRFErIIFIcNTs9099lzK1VcvQqTBcSULdqFviEhDpUNkjskxAdTsKA9Q0-wnzGhSM19Jltf2s2TWHvOQvluIHpfBayw", "width": 3264}], "place_id": "ChIJ3-kSBI7-0YURwAVY4vXoK1U", "plus_code": {"compound_code": "9VXM+F2 Mexico City", "global_code": "76F29VXM+F2"}, "rating": 3.5, "reference": "ChIJ3-kSBI7-0YURwAVY4vXoK1U", "types": ["hospital", "health", "point_of_interest", "establishment"], "user_ratings_total": 132}, {"business_status": "OPERATIONAL", "formatted_address": "Calle 15 15900, Ignacio Zaragoza, Venustiano Carranza, 15000 Ciudad de M\u00e9xico, CDMX", "geometry": {"location": {"lat": 19.4110153, "lng": -99.0972426}, "viewport": {"northeast": {"lat": 19.41236512989272, "lng": -99.09589277010728}, "southwest": {"lat": 19.40966547010728, "lng": -99.09859242989272}}}, "icon": "https://maps.gstatic.com/mapfiles/place_api/icons/v1/png_71/hospital-71.png", "name": "Clinica Madona", "opening_hours": {"open_now": true}, "photos": [{"height": 1080, "html_attributions": ["<a href=\"https://maps.google.com/maps/contrib/117057557693746678532\">Oswaldo Bastida Rosales</a>"], "photo_reference": "CmRaAAAA0aLnC_VhteN4T9nmb1KFAxhBOzRpfit4hO9BYZT8IuLGWXd5RskdQtGGIFN7NGj4Ze_sCb6KvFtvs_slfeWa9DMrC_NjKBxv2f-j7TuHH4_qeLMyJ8Xx_xxTMxawX4IXEhCtVeXp03O8sZTDjtZRyH7NGhTSNtoQu4SoGhgmyRLcyWBiektGaw", "width": 1920}], "place_id": "ChIJv_ty3SH80YURUXk57b0F-mo", "plus_code": {"compound_code": "CW63+C4 Mexico City", "global_code": "76F2CW63+C4"}, "rating": 0, "reference": "ChIJv_ty3SH80YURUXk57b0F-mo", "types": ["hospital", "health", "point_of_interest", "establishment"], "user_ratings_total": 0}, {"business_status": "OPERATIONAL", "formatted_address": "A\u00f1il 144, Granjas M\u00e9xico, Iztacalco, 08400 Ciudad de M\u00e9xico, CDMX", "geometry": {"location": {"lat": 19.4053733, "lng": -99.11287370000001}, "viewport": {"northeast": {"lat": 19.40672987989272, "lng": -99.11129557010727}, "southwest": {"lat": 19.40403022010728, "lng": -99.11399522989272}}}, "icon": "https://maps.gstatic.com/mapfiles/place_api/icons/v1/png_71/hospital-71.png", "name": "IMSS Hospital General de Zona 2A \"Troncoso\"", "opening_hours": {"open_now": true}, "photos": [{"height": 1920, "html_attributions": ["<a href=\"https://maps.google.com/maps/contrib/105393917257631648676\">sara</a>"], "photo_reference": "CmRaAAAAamH10QKg8U-2yCYIsi8kUMKTYRLokOsTvgMTeTjca_nifQwMLv2re25b0-OHJzLlWGpfPlqq8t-TCxzXxjr1h_ib7zpUA2m91CaBDB2QGbKaBxrbqrjiQjjC4fF8kZzuEhDQHRH0efS9OzF3GqAF06nmGhTJcY88DaNaT-fOg-TTJc-d2tHU7Q", "width": 2560}], "place_id": "ChIJ9-dYAZr-0YURKHtbry1e4nI", "plus_code": {"compound_code": "CV4P+4V Mexico City", "global_code": "76F2CV4P+4V"}, "rating": 3.4, "reference": "ChIJ9-dYAZr-0YURKHtbry1e4nI", "types": ["hospital", "health", "point_of_interest", "establishment"], "user_ratings_total": 214}, {"business_status": "OPERATIONAL", "formatted_address": "Calz de la Virgen 701, Coapa, Presidentes Ejidales 1ra Secc, Coyoac\u00e1n, 04470 Ciudad de M\u00e9xico, CDMX", "geometry": {"location": {"lat": 19.3229334, "lng": -99.1254742}, "viewport": {"northeast": {"lat": 19.32428322989272, "lng": -99.1241243701073}, "southwest": {"lat": 19.32158357010728, "lng": -99.12682402989275}}}, "icon": "https://maps.gstatic.com/mapfiles/place_api/icons/v1/png_71/hospital-71.png", "name": "Hospital General Naval De Alta Especialidad", "place_id": "ChIJZfjJg8MBzoURvPRpwDXiTS4", "plus_code": {"compound_code": "8VFF+5R Mexico City", "global_code": "76F28VFF+5R"}, "rating": 5, "reference": "ChIJZfjJg8MBzoURvPRpwDXiTS4", "types": ["hospital", "health", "point_of_interest", "establishment"], "user_ratings_total": 5}, {"business_status": "OPERATIONAL", "formatted_address": "Calle \u00c1rbol del Fuego 80, El Rosario, Coyoac\u00e1n, 04380 Ciudad de M\u00e9xico, CDMX", "geometry": {"location": {"lat": 19.3279731, "lng": -99.1436114}, "viewport": {"northeast": {"lat": 19.330261, "lng": -99.14189340000001}, "southwest": {"lat": 19.325597, "lng": -99.146121}}}, "icon": "https://maps.gstatic.com/mapfiles/place_api/icons/v1/png_71/hospital-71.png", "name": "HMG Coyoac\u00e1n", "opening_hours": {"open_now": true}, "photos": [{"height": 2592, "html_attributions": ["<a href=\"https://maps.google.com/maps/contrib/116671323850773947745\">Luis Goico</a>"], "photo_reference": "CmRaAAAAeYkUupGxd5_tCjU9zAAH0262JIaawvMeuGsUjgWn1yGqRA51p8MQkOCdfFtVDCF-QedY2nweHdZdG-aKhFlcZG7M2A1eou-lvZ5i6vpoawUtqbO5zX6d41IglOdCiIXoEhDD7f8EV9vaA742blbtIdxEGhTZ5NmQcdcm6QlzijsoJH8s63hBow", "width": 4608}], "place_id": "ChIJ____zywAzoURsUePBHE1b3g", "plus_code": {"compound_code": "8VH4+5H Mexico City", "global_code": "76F28VH4+5H"}, "rating": 3.8, "reference": "ChIJ____zywAzoURsUePBHE1b3g", "types": ["hospital", "health", "point_of_interest", "establishment"], "user_ratings_total": 190}, {"business_status": "OPERATIONAL", "formatted_address": "Calz. del Hueso 7700, Coapa, Granjas Coapa, Tlalpan, 14330 Tlalpan, CDMX", "geometry": {"location": {"lat": 19.299561, "lng": -99.10238570000001}, "viewport": {"northeast": {"lat": 19.30106567989272, "lng": -99.10104637010727}, "southwest": {"lat": 19.29836602010728, "lng": -99.10374602989272}}}, "icon": "https://maps.gstatic.com/mapfiles/place_api/icons/v1/png_71/hospital-71.png", "name": "Cl\u00ednica Naval Cuemanco - SEMAR", "opening_hours": {"open_now": false}, "photos": [{"height": 3264, "html_attributions": ["<a href=\"https://maps.google.com/maps/contrib/103360385021463965950\">Arturo Arenas</a>"], "photo_reference": "CmRaAAAA8Rb5m8fxoxUa4kQ51Cv4WKiVjLUiA8pINCcQHIwErbra_lSwhMtv9x0p-m9vlG0ttIgdM6Qt5tzP6NPqELa3VJXgUPMZyLN6DdG1ajjLeAqdMcoNIzDdMVMCsOlWlaCkEhBXtDC1KURQUcdpLyjD38CoGhRVL2w39jqB2eWotxU9TB6OY0E8kQ", "width": 2448}], "place_id": "ChIJ50vDTIcBzoURcj83WGHZxhk", "plus_code": {"compound_code": "7VXX+R2 Granjas Coapa, Mexico City", "global_code": "76F27VXX+R2"}, "rating": 4.6, "reference": "ChIJ50vDTIcBzoURcj83WGHZxhk", "types": ["hospital", "health", "point_of_interest", "establishment"], "user_ratings_total": 29}, {"business_status": "OPERATIONAL", "formatted_address": "Calz. de las Bombas 117, Coapa, Girasoles I, Tlalpan, 14310 Ciudad de M\u00e9xico, CDMX", "geometry": {"location": {"lat": 19.3091272, "lng": -99.1297306}, "viewport": {"northeast": {"lat": 19.31187445, "lng": -99.12619575}, "southwest": {"lat": 19.30442625, "lng": -99.13432275}}}, "icon": "https://maps.gstatic.com/mapfiles/place_api/icons/v1/png_71/hospital-71.png", "name": "IMSS Hospital General Regional #2", "opening_hours": {"open_now": true}, "photos": [{"height": 3456, "html_attributions": ["<a href=\"https://maps.google.com/maps/contrib/101929253836952302108\">DR. MILLAN HGR1</a>"], "photo_reference": "CmRaAAAASyoX9LtzpRQ0M6o4Mvfp2NXKYmqESyM_-oUXmKREJ4TLRiScvB4ctRJsoOoI05wA-onotDpbwcresS7Hw0erHxUl8aKnWehESbxO7abVMJA_SgjaEOk3W1ytoPFqJHybEhBCPbs_ADy_uR-CJGSlky10GhT0y4t_vl5jrOtMf-hzJuDIu5WdDQ", "width": 4608}], "place_id": "ChIJ5x6e2rsBzoURP9kg5ybObKI", "plus_code": {"compound_code": "8V5C+M4 Mexico City", "global_code": "76F28V5C+M4"}, "rating": 3.7, "reference": "ChIJ5x6e2rsBzoURP9kg5ybObKI", "types": ["hospital", "health", "point_of_interest", "establishment"], "user_ratings_total": 208}]