[{"business_status": "OPERATIONAL", "formatted_address": "Calle Epifan\u00edo Valera 1, Renovaci\u00f3n, Iztapalapa, 75150 Ciudad de M\u00e9xico, Pue.", "geometry": {"location": {"lat": 19.3713191, "lng": -99.0497465}, "viewport": {"northeast": {"lat": 19.37267027989272, "lng": -99.04842502010727}, "southwest": {"lat": 19.36997062010728, "lng": -99.05112467989272}}}, "icon": "https://maps.gstatic.com/mapfiles/place_api/icons/v1/png_71/civic_building-71.png", "name": "Presidencia Municipal", "place_id": "ChIJbWblb6PAz4URlQ11PozoaGI", "rating": 0, "reference": "ChIJbWblb6PAz4URlQ11PozoaGI", "types": ["local_government_office", "point_of_interest", "establishment"], "user_ratings_total": 0}, {"business_status": "OPERATIONAL", "formatted_address": "Ju\u00e1rez 404, San Lorenzo, 56180 Nezahualc\u00f3yotl, M\u00e9x.", "geometry": {"location": {"lat": 19.3746684, "lng": -99.0039438}, "viewport": {"northeast": {"lat": 19.37602832989272, "lng": -99.00258737010728}, "southwest": {"lat": 19.37332867010727, "lng": -99.00528702989273}}}, "icon": "https://maps.gstatic.com/mapfiles/place_api/icons/v1/png_71/civic_building-71.png", "name": "Gobierno del Estado", "place_id": "ChIJ4TLu0cji0YURz8P_WzCGJv0", "rating": 0, "reference": "ChIJ4TLu0cji0YURz8P_WzCGJv0", "types": ["local_government_office", "point_of_interest", "establishment"], "user_ratings_total": 0}, {"business_status": "OPERATIONAL", "formatted_address": "Oxigeno 28, Zacatepec, Iztapalapa, 86100 Ciudad de M\u00e9xico, CDMX", "geometry": {"location": {"lat": 19.3591825, "lng": -99.0183428}, "viewport": {"northeast": {"lat": 19.36057427989272, "lng": -99.01699172010728}, "southwest": {"lat": 19.35787462010728, "lng": -99.01969137989272}}}, "icon": "https://maps.gstatic.com/mapfiles/place_api/icons/v1/png_71/civic_building-71.png", "name": "Instituto Electoral y Participaci\u00f3n Ciudadana", "place_id": "ChIJyx0M1k390YURHeRVd26PzW8", "plus_code": {"compound_code": "9X5J+MM Mexico City", "global_code": "76F29X5J+MM"}, "rating": 0, "reference": "ChIJyx0M1k390YURHeRVd26PzW8", "types": ["local_government_office", "point_of_interest", "establishment"], "user_ratings_total": 0}, {"business_status": "OPERATIONAL", "formatted_address": "Jes\u00fas D\u00edaz Carrillo SN, La Colmena, Iztapalapa, 09170 Ciudad de M\u00e9xico, CDMX", "geometry": {"location": {"lat": 19.3694551, "lng": -99.0017975}, "viewport": {"northeast": {"lat": 19.37084872989272, "lng": -99.00038157010728}, "southwest": {"lat": 19.36814907010728, "lng": -99.00308122989273}}}, "icon": "https://maps.gstatic.com/mapfiles/place_api/icons/v1/png_71/civic_building-71.png", "name": "Secretar\u00eda de Seguridad P\u00fablica del Distrito Federal", "place_id": "ChIJ7Qx2rOfi0YURTMAWzIRo7D4", "plus_code": {"compound_code": "9X9X+Q7 Mexico City", "global_code": "76F29X9X+Q7"}, "rating": 3, "reference": "ChIJ7Qx2rOfi0YURTMAWzIRo7D4", "types": ["local_government_office", "point_of_interest", "establishment"], "user_ratings_total": 2}, {"business_status": "OPERATIONAL", "formatted_address": "Domicilio Conocido S/n, Calica, Centro, Iztapalapa, 77710 Playa del Carmen, Q.R.", "geometry": {"location": {"lat": 19.3509003, "lng": -98.9956928}, "viewport": {"northeast": {"lat": 19.35225377989272, "lng": -98.99437542010727}, "southwest": {"lat": 19.34955412010728, "lng": -98.99707507989272}}}, "icon": "https://maps.gstatic.com/mapfiles/place_api/icons/v1/png_71/civic_building-71.png", "name": "Ayunatamiento Oficina del Desarrollo Economico", "place_id": "ChIJNboTT6Hi0YURdg9qc7F33YY", "rating": 0, "reference": "ChIJNboTT6Hi0YURdg9qc7F33YY", "types": ["local_government_office", "point_of_interest", "establishment"], "user_ratings_total": 0}, {"business_status": "OPERATIONAL", "formatted_address": "Chihuahua 44, San Sebasti\u00e1n Tecoloxtitla, Iztapalapa, 09250 Ciudad de M\u00e9xico, CDMX", "geometry": {"location": {"lat": 19.3626686, "lng": -99.01698239999999}, "viewport": {"northeast": {"lat": 19.36398562989272, "lng": -99.01564017010728}, "southwest": {"lat": 19.36128597010728, "lng": -99.01833982989271}}}, "icon": "https://maps.gstatic.com/mapfiles/place_api/icons/v1/png_71/civic_building-71.png", "name": "Asociacion Civil Filantropica y Educativa A.C.", "place_id": "ChIJYx-7ikv90YURu9o34WnTSlg", "plus_code": {"compound_code": "9X7M+36 Mexico City", "global_code": "76F29X7M+36"}, "rating": 4, "reference": "ChIJYx-7ikv90YURu9o34WnTSlg", "types": ["local_government_office", "point_of_interest", "establishment"], "user_ratings_total": 1}, {"business_status": "OPERATIONAL", "formatted_address": "Calle 1 Casimiro del Valle MZ17 LT25, U.H. Vicente Guerrero, Iztapalapa, 09200 Ciudad de M\u00e9xico, CDMX", "geometry": {"location": {"lat": 19.3529626, "lng": -99.0506814}, "viewport": {"northeast": {"lat": 19.35431162989272, "lng": -99.04931142010729}, "southwest": {"lat": 19.35161197010728, "lng": -99.05201107989274}}}, "icon": "https://maps.gstatic.com/mapfiles/place_api/icons/v1/png_71/civic_building-71.png", "name": "M\u00f3dulo De Participaci\u00f3n Ciudadana Smz5", "place_id": "ChIJN8W7LIH90YUR1JBGv8OCSNA", "plus_code": {"compound_code": "9W3X+5P Mexico City", "global_code": "76F29W3X+5P"}, "rating": 0, "reference": "ChIJN8W7LIH90YUR1JBGv8OCSNA", "types": ["local_government_office", "point_of_interest", "establishment"], "user_ratings_total": 0}, {"business_status": "OPERATIONAL", "formatted_address": "Leyes de Reforma 3ra Secc, Iztapalapa, Mexico City", "geometry": {"location": {"lat": 19.375883, "lng": -99.0724915}, "viewport": {"northeast": {"lat": 19.37725932989272, "lng": -99.07130032010728}, "southwest": {"lat": 19.37455967010727, "lng": -99.07399997989272}}}, "icon": "https://maps.gstatic.com/mapfiles/place_api/icons/v1/png_71/civic_building-71.png", "name": "Ayuda a mujeres", "place_id": "ChIJxQWVrJP90YUR-UnrfEKQ_OQ", "plus_code": {"compound_code": "9WGH+92 Mexico City", "global_code": "76F29WGH+92"}, "rating": 0, "reference": "ChIJxQWVrJP90YUR-UnrfEKQ_OQ", "types": ["local_government_office", "point_of_interest", "establishment"], "user_ratings_total": 0}, {"business_status": "OPERATIONAL", "formatted_address": "Gersayn Ugarte SN, Constituci\u00f3n de 1917, Iztapalapa, 54190 Ciudad de M\u00e9xico, CDMX", "geometry": {"location": {"lat": 19.3501311, "lng": -99.0612338}, "viewport": {"northeast": {"lat": 19.35149377989272, "lng": -99.05994767010726}, "southwest": {"lat": 19.34879412010728, "lng": -99.06264732989271}}}, "icon": "https://maps.gstatic.com/mapfiles/place_api/icons/v1/png_71/civic_building-71.png", "name": "Jefatura de Sector de Educaci\u00f3n Fisica", "place_id": "ChIJ____v4P90YUR0X3Cs7b_wsQ", "plus_code": {"compound_code": "9W2Q+3G Mexico City", "global_code": "76F29W2Q+3G"}, "rating": 0, "reference": "ChIJ____v4P90YUR0X3Cs7b_wsQ", "types": ["local_government_office", "point_of_interest", "establishment"], "user_ratings_total": 0}, {"business_status": "OPERATIONAL", "formatted_address": "Av. Canal de San Juan S/n, Tepalcates, Iztapalapa, 09210 Ciudad de M\u00e9xico, CDMX", "geometry": {"location": {"lat": 19.3944003, "lng": -99.05799429999999}, "viewport": {"northeast": {"lat": 19.39583622989272, "lng": -99.05705447010727}, "southwest": {"lat": 19.39313657010728, "lng": -99.05975412989272}}}, "icon": "https://maps.gstatic.com/mapfiles/place_api/icons/v1/png_71/civic_building-71.png", "name": "Ssp Gobierno", "place_id": "ChIJvXO2wFX80YURxI2bxDUqqsk", "plus_code": {"compound_code": "9WVR+QR Mexico City", "global_code": "76F29WVR+QR"}, "rating": 0, "reference": "ChIJvXO2wFX80YURxI2bxDUqqsk", "types": ["local_government_office", "point_of_interest", "establishment"], "user_ratings_total": 0}, {"business_status": "OPERATIONAL", "formatted_address": "De la Constitucion 1, Lomas de San Lorenzo, Iztapalapa, 04410 Ciudad de M\u00e9xico, CDMX", "geometry": {"location": {"lat": 19.3213037, "lng": -99.0637069}, "viewport": {"northeast": {"lat": 19.32264292989272, "lng": -99.06232507010728}, "southwest": {"lat": 19.31994327010728, "lng": -99.06502472989273}}}, "icon": "https://maps.gstatic.com/mapfiles/place_api/icons/v1/png_71/civic_building-71.png", "name": "Gobierno", "place_id": "ChIJ9wdKI2cCzoURwd2tWKZxRPo", "rating": 0, "reference": "ChIJ9wdKI2cCzoURwd2tWKZxRPo", "types": ["local_government_office", "point_of_interest", "establishment"], "user_ratings_total": 0}, {"business_status": "OPERATIONAL", "formatted_address": "Calle Enrique Contel S/n, Cabeza de Ju\u00e1rez, Iztapalapa, 09227 Ciudad de M\u00e9xico, CDMX", "geometry": {"location": {"lat": 19.3843541, "lng": -99.0410236}, "viewport": {"northeast": {"lat": 19.38574102989272, "lng": -99.03964417010728}, "southwest": {"lat": 19.38304137010728, "lng": -99.04234382989273}}}, "icon": "https://maps.gstatic.com/mapfiles/place_api/icons/v1/png_71/civic_building-71.png", "name": "Gobierno", "place_id": "ChIJC7gR-xv90YURs3pshM2tKUU", "plus_code": {"compound_code": "9XM5+PH Mexico City", "global_code": "76F29XM5+PH"}, "rating": 0, "reference": "ChIJC7gR-xv90YURs3pshM2tKUU", "types": ["local_government_office", "point_of_interest", "establishment"], "user_ratings_total": 0}, {"business_status": "OPERATIONAL", "formatted_address": "Calz. Ignacio Zaragoza 2835, Santa Martha Acatitla, Iztapalapa, 09100 Ciudad de M\u00e9xico, CDMX", "geometry": {"location": {"lat": 19.3902866, "lng": -99.0440947}, "viewport": {"northeast": {"lat": 19.39163067989272, "lng": -99.04274852010728}, "southwest": {"lat": 19.38893102010728, "lng": -99.04544817989272}}}, "icon": "https://maps.gstatic.com/mapfiles/place_api/icons/v1/png_71/civic_building-71.png", "name": "Gobierno Dependencia Ju\u00e1rez", "place_id": "ChIJKTyTZB390YURi_Hq7CdbvFA", "plus_code": {"compound_code": "9XR4+49 Mexico City", "global_code": "76F29XR4+49"}, "rating": 4, "reference": "ChIJKTyTZB390YURi_Hq7CdbvFA", "types": ["local_government_office", "point_of_interest", "establishment"], "user_ratings_total": 1}, {"business_status": "OPERATIONAL", "formatted_address": "Cda. Ermita Iztapalapa 3399, Santa Mar\u00eda Atahuac\u00e1n, Iztapalapa, 09500 Ciudad de M\u00e9xico, CDMX", "geometry": {"location": {"lat": 19.3431842, "lng": -99.0473442}, "viewport": {"northeast": {"lat": 19.34453592989272, "lng": -99.0461032701073}, "southwest": {"lat": 19.34183627010728, "lng": -99.04880292989273}}}, "icon": "https://maps.gstatic.com/mapfiles/place_api/icons/v1/png_71/civic_building-71.png", "name": "Transporte de Agua Potable", "place_id": "ChIJ7ZLKTJ0CzoURIGKrdHNPSFE", "plus_code": {"compound_code": "8XV3+73 Mexico City", "global_code": "76F28XV3+73"}, "rating": 1, "reference": "ChIJ7ZLKTJ0CzoURIGKrdHNPSFE", "types": ["local_government_office", "point_of_interest", "establishment"], "user_ratings_total": 3}, {"business_status": "OPERATIONAL", "formatted_address": "Av. de las Torres 12, Los \u00c1ngeles, Iztapalapa, 09830 Ciudad de M\u00e9xico, CDMX", "geometry": {"location": {"lat": 19.3414259, "lng": -99.0641344}, "viewport": {"northeast": {"lat": 19.34261892989272, "lng": -99.06294562010727}, "southwest": {"lat": 19.33991927010728, "lng": -99.06564527989272}}}, "icon": "https://maps.gstatic.com/mapfiles/place_api/icons/v1/png_71/civic_building-71.png", "name": "Parques y Jardines", "place_id": "ChIJ0ZvR7HgCzoUR3Qo1Mo0w4w0", "plus_code": {"compound_code": "8WRP+H8 Mexico City", "global_code": "76F28WRP+H8"}, "rating": 0, "reference": "ChIJ0ZvR7HgCzoUR3Qo1Mo0w4w0", "types": ["local_government_office", "point_of_interest", "establishment"], "user_ratings_total": 0}, {"business_status": "OPERATIONAL", "formatted_address": "Jacarandas SN, La Providencia, Iztapalapa, 56300 Ciudad de M\u00e9xico, CDMX", "geometry": {"location": {"lat": 19.3591016, "lng": -99.0030294}, "viewport": {"northeast": {"lat": 19.36045062989272, "lng": -99.00167422010729}, "southwest": {"lat": 19.35775097010728, "lng": -99.00437387989273}}}, "icon": "https://maps.gstatic.com/mapfiles/place_api/icons/v1/png_71/civic_building-71.png", "name": "Telecom", "place_id": "ChIJYzm0a7Di0YURITTPG0NvKTw", "plus_code": {"compound_code": "9X5W+JQ Mexico City", "global_code": "76F29X5W+JQ"}, "rating": 4, "reference": "ChIJYzm0a7Di0YURITTPG0NvKTw", "types": ["local_government_office", "point_of_interest", "establishment"], "user_ratings_total": 1}, {"business_status": "OPERATIONAL", "formatted_address": "Rosario Sn, 2da Amp Santiago Acahualtepec, Iztapalapa, 11220 Miguel Hidalgo, CDMX", "geometry": {"location": {"lat": 19.3470928, "lng": -99.0128387}, "viewport": {"northeast": {"lat": 19.34843217989273, "lng": -99.01143952010727}, "southwest": {"lat": 19.34573252010728, "lng": -99.01413917989272}}}, "icon": "https://maps.gstatic.com/mapfiles/place_api/icons/v1/png_71/civic_building-71.png", "name": "Preparotoria del Gobierno", "place_id": "ChIJewUWZFcA0oURTzAiKs5h5y4", "plus_code": {"compound_code": "8XWP+RV Mexico City", "global_code": "76F28XWP+RV"}, "rating": 0, "reference": "ChIJewUWZFcA0oURTzAiKs5h5y4", "types": ["local_government_office", "point_of_interest", "establishment"], "user_ratings_total": 0}, {"business_status": "OPERATIONAL", "formatted_address": "Av Cuatro No. 58, Santa Cruz Meyehualco, Iztapalapa, 09227 Ciudad de M\u00e9xico, CDMX", "geometry": {"location": {"lat": 19.3458378, "lng": -99.0441883}, "viewport": {"northeast": {"lat": 19.34709957989272, "lng": -99.04282892010728}, "southwest": {"lat": 19.34439992010728, "lng": -99.04552857989272}}}, "icon": "https://maps.gstatic.com/mapfiles/place_api/icons/v1/png_71/civic_building-71.png", "name": "Tesorer\u00eda Meyehualco", "opening_hours": {"open_now": false}, "photos": [{"height": 3984, "html_attributions": ["<a href=\"https://maps.google.com/maps/contrib/110507996501409451044\">Josue Cervantes</a>"], "photo_reference": "CmRaAAAAiz5kcKCIe3UHi6MIBthbWbX6GZOY286WbxJY1Qj0xwfCXSG4ekraHRT9PIQGGUeHOPxACErrBbSz_y683KwTmwwnPeQ_ny7AXRi_s_tkvbL_47jRK2CkxOHYJKafDSvrEhDwjICDcGjaFuUdY0kp3ScvGhQrMvwkC_gs30iHMqzqyt-4O0SV7w", "width": 2988}], "place_id": "ChIJIZmxOmL90YURfgP79MYYGw8", "plus_code": {"compound_code": "8XW4+88 Mexico City", "global_code": "76F28XW4+88"}, "rating": 3.9, "reference": "ChIJIZmxOmL90YURfgP79MYYGw8", "types": ["local_government_office", "point_of_interest", "establishment"], "user_ratings_total": 21}, {"business_status": "OPERATIONAL", "formatted_address": "Calz. Ignacio Zaragoza 2005, Juan Escutia, Iztapalapa, 09100 Ciudad de M\u00e9xico, CDMX", "geometry": {"location": {"lat": 19.3860229, "lng": -99.0357751}, "viewport": {"northeast": {"lat": 19.38719847989272, "lng": -99.03454697010727}, "southwest": {"lat": 19.38449882010728, "lng": -99.03724662989272}}}, "icon": "https://maps.gstatic.com/mapfiles/place_api/icons/v1/png_71/civic_building-71.png", "name": "Modulo de control vehicular y licencias", "opening_hours": {"open_now": false}, "photos": [{"height": 2448, "html_attributions": ["<a href=\"https://maps.google.com/maps/contrib/109818310361774618641\">benjamin uribe</a>"], "photo_reference": "CmRaAAAAjZTI3VJEEw95qRppHR4q0tWVrS4vq3olOfICMp90w25Z0fJRfFhQ2Ir6KJLN4LZruLjkDclWV4njR6NXfSJruSarwkQQEVBBI-EyhJYhNedpmUdiHRtY1fsNzlbykUPdEhB2A2KRSX56ziVedMwIar_gGhQvPUTOv-THhWwPjt4ferCXBHMmTQ", "width": 3264}], "place_id": "ChIJte8TNX790YURczolnya3RYk", "plus_code": {"compound_code": "9XP7+CM Mexico City", "global_code": "76F29XP7+CM"}, "rating": 2.5, "reference": "ChIJte8TNX790YURczolnya3RYk", "types": ["local_government_office", "point_of_interest", "establishment"], "user_ratings_total": 4}, {"business_status": "OPERATIONAL", "formatted_address": "Ermita Iztapalapa 3417, Xalpa, Iztapalapa, 09640 Ciudad de M\u00e9xico, CDMX", "geometry": {"location": {"lat": 19.3476597, "lng": -99.0179508}, "viewport": {"northeast": {"lat": 19.34917412989272, "lng": -99.01699287010729}, "southwest": {"lat": 19.34647447010728, "lng": -99.01969252989272}}}, "icon": "https://maps.gstatic.com/mapfiles/place_api/icons/v1/png_71/civic_building-71.png", "name": "SACMEX OAP Sta. Cruz", "photos": [{"height": 1080, "html_attributions": ["<a href=\"https://maps.google.com/maps/contrib/116776458341118579922\">Jose Ramon Luna Cadenas</a>"], "photo_reference": "CmRaAAAAbUWDQrtCr4Yj2MS-KitTWjftj981qHwVzPNbf_JqShXvrrq46K7W2Gafwc1n8rQohuug_ZViAFWFWcoD36XkvTMfOHS4Cpq1_xvI9iLdWAQ19_oHFEzvVSa4_zQWauoAEhDut-Ufnp2Uam6QZkQ1__0tGhS9h-QXTgKTU1kE41FY0rAaCO58fw", "width": 1620}], "place_id": "ChIJITsI01X90YURZ1d7r7mJOaM", "plus_code": {"compound_code": "8XXJ+3R Mexico City", "global_code": "76F28XXJ+3R"}, "rating": 3.8, "reference": "ChIJITsI01X90YURZ1d7r7mJOaM", "types": ["local_government_office", "point_of_interest", "establishment"], "user_ratings_total": 8}]