[{"business_status": "OPERATIONAL", "formatted_address": "Ermita Iztapalapa 100, San Pablo, Iztapalapa, 09000 Ciudad de M\u00e9xico, CDMX", "geometry": {"location": {"lat": 19.3577118, "lng": -99.0875015}, "viewport": {"northeast": {"lat": 19.35892557989272, "lng": -99.08626027010729}, "southwest": {"lat": 19.35622592010728, "lng": -99.08895992989272}}}, "icon": "https://maps.gstatic.com/mapfiles/place_api/icons/v1/png_71/museum-71.png", "name": "Museum of Cultures By Iztapalapa Passion", "opening_hours": {"open_now": false}, "photos": [{"height": 2448, "html_attributions": ["<a href=\"https://maps.google.com/maps/contrib/103414011285415466598\">Diana Saavedra</a>"], "photo_reference": "CmRaAAAAs7zZqtyv-g1PGGThQsXoEC8c_YTjLFkn2-gol8Xte-L8pIRDirvVYtcSAkt6wNix49xCwu7eLE9-BrVkbLPZEv1F1KiX3s9LDhSKThfAMoOB4yWrspJPALj4dBLDjC8TEhBLoGZRe9bInUNUbIQSbZo1GhR_RQLJXL2i5KBB_1OwjxX-FyyACw", "width": 3264}], "place_id": "ChIJs2qaH-_90YURPoYyZ3ZSlxA", "plus_code": {"compound_code": "9W56+3X Mexico City", "global_code": "76F29W56+3X"}, "rating": 4.4, "reference": "ChIJs2qaH-_90YURPoYyZ3ZSlxA", "types": ["museum", "tourist_attraction", "point_of_interest", "establishment"], "user_ratings_total": 519}, {"business_status": "OPERATIONAL", "formatted_address": "Carrretera Escenica al cerro de la estrella Km 2 S/N Ampliacion Veracruzana, Parque Nacional Cerro de la Estrella, 09856 Iztapalapa, CDMX", "geometry": {"location": {"lat": 19.3481804, "lng": -99.0914754}, "viewport": {"northeast": {"lat": 19.34949492989272, "lng": -99.09021587010727}, "southwest": {"lat": 19.34679527010728, "lng": -99.09291552989272}}}, "icon": "https://maps.gstatic.com/mapfiles/place_api/icons/v1/png_71/museum-71.png", "name": "New Fire Museum", "opening_hours": {"open_now": false}, "photos": [{"height": 381, "html_attributions": ["<a href=\"https://maps.google.com/maps/contrib/114978382915770117536\">Eduardo Estrada</a>"], "photo_reference": "CmRaAAAAAQJ_215ZX66HqpFgfcfDzPaM-2i5ALS3RI_WzM4arcV-17lQdJ3ADIl2BzNraY7H9T8-rp9TnnJl9go-LF-0Z-hJailxPRZPW6FXS06BATiwGud9T9WTzF0L9xsNz8uHEhDcHWGfzBNzKPO863tnVZDuGhQ3QIrxmzHY9d01rZBACfRvjs8QMg", "width": 1440}], "place_id": "ChIJXa5Vx_n90YURs_lMS6srvdQ", "plus_code": {"compound_code": "8WX5+7C Parque Nacional Cerro de la Estrella, Mexico City", "global_code": "76F28WX5+7C"}, "rating": 4.4, "reference": "ChIJXa5Vx_n90YURs_lMS6srvdQ", "types": ["tourist_attraction", "museum", "point_of_interest", "establishment"], "user_ratings_total": 1338}, {"business_status": "OPERATIONAL", "formatted_address": "Camino Cerro de la Estrella 10, El Molino Iztapalapa, Iztapalapa, 09850 Ciudad de M\u00e9xico, CDMX", "geometry": {"location": {"lat": 19.3543257, "lng": -99.0903483}, "viewport": {"northeast": {"lat": 19.35570687989273, "lng": -99.08915722010728}, "southwest": {"lat": 19.35300722010728, "lng": -99.09185687989272}}}, "icon": "https://maps.gstatic.com/mapfiles/place_api/icons/v1/png_71/museum-71.png", "name": "Via Crucis, Iztapalapa", "photos": [{"height": 2268, "html_attributions": ["<a href=\"https://maps.google.com/maps/contrib/107961510344578599921\">A Google User</a>"], "photo_reference": "CmRaAAAAO8NVju0ew4O_GeUwMkVhiiF2bmr4h-0poPcrqC6Gx7NfcuGsrH0BIGKAeDMqCZuquIFKvgYs7lYaIr_m0nQ6rt7syMzs8kicACEKT6t_CTwOBYWrT9TcFtaiaAHVHNEHEhA39-bgIQCgSoArPJSoe2trGhSMFyxuJtlJSMEiif2eHi52NPwW7g", "width": 4032}], "place_id": "ChIJP5pxX-X90YURduCoFgav5zY", "plus_code": {"compound_code": "9W35+PV Mexico City", "global_code": "76F29W35+PV"}, "rating": 3.9, "reference": "ChIJP5pxX-X90YURduCoFgav5zY", "types": ["museum", "point_of_interest", "establishment"], "user_ratings_total": 11}, {"business_status": "OPERATIONAL", "formatted_address": "El Santuario, Iztapalapa, 09820 Mexico City", "geometry": {"location": {"lat": 19.3546431, "lng": -99.0915069}, "viewport": {"northeast": {"lat": 19.35612832989273, "lng": -99.09010102010728}, "southwest": {"lat": 19.35342867010728, "lng": -99.09280067989273}}}, "icon": "https://maps.gstatic.com/mapfiles/place_api/icons/v1/png_71/museum-71.png", "name": "Basamento construcciones antig\u00fcas", "opening_hours": {"open_now": true}, "photos": [{"height": 3456, "html_attributions": ["<a href=\"https://maps.google.com/maps/contrib/106666472507068300921\">Xiuh Mitl</a>"], "photo_reference": "CmRaAAAAEApgSdfSDEEJ3yEnqcDoosSn1rW88y6n9vX0uuiv7VRuI4AgdebDGayKCPMK9uraB3r5d0_7a2Hb9eKcvR3Aq0AxoWUivh7nwfzKK27bwtohouMML-i0sBZCDJys5lbzEhBULlZ1OXXgiGHW1F23lcKKGhTJlgb8DU1aAg6SSDF3M8qSZb7-1g", "width": 4608}], "place_id": "ChIJQeH4auX90YUR1kUdXj4wYFc", "plus_code": {"compound_code": "9W35+V9 Mexico City", "global_code": "76F29W35+V9"}, "rating": 4.5, "reference": "ChIJQeH4auX90YUR1kUdXj4wYFc", "types": ["museum", "point_of_interest", "establishment"], "user_ratings_total": 4}, {"business_status": "OPERATIONAL", "formatted_address": "09820 de, Cuitl\u00e1huac 14, El Santuario, Iztapalapa, 09836 Ciudad de M\u00e9xico, CDMX", "geometry": {"location": {"lat": 19.3546955, "lng": -99.0911751}, "viewport": {"northeast": {"lat": 19.35606647989272, "lng": -99.08982667010729}, "southwest": {"lat": 19.35336682010728, "lng": -99.09252632989272}}}, "icon": "https://maps.gstatic.com/mapfiles/place_api/icons/v1/png_71/museum-71.png", "name": "Ceremonial Enlace", "place_id": "ChIJ0zcHaeX90YURCMqHKan2tJ0", "plus_code": {"compound_code": "9W35+VG Mexico City", "global_code": "76F29W35+VG"}, "rating": 3, "reference": "ChIJ0zcHaeX90YURCMqHKan2tJ0", "types": ["museum", "point_of_interest", "establishment"], "user_ratings_total": 2}, {"business_status": "OPERATIONAL", "formatted_address": "Aldama, San Pablo, Iztapalapa, 09000 Ciudad de M\u00e9xico, CDMX", "geometry": {"location": {"lat": 19.3593989, "lng": -99.0922859}, "viewport": {"northeast": {"lat": 19.36074792989272, "lng": -99.09067172010728}, "southwest": {"lat": 19.35804827010728, "lng": -99.09337137989272}}}, "icon": "https://maps.gstatic.com/mapfiles/place_api/icons/v1/png_71/museum-71.png", "name": "Archivo Hist\u00f3rico de Iztapalapa", "opening_hours": {"open_now": false}, "photos": [{"height": 3264, "html_attributions": ["<a href=\"https://maps.google.com/maps/contrib/104982787509878722662\">RAY DE LEON</a>"], "photo_reference": "CmRaAAAAgPJeEFU6xhD6bM3zq8vRWEfSmSyHDlqfA1svE_SndCnE0B2hLihyKVefwuZrZ2UKwgqYdy16UXHav5rrxyNR0SJi05yJwsuOn2EtOLofB4aptoPzbw1Rg6q721e1iwc1EhB0kkjpmqzB8yb-v0c8sHMuGhSO-yU-Uh8gOIeRgHqJ2wkjO2qJlA", "width": 2448}], "place_id": "ChIJy_X78ub90YURQkThwrNFuBA", "plus_code": {"compound_code": "9W55+Q3 Mexico City", "global_code": "76F29W55+Q3"}, "rating": 4, "reference": "ChIJy_X78ub90YURQkThwrNFuBA", "types": ["museum", "point_of_interest", "establishment"], "user_ratings_total": 31}, {"business_status": "OPERATIONAL", "formatted_address": "Cuitl\u00e1huac 14, El Santuario, Iztapalapa, 09836 Ciudad de M\u00e9xico, CDMX", "geometry": {"location": {"lat": 19.3546979, "lng": -99.0914878}, "viewport": {"northeast": {"lat": 19.35615627989272, "lng": -99.09009302010728}, "southwest": {"lat": 19.35345662010728, "lng": -99.09279267989271}}}, "icon": "https://maps.gstatic.com/mapfiles/place_api/icons/v1/png_71/museum-71.png", "name": "SITIO ARQUEOLOGICO EL SANTUARIO", "photos": [{"height": 615, "html_attributions": ["<a href=\"https://maps.google.com/maps/contrib/117341186074943503834\">Alfredo Morales</a>"], "photo_reference": "CmRaAAAA7x78fzQ8O7envP-UEVaGhTkI7C0PSsHUgDKpl_LLSe_Ydr1rqCPQi4Vht2k-HnyYMWj8eIfcnORwK2hcLRgZX7dsPbelJXYRhpFrA3TEpeMnGXLt8DMozf92k_o1JkMpEhDjP455RwdKEoNBZugBEg6EGhRQ1nd0Bm3gXhQOt1nfwiZXCcYp-Q", "width": 1036}], "place_id": "ChIJ__IJfdX90YURCOU8dBpz_u8", "plus_code": {"compound_code": "9W35+VC Mexico City", "global_code": "76F29W35+VC"}, "rating": 0, "reference": "ChIJ__IJfdX90YURCOU8dBpz_u8", "types": ["museum", "point_of_interest", "establishment"], "user_ratings_total": 0}, {"business_status": "OPERATIONAL", "formatted_address": "Parque Nacional Cerro de la Estrella, Iztapalapa, Mexico City, CDMX", "geometry": {"location": {"lat": 19.3477365, "lng": -99.0886656}, "viewport": {"northeast": {"lat": 19.34908632989272, "lng": -99.08731577010728}, "southwest": {"lat": 19.34638667010728, "lng": -99.09001542989273}}}, "icon": "https://maps.gstatic.com/mapfiles/place_api/icons/v1/png_71/museum-71.png", "name": "Cueva \"Humeda\" O Cueva Del \"Oso\"", "photos": [{"height": 3096, "html_attributions": ["<a href=\"https://maps.google.com/maps/contrib/104186637011015875100\">shached miranda avila</a>"], "photo_reference": "CmRaAAAALxSC4Nklzyj5rPjMGk9WlEl-St39MDSITPL3BWio56BB_GztNhreL_7ifuulpbAGuOWeFCWd8xugEINfhtrpNLl-zwAW50Mct6MVt4KrL4HrEvxANcVc9IeShmNZqR3BEhDzF83VYKRTBV2zowjhhJxkGhTfIU0laHfZTQwGdCPuevAA7D9JMQ", "width": 4128}], "place_id": "ChIJ7ThsvOn90YURyU17qzhxLec", "plus_code": {"compound_code": "8WX6+3G Mexico City", "global_code": "76F28WX6+3G"}, "rating": 0, "reference": "ChIJ7ThsvOn90YURyU17qzhxLec", "types": ["museum", "point_of_interest", "establishment"], "user_ratings_total": 0}, {"business_status": "OPERATIONAL", "formatted_address": "Acceso al Paradero, Los \u00c1ngeles, Iztapalapa, 09830 Ciudad de M\u00e9xico, CDMX", "geometry": {"location": {"lat": 19.3461745, "lng": -99.0661185}, "viewport": {"northeast": {"lat": 19.34752032989272, "lng": -99.06475542010728}, "southwest": {"lat": 19.34482067010728, "lng": -99.06745507989272}}}, "icon": "https://maps.gstatic.com/mapfiles/place_api/icons/v1/png_71/museum-71.png", "name": "Museo Interactivo Infantil", "photos": [{"height": 3840, "html_attributions": ["<a href=\"https://maps.google.com/maps/contrib/117344647162288322416\">Miguel \u00c1ngel Durazno Romero</a>"], "photo_reference": "CmRaAAAAUyQHWFTk3E3OIz6yaOynOp954dB5TGtCuznH7PWVGi3-7od9H9Fe9XaDbI5UmyhPGVKxukBMdFWMNw8dlHK8X7fLw4Z73IBi4HCNL_JKWobQsqeAMV7E9btJPbN3Y-CcEhDdNMRpzJ689Kd4E_UfHvBvGhTNTYf3oIwGym8eHZPR3OsknlmI2Q", "width": 2160}], "place_id": "ChIJJyFpsUT90YURDA2u3YRehR8", "plus_code": {"compound_code": "8WWM+FH Mexico City", "global_code": "76F28WWM+FH"}, "rating": 4.5, "reference": "ChIJJyFpsUT90YURDA2u3YRehR8", "types": ["museum", "point_of_interest", "establishment"], "user_ratings_total": 8}, {"business_status": "OPERATIONAL", "formatted_address": "Anillo Perif. 47-55, U.H. Vicente Guerrero, Iztapalapa, 09200 Ciudad de M\u00e9xico, CDMX", "geometry": {"location": {"lat": 19.3623443, "lng": -99.0571313}, "viewport": {"northeast": {"lat": 19.36367877989272, "lng": -99.05570722010728}, "southwest": {"lat": 19.36097912010728, "lng": -99.05840687989271}}}, "icon": "https://maps.gstatic.com/mapfiles/place_api/icons/v1/png_71/museum-71.png", "name": "Dinosauria Animatronix", "photos": [{"height": 2268, "html_attributions": ["<a href=\"https://maps.google.com/maps/contrib/102706958046150983598\">A Google User</a>"], "photo_reference": "CmRaAAAAwqytoCzQJeenX30fQqaC65Q_q8jL65jARI2qdOGAHbDkENpUUAuLR9zSuDvEvJTS7KPXE0v3PZDy0KzEqTvmCVUkPPRyxx7vzwoG_mLcZt7m8cRWPc1oXCmR6KMLkhhVEhAD2FB1Tnf2vbWemyZ9VFU5GhTxP_4PRkeuTNTZFqroB0JAMmjO9w", "width": 4032}], "place_id": "ChIJD4mbIJ790YUR-w0Obk1ftrE", "plus_code": {"compound_code": "9W6V+W4 Mexico City", "global_code": "76F29W6V+W4"}, "rating": 4, "reference": "ChIJD4mbIJ790YUR-w0Obk1ftrE", "types": ["museum", "tourist_attraction", "point_of_interest", "establishment"], "user_ratings_total": 96}, {"business_status": "OPERATIONAL", "formatted_address": "Museo 150, San Pablo Tepetlapa, Coyoac\u00e1n, 04620 Ciudad de M\u00e9xico, CDMX", "geometry": {"location": {"lat": 19.3231754, "lng": -99.1439285}, "viewport": {"northeast": {"lat": 19.32425462989272, "lng": -99.14230537010728}, "southwest": {"lat": 19.32155497010728, "lng": -99.14500502989272}}}, "icon": "https://maps.gstatic.com/mapfiles/place_api/icons/v1/png_71/museum-71.png", "name": "Museo Anahuacalli", "opening_hours": {"open_now": false}, "photos": [{"height": 784, "html_attributions": ["<a href=\"https://maps.google.com/maps/contrib/107160462899974481589\">Victor Fernando Hern\u00e1ndez Ulloa</a>"], "photo_reference": "CmRaAAAAlVcyPc7tPtc4nhHe_aKu8yJdBccCF7slojmIlOSoj-5jV8jPosyJOamtOqh5_XIlU95jPOCWJzM-XZuzChD1ZoyzhgzW7ymroFkopkV3Uhl_gqCg2cgjx00aY4wVsDN8EhB6SOunbxWQAngYcvfv9j8OGhTyg8bqi6ixshCvjM86ecpt2oD4Ew", "width": 1080}], "place_id": "ChIJE-z088wBzoURBQC1jpv8UXc", "plus_code": {"compound_code": "8VF4+7C Mexico City", "global_code": "76F28VF4+7C"}, "rating": 4.7, "reference": "ChIJE-z088wBzoURBQC1jpv8UXc", "types": ["museum", "art_gallery", "tourist_attraction", "point_of_interest", "establishment"], "user_ratings_total": 5165}, {"business_status": "CLOSED_TEMPORARILY", "formatted_address": "20 de Agosto s/n, San Diego Churubusco, Coyoac\u00e1n, 04120 Ciudad de M\u00e9xico, CDMX", "geometry": {"location": {"lat": 19.3550024, "lng": -99.14879499999999}, "viewport": {"northeast": {"lat": 19.35628362989272, "lng": -99.14778272010729}, "southwest": {"lat": 19.35358397010728, "lng": -99.15048237989272}}}, "icon": "https://maps.gstatic.com/mapfiles/place_api/icons/v1/png_71/museum-71.png", "name": "National Museum of Interventions", "permanently_closed": true, "photos": [{"height": 3792, "html_attributions": ["<a href=\"https://maps.google.com/maps/contrib/102704828972671985097\">Santiago</a>"], "photo_reference": "CmRaAAAAkPxowiK0RrCD22o3GVNHV_CkC5VXzUwrBQdvKPqFdkueZikaksaboYOpkDeOIzC9bR073CM2wnClEB8VpIHVbI6qIuWK_iJQh9Mysre7gIXLPTJG4sVU-7EFolMXMR4kEhCDeKZ2boBu8FG2FFeV7dauGhTbBoCmKxMpDez7NWWqDeA4t-x4jw", "width": 5056}], "place_id": "ChIJMUgTY8z_0YURQVR0mAgAZYo", "plus_code": {"compound_code": "9V42+2F Mexico City", "global_code": "76F29V42+2F"}, "rating": 4.6, "reference": "ChIJMUgTY8z_0YURQVR0mAgAZYo", "types": ["tourist_attraction", "museum", "point_of_interest", "establishment"], "user_ratings_total": 7531}, {"business_status": "OPERATIONAL", "formatted_address": "Av. Jos\u00e9 Ma. Morelos 10, Culhuacan, Iztapalapa, 09800 Ciudad de M\u00e9xico, CDMX", "geometry": {"location": {"lat": 19.3398939, "lng": -99.10747889999999}, "viewport": {"northeast": {"lat": 19.34105552989272, "lng": -99.10645207010727}, "southwest": {"lat": 19.33835587010728, "lng": -99.10915172989272}}}, "icon": "https://maps.gstatic.com/mapfiles/place_api/icons/v1/png_71/museum-71.png", "name": "Former Convent of San Juan Evangelista Culhuac\u00e1n", "opening_hours": {"open_now": false}, "photos": [{"height": 3326, "html_attributions": ["<a href=\"https://maps.google.com/maps/contrib/116950746933876144643\">Luis Valle Alfaro</a>"], "photo_reference": "CmRaAAAABHsPWwljvQby53K18R9ZuIeGnHdglMzhMSMSGjeXke90oHqmJlGXYHsIBI8xeW54OR019xnxby2aNsd81PPp08YCVg3PZ_ayNpr7jvpBECQU6UxUKsA9c3FS7SjoR4tgEhDtnj0zDwjR6BcMOWLRuocdGhQkic5qZNrpRCDRllkXUa6YvApmbQ", "width": 4987}], "place_id": "ChIJQ16Y7f0BzoUR1qDtZh01mUE", "plus_code": {"compound_code": "8VQV+X2 Mexico City", "global_code": "76F28VQV+X2"}, "rating": 4.4, "reference": "ChIJQ16Y7f0BzoUR1qDtZh01mUE", "types": ["museum", "tourist_attraction", "point_of_interest", "establishment"], "user_ratings_total": 1066}, {"business_status": "OPERATIONAL", "formatted_address": "Complejo Industrial Tecnol\u00f3gico, Iztapalapa, Mexico City", "geometry": {"location": {"lat": 19.3691058, "lng": -99.0564965}, "viewport": {"northeast": {"lat": 19.37044737989272, "lng": -99.05502472010727}, "southwest": {"lat": 19.36774772010728, "lng": -99.05772437989272}}}, "icon": "https://maps.gstatic.com/mapfiles/place_api/icons/v1/png_71/museum-71.png", "name": "Museo de cera", "place_id": "ChIJ536fCQz90YURYncvG1Be76I", "plus_code": {"compound_code": "9W9V+JC Mexico City", "global_code": "76F29W9V+JC"}, "rating": 0, "reference": "ChIJ536fCQz90YURYncvG1Be76I", "types": ["museum", "point_of_interest", "establishment"], "user_ratings_total": 0}, {"business_status": "OPERATIONAL", "formatted_address": "Calle Tlatolcatzin 11, Zona Urbana Ejidal los Reyes Culhuacan, Iztapalapa, 09840 Ciudad de M\u00e9xico, CDMX", "geometry": {"location": {"lat": 19.345672, "lng": -99.10015620000001}, "viewport": {"northeast": {"lat": 19.34702082989272, "lng": -99.09880207010728}, "southwest": {"lat": 19.34432117010728, "lng": -99.10150172989273}}}, "icon": "https://maps.gstatic.com/mapfiles/place_api/icons/v1/png_71/museum-71.png", "name": "Black\u00c1nimaTattoo", "place_id": "ChIJ39hsiC_90YUR7OYdw5ucgQM", "plus_code": {"compound_code": "8VWX+7W Mexico City", "global_code": "76F28VWX+7W"}, "rating": 0, "reference": "ChIJ39hsiC_90YUR7OYdw5ucgQM", "types": ["museum", "point_of_interest", "establishment"], "user_ratings_total": 0}, {"business_status": "OPERATIONAL", "formatted_address": "09230 de, Quetzal 22, El Para\u00edso, Iztapalapa, Ciudad de M\u00e9xico, CDMX", "geometry": {"location": {"lat": 19.3738865, "lng": -99.0328078}, "viewport": {"northeast": {"lat": 19.37509092989272, "lng": -99.03145572010727}, "southwest": {"lat": 19.37239127010728, "lng": -99.03415537989272}}}, "icon": "https://maps.gstatic.com/mapfiles/place_api/icons/v1/png_71/museum-71.png", "name": "Colecci\u00f3n Paleontol\u00f3gica FESZ", "opening_hours": {"open_now": false}, "photos": [{"height": 1536, "html_attributions": ["<a href=\"https://maps.google.com/maps/contrib/102317003358070363119\">Diego E. Lozano-Carmona</a>"], "photo_reference": "CmRaAAAAUhFpEKOcKxEO6jHJxebcArTSbEjDXU4UExJ2sRnXdRP3qvYV7Eb8u_LVQDpToIH3VCm-3iGNwjx99un1XRRFUly7Azuk3iavj3dYgTUidgLY2WY_ig_3AwK7N04el8GhEhAX0CVaTH7j45DDQoD2tSqoGhQBYNZrbe20jSBXHD9s5f7Yu6vT7g", "width": 2048}], "place_id": "ChIJ52OWcD790YURFskW0na_fJc", "plus_code": {"compound_code": "9XF8+HV Mexico City", "global_code": "76F29XF8+HV"}, "rating": 4.6, "reference": "ChIJ52OWcD790YURFskW0na_fJc", "types": ["museum", "point_of_interest", "establishment"], "user_ratings_total": 5}, {"business_status": "OPERATIONAL", "formatted_address": "Av Guelatao S/N, Col. U.H, Cabeza de Ju\u00e1rez III, Iztapalapa, 09227 Ciudad de M\u00e9xico, CDMX", "geometry": {"location": {"lat": 19.3827223, "lng": -99.0390568}, "viewport": {"northeast": {"lat": 19.38466367989272, "lng": -99.03739947010727}, "southwest": {"lat": 19.38196402010728, "lng": -99.04009912989271}}}, "icon": "https://maps.gstatic.com/mapfiles/place_api/icons/v1/png_71/museum-71.png", "name": "Museo Cabeza de Ju\u00e1rez", "opening_hours": {"open_now": false}, "photos": [{"height": 1840, "html_attributions": ["<a href=\"https://maps.google.com/maps/contrib/104126592837852838389\">Daniel Zanabria Gonz\u00e1lez</a>"], "photo_reference": "CmRaAAAA7DdokOhdj6GI4a3HWriVPPje1Eu5sSVEcGNq049h-nMUIgr3ONtkli1vu-Ui3fk8HJYyYPG5XOqkObnVYM7iNVxp1LXoI09tyyO1FE4BxrNNpaxbIzlC9VmckgqthxNFEhDdQh5uZkQOvneETF4Sv_K_GhTDaeRdV5wyaeLyrIqMstslS8svtg", "width": 3264}], "place_id": "ChIJQYhQEhn90YURWVngv2UZPuY", "plus_code": {"compound_code": "9XM6+39 Cabeza de Ju\u00e1rez III, Mexico City", "global_code": "76F29XM6+39"}, "rating": 3.7, "reference": "ChIJQYhQEhn90YURWVngv2UZPuY", "types": ["tourist_attraction", "museum", "point_of_interest", "establishment"], "user_ratings_total": 2390}, {"business_status": "OPERATIONAL", "formatted_address": "Jardines de Churubusco, Iztapalapa, 09410 Mexico City", "geometry": {"location": {"lat": 19.3747287, "lng": -99.1065359}, "viewport": {"northeast": {"lat": 19.37606422989272, "lng": -99.1051190201073}, "southwest": {"lat": 19.37336457010728, "lng": -99.10781867989274}}}, "icon": "https://maps.gstatic.com/mapfiles/place_api/icons/v1/png_71/museum-71.png", "name": "Matetajojuman", "place_id": "ChIJAQAATHf-0YURC7njrjZW3sw", "plus_code": {"compound_code": "9VFV+V9 Mexico City", "global_code": "76F29VFV+V9"}, "rating": 0, "reference": "ChIJAQAATHf-0YURC7njrjZW3sw", "types": ["museum", "point_of_interest", "establishment"], "user_ratings_total": 0}, {"business_status": "OPERATIONAL", "formatted_address": "\u00c1rea Federal Pante\u00f3n Civil San Nicol\u00e1s Tolentino, Iztapalapa, Mexico City", "geometry": {"location": {"lat": 19.334187, "lng": -99.09026349999999}, "viewport": {"northeast": {"lat": 19.33555027989272, "lng": -99.08892472010729}, "southwest": {"lat": 19.33285062010728, "lng": -99.09162437989274}}}, "icon": "https://maps.gstatic.com/mapfiles/place_api/icons/v1/png_71/museum-71.png", "name": "Sr. Ricardo Miranda Aldama", "place_id": "ChIJ5chmXw8CzoURyEUHY0yRNnk", "plus_code": {"compound_code": "8WM5+MV Mexico City", "global_code": "76F28WM5+MV"}, "rating": 4.3, "reference": "ChIJ5chmXw8CzoURyEUHY0yRNnk", "types": ["museum", "point_of_interest", "establishment"], "user_ratings_total": 6}, {"business_status": "OPERATIONAL", "formatted_address": "Calz. de Tlalpan 1836, Country Club Churubusco, Coyoac\u00e1n, 04220 Ciudad de M\u00e9xico, CDMX", "geometry": {"location": {"lat": 19.3511143, "lng": -99.14508819999999}, "viewport": {"northeast": {"lat": 19.35248487989272, "lng": -99.14389707010727}, "southwest": {"lat": 19.34978522010728, "lng": -99.1465967298927}}}, "icon": "https://maps.gstatic.com/mapfiles/place_api/icons/v1/png_71/museum-71.png", "name": "MUEFA, Museo del Ej\u00e9rcito y de la Fuerza A\u00e9rea", "opening_hours": {"open_now": false}, "photos": [{"height": 1836, "html_attributions": ["<a href=\"https://maps.google.com/maps/contrib/107228837531360243164\">Luis Medittello</a>"], "photo_reference": "CmRaAAAA8CUnoDJ-5Ssc1h5TuQFvsFvYGxSLSmDsaSTkK3jYi97TG-lx1xrYVlRXIY5jfM9l2BREO3tiWzsX7NMXJoz5n983LtDNf5haVn1KJi9q0YhwaKJCiuZau776EbFMA_hoEhCXeu9lBjC3T54_D7mPqQnvGhSXB8ZGM7RbFcGBUaFDb20z0MyaNw", "width": 3264}], "place_id": "ChIJZTMErjL-0YURBU8Dj-O1oYY", "plus_code": {"compound_code": "9V23+CX Mexico City", "global_code": "76F29V23+CX"}, "rating": 4.5, "reference": "ChIJZTMErjL-0YURBU8Dj-O1oYY", "types": ["museum", "tourist_attraction", "point_of_interest", "establishment"], "user_ratings_total": 655}]