[{"business_status": "OPERATIONAL", "formatted_address": "Ermita Iztapalapa 1441, El Manto, Iztapalapa, 09960 Ciudad de M\u00e9xico, CDMX", "geometry": {"location": {"lat": 19.3558316, "lng": -99.0862904}, "viewport": {"northeast": {"lat": 19.35730732989272, "lng": -99.08484062010729}, "southwest": {"lat": 19.35460767010728, "lng": -99.08754027989274}}}, "icon": "https://maps.gstatic.com/mapfiles/place_api/icons/v1/png_71/pharmacy-71.png", "name": "Farmacia Farmatodo", "opening_hours": {"open_now": true}, "photos": [{"height": 2322, "html_attributions": ["<a href=\"https://maps.google.com/maps/contrib/105706215168553258271\">Anton Milla</a>"], "photo_reference": "CmRaAAAAzCdiKcrFMLN4Sf9hdSXSUGEY_eGTFb1Ke7-4y4AEdNTnypKq61NZEq44VdRS0AlpeWX0mDrVo-Mg871JHecGMS5OQdBj_RDJU1D66PrTmTQTvzJ_7gI3PwHU8dcmjnM4EhB0lBTSDPUmMurD-KygzIH-GhT1ZuiDmZRePuoZZTdR7033aV-Adw", "width": 4128}], "place_id": "ChIJdRw2WO790YURzQp2xzgXXR8", "plus_code": {"compound_code": "9W47+8F Mexico City", "global_code": "76F29W47+8F"}, "rating": 4, "reference": "ChIJdRw2WO790YURzQp2xzgXXR8", "types": ["pharmacy", "health", "point_of_interest", "store", "establishment"], "user_ratings_total": 10}, {"business_status": "OPERATIONAL", "formatted_address": "Javier, Av. Javier Rojo G\u00f3mez 3, San Miguel, Iztapalapa, 09360 CDMX", "geometry": {"location": {"lat": 19.3567794, "lng": -99.0862796}, "viewport": {"northeast": {"lat": 19.35815977989272, "lng": -99.08499182010728}, "southwest": {"lat": 19.35546012010728, "lng": -99.08769147989273}}}, "icon": "https://maps.gstatic.com/mapfiles/place_api/icons/v1/png_71/pharmacy-71.png", "name": "Farmacias YZA", "opening_hours": {"open_now": true}, "photos": [{"height": 4608, "html_attributions": ["<a href=\"https://maps.google.com/maps/contrib/101226785813533469313\">A Google User</a>"], "photo_reference": "CmRaAAAA1896NCrWEdXC9ENdX0XaAQH5Fkl3IwTGCYO8_VypJSkfK0smsLuWXW-F2yCrcUONRs4jC2Ss1947s2gbPdYwjjARzHn0q-u_TDZXKIXs8q2xUdhTmmlboykz1mEZfT-QEhAwV7XXt3CDBt5i1jEgJJdtGhTl2sHecn4WYToAjFtQ6ouYFm_5MQ", "width": 3456}], "place_id": "ChIJiS75FRX90YURMYB0kUaVGyI", "plus_code": {"compound_code": "9W47+PF San Miguel, Mexico City", "global_code": "76F29W47+PF"}, "rating": 4, "reference": "ChIJiS75FRX90YURMYB0kUaVGyI", "types": ["pharmacy", "health", "point_of_interest", "store", "establishment"], "user_ratings_total": 2}, {"business_status": "OPERATIONAL", "formatted_address": "Callej\u00f3n Estrella 13, San Pablo, Iztapalapa, 09000 Ciudad de M\u00e9xico, CDMX", "geometry": {"location": {"lat": 19.3573556, "lng": -99.0898768}, "viewport": {"northeast": {"lat": 19.35879282989272, "lng": -99.08839992010728}, "southwest": {"lat": 19.35609317010728, "lng": -99.09109957989273}}}, "icon": "https://maps.gstatic.com/mapfiles/place_api/icons/v1/png_71/pharmacy-71.png", "name": "Farmacia Homeopatica Rosano", "place_id": "ChIJ3WeuZ-_90YURVC_EqgbIkZI", "plus_code": {"compound_code": "9W46+W2 Mexico City", "global_code": "76F29W46+W2"}, "rating": 3, "reference": "ChIJ3WeuZ-_90YURVC_EqgbIkZI", "types": ["pharmacy", "health", "point_of_interest", "store", "establishment"], "user_ratings_total": 1}, {"business_status": "OPERATIONAL", "formatted_address": "Avenida Javier Rojo G\u00f3mez, Agr\u00edcola Oriental, 09000", "geometry": {"location": {"lat": 19.35745, "lng": -99.0863}, "viewport": {"northeast": {"lat": 19.35877477989273, "lng": -99.08489957010728}, "southwest": {"lat": 19.35607512010728, "lng": -99.08759922989272}}}, "icon": "https://maps.gstatic.com/mapfiles/place_api/icons/v1/png_71/pharmacy-71.png", "name": "SAN PABLO 1, IZTAPALAPA", "opening_hours": {"open_now": true}, "place_id": "ChIJSQkJ6-790YURU8P1XlRdb9M", "plus_code": {"compound_code": "9W47+XF Agr\u00edcola Oriental, Mexico City", "global_code": "76F29W47+XF"}, "rating": 2.6, "reference": "ChIJSQkJ6-790YURU8P1XlRdb9M", "types": ["pharmacy", "health", "point_of_interest", "store", "establishment"], "user_ratings_total": 5}, {"business_status": "OPERATIONAL", "formatted_address": "Av. Luis Hidalgo Monroy 161, San Pablo, Iztapalapa, 09000 Ciudad de M\u00e9xico, CDMX", "geometry": {"location": {"lat": 19.3582912, "lng": -99.08612839999999}, "viewport": {"northeast": {"lat": 19.35970357989272, "lng": -99.08474582010727}, "southwest": {"lat": 19.35700392010728, "lng": -99.08744547989272}}}, "icon": "https://maps.gstatic.com/mapfiles/place_api/icons/v1/png_71/pharmacy-71.png", "name": "Farmacia San Pablo Rojo G\u00f3mez", "opening_hours": {"open_now": true}, "photos": [{"height": 4032, "html_attributions": ["<a href=\"https://maps.google.com/maps/contrib/103483968845387622789\">Jose Luis Flores</a>"], "photo_reference": "CmRaAAAAjpSKBjSOTQtfgnWZOhVlAuy0xWcWwhXbWoIYVW6KiPaTlZrvJ5fGOj6FJBCw5VQJVCW1pstxKdUeOvzGBWvraK9jn3csoW835_jIqZqDIiMucYhtz_ioO4EE7244HXV1EhAsNBqtLdXvamc20sUaYRgwGhQlsUGthm2mI9hK0R-EqWGNU9UDdA", "width": 1816}], "place_id": "ChIJ3W6FzxH90YUR4Acw9CQ9uYg", "plus_code": {"compound_code": "9W57+8G Mexico City", "global_code": "76F29W57+8G"}, "rating": 4.2, "reference": "ChIJ3W6FzxH90YUR4Acw9CQ9uYg", "types": ["pharmacy", "health", "point_of_interest", "store", "establishment"], "user_ratings_total": 5}, {"business_status": "OPERATIONAL", "formatted_address": "Camino Cerro de la Estrella 34, San Pablo, Iztapalapa, 09000 Ciudad de M\u00e9xico, CDMX", "geometry": {"location": {"lat": 19.3565799, "lng": -99.09024749999999}, "viewport": {"northeast": {"lat": 19.35797337989272, "lng": -99.08883992010728}, "southwest": {"lat": 19.35527372010728, "lng": -99.09153957989272}}}, "icon": "https://maps.gstatic.com/mapfiles/place_api/icons/v1/png_71/pharmacy-71.png", "name": "FARMACIA DE GENERICOS", "opening_hours": {"open_now": false}, "place_id": "ChIJDQ2mfe_90YURydnCayPtxmo", "plus_code": {"compound_code": "9W45+JW Mexico City", "global_code": "76F29W45+JW"}, "rating": 0, "reference": "ChIJDQ2mfe_90YURydnCayPtxmo", "types": ["pharmacy", "health", "point_of_interest", "store", "establishment"], "user_ratings_total": 0}, {"business_status": "OPERATIONAL", "formatted_address": "Av. Javier Rojo G\u00f3mez 95, San Miguel, Iztapalapa, 09360 Ciudad de M\u00e9xico, CDMX", "geometry": {"location": {"lat": 19.359848, "lng": -99.084592}, "viewport": {"northeast": {"lat": 19.36122752989272, "lng": -99.08330232010728}, "southwest": {"lat": 19.35852787010728, "lng": -99.08600197989273}}}, "icon": "https://maps.gstatic.com/mapfiles/place_api/icons/v1/png_71/pharmacy-71.png", "name": "Farmacias del Ahorro Allende", "opening_hours": {"open_now": true}, "photos": [{"height": 1280, "html_attributions": ["<a href=\"https://maps.google.com/maps/contrib/103501074028945271122\">Fernando Gracia</a>"], "photo_reference": "CmRaAAAA02QtQmFW7lnbtKodUgZvi1EeT999kNOM0PloJXAY6uFT3kF3ZZGFgLEAE6Okw87vqEUPPAjJihmRKWcYSu5W0J3gh2xavtNOt-38NGfpVIlLGe2jow_iNub3r1jvwh0DEhDxhgRK-oSp6R8M0QtrLb6AGhSF3uhGjgxQz4g8RH9v49JZHr0dwA", "width": 720}], "place_id": "ChIJ4QBD5BD90YURz4GHb04nkRY", "plus_code": {"compound_code": "9W58+W5 Mexico City", "global_code": "76F29W58+W5"}, "rating": 3.2, "reference": "ChIJ4QBD5BD90YURz4GHb04nkRY", "types": ["pharmacy", "health", "point_of_interest", "store", "establishment"], "user_ratings_total": 11}, {"business_status": "OPERATIONAL", "formatted_address": "Ermita Iztapalapa 1541, 8va Amp San Miguel, Iztapalapa, 09837 Ciudad de M\u00e9xico, CDMX", "geometry": {"location": {"lat": 19.3546158, "lng": -99.0835769}, "viewport": {"northeast": {"lat": 19.35607602989272, "lng": -99.08217077010727}, "southwest": {"lat": 19.35337637010728, "lng": -99.08487042989272}}}, "icon": "https://maps.gstatic.com/mapfiles/place_api/icons/v1/png_71/pharmacy-71.png", "name": "Farmacias Guadalajara , El Manto", "opening_hours": {"open_now": true}, "photos": [{"height": 2592, "html_attributions": ["<a href=\"https://maps.google.com/maps/contrib/116977235713530997479\">Alfredo Serratos</a>"], "photo_reference": "CmRaAAAAApAOzbsqv46_L3fZLh02h5_j2I5lQKpIIbzisbHEuuibuViYe-tAD9OX7tXpMnrtAFjb37lly2xeyjMhcwHVvDseWG96oTJUsCkYDMY2tOyuVa9sJgjl0LmBAhbRFP-oEhB9v-4TLAJeyC75K3htQOZlGhR-Zj6jk9X418JGmHng_cNCCpb8qw", "width": 4608}], "place_id": "ChIJkdiS6u390YURaJ1Q08Tkh00", "plus_code": {"compound_code": "9W38+RH Mexico City", "global_code": "76F29W38+RH"}, "rating": 3.8, "reference": "ChIJkdiS6u390YURaJ1Q08Tkh00", "types": ["pharmacy", "health", "point_of_interest", "store", "establishment"], "user_ratings_total": 37}, {"business_status": "OPERATIONAL", "formatted_address": "San Marcos 45, Santa Mar\u00eda del Monte, Iztapalapa, 09838 Ciudad de M\u00e9xico, CDMX", "geometry": {"location": {"lat": 19.3521518, "lng": -99.0884768}, "viewport": {"northeast": {"lat": 19.35350317989272, "lng": -99.08711687010727}, "southwest": {"lat": 19.35080352010727, "lng": -99.08981652989272}}}, "icon": "https://maps.gstatic.com/mapfiles/place_api/icons/v1/png_71/pharmacy-71.png", "name": "Farmacia Dra.Adry", "place_id": "ChIJb3nAO_D90YURaxQUV3fL528", "plus_code": {"compound_code": "9W26+VJ Mexico City", "global_code": "76F29W26+VJ"}, "rating": 0, "reference": "ChIJb3nAO_D90YURaxQUV3fL528", "types": ["pharmacy", "health", "point_of_interest", "store", "establishment"], "user_ratings_total": 0}, {"business_status": "OPERATIONAL", "formatted_address": "Cuauht\u00e9moc 38, San Pablo, Iztapalapa, 09000 Ciudad de M\u00e9xico, CDMX", "geometry": {"location": {"lat": 19.3602627, "lng": -99.0905025}, "viewport": {"northeast": {"lat": 19.36127267989272, "lng": -99.08929807010728}, "southwest": {"lat": 19.35857302010728, "lng": -99.09199772989273}}}, "icon": "https://maps.gstatic.com/mapfiles/place_api/icons/v1/png_71/pharmacy-71.png", "name": "Farmacias YZA", "opening_hours": {"open_now": true}, "place_id": "ChIJUyovwPL90YURhpU5NZzVhCs", "plus_code": {"compound_code": "9W65+4Q Mexico City", "global_code": "76F29W65+4Q"}, "rating": 0, "reference": "ChIJUyovwPL90YURhpU5NZzVhCs", "types": ["pharmacy", "health", "point_of_interest", "store", "establishment"], "user_ratings_total": 0}, {"business_status": "OPERATIONAL", "formatted_address": "Av. Luis Hidalgo Monroy 105, San Pablo, Iztapalapa, 09000 Ciudad de M\u00e9xico, CDMX", "geometry": {"location": {"lat": 19.3589055, "lng": -99.08784179999999}, "viewport": {"northeast": {"lat": 19.36028477989272, "lng": -99.08648792010727}, "southwest": {"lat": 19.35758512010728, "lng": -99.08918757989272}}}, "icon": "https://maps.gstatic.com/mapfiles/place_api/icons/v1/png_71/pharmacy-71.png", "name": "Farmacia De Genericos Medical Mayer Group", "opening_hours": {"open_now": true}, "place_id": "ChIJKwyCK-_90YURq2seE6_0Qlk", "plus_code": {"compound_code": "9W56+HV Mexico City", "global_code": "76F29W56+HV"}, "rating": 2, "reference": "ChIJKwyCK-_90YURq2seE6_0Qlk", "types": ["pharmacy", "health", "point_of_interest", "store", "establishment"], "user_ratings_total": 1}, {"business_status": "OPERATIONAL", "formatted_address": "Av. Luis Hidalgo Monroy 241, San Miguel, Iztapalapa, 09360 Ciudad de M\u00e9xico, CDMX", "geometry": {"location": {"lat": 19.3561841, "lng": -99.0809573}, "viewport": {"northeast": {"lat": 19.35756552989272, "lng": -99.07959577010728}, "southwest": {"lat": 19.35486587010728, "lng": -99.08229542989271}}}, "icon": "https://maps.gstatic.com/mapfiles/place_api/icons/v1/png_71/pharmacy-71.png", "name": "Farmacias Similares", "opening_hours": {"open_now": true}, "photos": [{"height": 1920, "html_attributions": ["<a href=\"https://maps.google.com/maps/contrib/114960709014693034636\">Carlos santamaria martinez</a>"], "photo_reference": "CmRaAAAAqkjYn_bajfVXXyHC7TTTgoJ7974usLcFsw3e7qxlcEJ3LAxVs8iWbJfyAvaPQOTHswCBv38wYNKkmhtD6eE20qILISHinSrFbSXKBjMh7VhFz9qM-IfQChUuWOWZxbeKEhD0804He0DoNOzbdb5KSyrVGhRR5w-7ysAD0FJIoGPC-D98YFqZvA", "width": 1080}], "place_id": "ChIJc6sYHO390YURtYZhAYbq6f4", "plus_code": {"compound_code": "9W49+FJ Mexico City", "global_code": "76F29W49+FJ"}, "rating": 2.6, "reference": "ChIJc6sYHO390YURtYZhAYbq6f4", "types": ["pharmacy", "health", "point_of_interest", "store", "establishment"], "user_ratings_total": 5}, {"business_status": "OPERATIONAL", "formatted_address": "Av. Javier Rojo G\u00f3mez 14, San Pablo, Iztapalapa, 09000 Ciudad de M\u00e9xico, CDMX", "geometry": {"location": {"lat": 19.3575422, "lng": -99.08624549999999}, "viewport": {"northeast": {"lat": 19.35886762989272, "lng": -99.08484632010727}, "southwest": {"lat": 19.35616797010728, "lng": -99.08754597989272}}}, "icon": "https://maps.gstatic.com/mapfiles/place_api/icons/v1/png_71/shopping-71.png", "name": "Farmacia Similares San Pablo 1", "opening_hours": {"open_now": true}, "place_id": "ChIJ3Y4N6-790YURUxMTFFvghxY", "plus_code": {"compound_code": "9W57+2G Mexico City", "global_code": "76F29W57+2G"}, "rating": 3, "reference": "ChIJ3Y4N6-790YURUxMTFFvghxY", "types": ["hardware_store", "pharmacy", "health", "point_of_interest", "store", "establishment"], "user_ratings_total": 1}, {"business_status": "OPERATIONAL", "formatted_address": "Ayuntamiento 60, San Pablo, Iztapalapa, 09000 Ciudad de M\u00e9xico, CDMX", "geometry": {"location": {"lat": 19.3589906, "lng": -99.0917609}, "viewport": {"northeast": {"lat": 19.36035087989272, "lng": -99.09045162010729}, "southwest": {"lat": 19.35765122010728, "lng": -99.09315127989272}}}, "icon": "https://maps.gstatic.com/mapfiles/place_api/icons/v1/png_71/pharmacy-71.png", "name": "Farmacia YZA", "opening_hours": {"open_now": true}, "place_id": "ChIJI0C51MX90YUR6xciZm9yfwM", "plus_code": {"compound_code": "9W55+H7 Mexico City", "global_code": "76F29W55+H7"}, "rating": 0, "reference": "ChIJI0C51MX90YUR6xciZm9yfwM", "types": ["pharmacy", "health", "point_of_interest", "store", "establishment"], "user_ratings_total": 0}, {"business_status": "OPERATIONAL", "formatted_address": "Ayuntamiento 68, San Pablo, Iztapalapa, 09000 Ciudad de M\u00e9xico, CDMX", "geometry": {"location": {"lat": 19.3617968, "lng": -99.0911216}, "viewport": {"northeast": {"lat": 19.36313782989273, "lng": -99.08973677010728}, "southwest": {"lat": 19.36043817010728, "lng": -99.09243642989273}}}, "icon": "https://maps.gstatic.com/mapfiles/place_api/icons/v1/png_71/pharmacy-71.png", "name": "FARMACIAS Farmapronto", "opening_hours": {"open_now": true}, "place_id": "ChIJ29vrMub90YUROVzjJxEHnZs", "plus_code": {"compound_code": "9W65+PH Mexico City", "global_code": "76F29W65+PH"}, "rating": 5, "reference": "ChIJ29vrMub90YUROVzjJxEHnZs", "types": ["pharmacy", "health", "point_of_interest", "store", "establishment"], "user_ratings_total": 1}, {"business_status": "OPERATIONAL", "formatted_address": "Eje 8 Sur (Calz. Ermita Iztapalapa) No. 1277, Iztapalapa, San Pablo, 09000 Ciudad de M\u00e9xico, CDMX", "geometry": {"location": {"lat": 19.3599434, "lng": -99.09054599999999}, "viewport": {"northeast": {"lat": 19.36131137989272, "lng": -99.08919032010728}, "southwest": {"lat": 19.35861172010728, "lng": -99.09188997989273}}}, "icon": "https://maps.gstatic.com/mapfiles/place_api/icons/v1/png_71/pharmacy-71.png", "name": "Farmacias Similares", "opening_hours": {"open_now": true}, "place_id": "ChIJeTeu5eX90YURUQGrK7rhCEI", "plus_code": {"compound_code": "9W55+XQ Mexico City", "global_code": "76F29W55+XQ"}, "rating": 4.5, "reference": "ChIJeTeu5eX90YURUQGrK7rhCEI", "types": ["pharmacy", "health", "point_of_interest", "store", "establishment"], "user_ratings_total": 2}, {"business_status": "OPERATIONAL", "formatted_address": "Calzada Ermita Iztapalapa 447, San Pablo, Ciudad de M\u00e9xico, CDMX", "geometry": {"location": {"lat": 19.3604166, "lng": -99.0836077}, "viewport": {"northeast": {"lat": 19.36174322989272, "lng": -99.08227387010727}, "southwest": {"lat": 19.35904357010728, "lng": -99.08497352989272}}}, "icon": "https://maps.gstatic.com/mapfiles/place_api/icons/v1/png_71/pharmacy-71.png", "name": "farmacias de similares", "place_id": "ChIJp-117Ov90YURAm-wLgO1pCk", "plus_code": {"compound_code": "9W68+5H Mexico City", "global_code": "76F29W68+5H"}, "rating": 5, "reference": "ChIJp-117Ov90YURAm-wLgO1pCk", "types": ["pharmacy", "health", "point_of_interest", "store", "establishment"], "user_ratings_total": 1}, {"business_status": "OPERATIONAL", "formatted_address": "Porfirio Comonfort 90, San Lucas, Iztapalapa, 09000 Ciudad de M\u00e9xico, CDMX", "geometry": {"location": {"lat": 19.3589137, "lng": -99.0948215}, "viewport": {"northeast": {"lat": 19.36022887989272, "lng": -99.09344772010728}, "southwest": {"lat": 19.35752922010728, "lng": -99.09614737989273}}}, "icon": "https://maps.gstatic.com/mapfiles/place_api/icons/v1/png_71/pharmacy-71.png", "name": "Farmacias YZA", "opening_hours": {"open_now": true}, "photos": [{"height": 2938, "html_attributions": ["<a href=\"https://maps.google.com/maps/contrib/113093824744407411733\">Cristian Jimenez</a>"], "photo_reference": "CmRaAAAAXHwaKiSyPtXXHgq5jKxEMQ7jSm420m3zVmn07Hs_T4vokE-g63cp9R60f4lnxHPyRNNIgu5mIzH2veFW5Bavq0VY_bjvVcjJ1U6FIv3A9nAJV9-pS9kuKOYft8pWsv3ZEhBLdQOLoQs-IZ-YZi8RFpSmGhQz6hmq1-tgOODLZTD9OLpf9hnjlA", "width": 3918}], "place_id": "ChIJUVpzpub90YURbAO-9CXbsVE", "plus_code": {"compound_code": "9W54+H3 Mexico City", "global_code": "76F29W54+H3"}, "rating": 2.4, "reference": "ChIJUVpzpub90YURbAO-9CXbsVE", "types": ["pharmacy", "health", "point_of_interest", "store", "establishment"], "user_ratings_total": 13}, {"business_status": "OPERATIONAL", "formatted_address": "Mafafa sn, El Manto, Iztapalapa, 09830 Ciudad de M\u00e9xico, CDMX", "geometry": {"location": {"lat": 19.350939, "lng": -99.08429699999999}, "viewport": {"northeast": {"lat": 19.35227857989272, "lng": -99.08291452010727}, "southwest": {"lat": 19.34957892010728, "lng": -99.08561417989272}}}, "icon": "https://maps.gstatic.com/mapfiles/place_api/icons/v1/png_71/pharmacy-71.png", "name": "Farmacia SATELITE", "opening_hours": {"open_now": true}, "place_id": "ChIJY-z0LvL90YUR5e758K4Obp4", "plus_code": {"compound_code": "9W28+97 El Manto, Mexico City", "global_code": "76F29W28+97"}, "rating": 0, "reference": "ChIJY-z0LvL90YUR5e758K4Obp4", "types": ["pharmacy", "health", "point_of_interest", "store", "establishment"], "user_ratings_total": 0}, {"business_status": "OPERATIONAL", "formatted_address": "Rafael Garc\u00eda Moreno 62, San Miguel, Iztapalapa, 09360 Ciudad de M\u00e9xico, CDMX", "geometry": {"location": {"lat": 19.3561187, "lng": -99.08224070000001}, "viewport": {"northeast": {"lat": 19.35746277989272, "lng": -99.08086057010729}, "southwest": {"lat": 19.35476312010728, "lng": -99.08356022989273}}}, "icon": "https://maps.gstatic.com/mapfiles/place_api/icons/v1/png_71/pharmacy-71.png", "name": "Farmacia Mina", "opening_hours": {"open_now": true}, "place_id": "ChIJZ5rEq-390YURz1bsPXsI5e4", "plus_code": {"compound_code": "9W49+C4 Mexico City", "global_code": "76F29W49+C4"}, "rating": 0, "reference": "ChIJZ5rEq-390YURz1bsPXsI5e4", "types": ["pharmacy", "health", "point_of_interest", "store", "establishment"], "user_ratings_total": 0}]