[{"business_status": "OPERATIONAL", "geometry": {"location": {"lat": 19.3562366, "lng": -99.0868905}, "viewport": {"northeast": {"lat": 19.3576532802915, "lng": -99.0855101697085}, "southwest": {"lat": 19.3549553197085, "lng": -99.0882081302915}}}, "icon": "https://maps.gstatic.com/mapfiles/place_api/icons/v1/png_71/restaurant-71.png", "name": "LA MICHOACANA", "opening_hours": {"open_now": true}, "place_id": "ChIJFYgb-O790YURHCeJ1mfMK4Y", "plus_code": {"compound_code": "9W47+F6 Mexico City, CDMX, Mexico", "global_code": "76F29W47+F6"}, "rating": 5, "reference": "ChIJFYgb-O790YURHCeJ1mfMK4Y", "scope": "GOOGLE", "types": ["restaurant", "food", "point_of_interest", "store", "establishment"], "user_ratings_total": 1, "vicinity": "Ermita Iztapalapa 16, El Molino Iztapalapa, Ciudad de M\u00e9xico"}, {"business_status": "OPERATIONAL", "geometry": {"location": {"lat": 19.354501, "lng": -99.08655159999999}, "viewport": {"northeast": {"lat": 19.3558608302915, "lng": -99.0852254197085}, "southwest": {"lat": 19.3531628697085, "lng": -99.0879233802915}}}, "icon": "https://maps.gstatic.com/mapfiles/place_api/icons/v1/png_71/restaurant-71.png", "name": "Tacos de Guisado \"Un Taco Fuerte\"", "photos": [{"height": 4608, "html_attributions": ["<a href=\"https://maps.google.com/maps/contrib/101951899420548068963\">Rebeca Fuerte</a>"], "photo_reference": "CmRaAAAAOeCJ1iN0BUrd8yQpVoZoJDxzYBe6-cuc_sF9u-wbs7fttabEUMgbhr9mbrbfBs1FDOK9eLffUpC4csuDiflQnz_3N48LLvq0i4jCViH5Lhek8tPyFTuM4brQo-vHAI7_EhA7DzIBasOqRTDxnmhOoK30GhQTYxhZ72H1ndRhWwqkriqxDtLQqg", "width": 3456}], "place_id": "ChIJwRJcaxj90YURPjbXPDcafew", "plus_code": {"compound_code": "9W37+R9 Mexico City, CDMX, Mexico", "global_code": "76F29W37+R9"}, "reference": "ChIJwRJcaxj90YURPjbXPDcafew", "scope": "GOOGLE", "types": ["restaurant", "food", "point_of_interest", "establishment"], "vicinity": "Amalpica 43, Iztapalapa, Ciudad de M\u00e9xico"}, {"business_status": "OPERATIONAL", "geometry": {"location": {"lat": 19.3563284, "lng": -99.0872313}, "viewport": {"northeast": {"lat": 19.3577645302915, "lng": -99.0858477697085}, "southwest": {"lat": 19.3550665697085, "lng": -99.0885457302915}}}, "icon": "https://maps.gstatic.com/mapfiles/place_api/icons/v1/png_71/restaurant-71.png", "name": "Mac Ma Ermita", "opening_hours": {"open_now": false}, "photos": [{"height": 3456, "html_attributions": ["<a href=\"https://maps.google.com/maps/contrib/110450295473704112905\">danny espino</a>"], "photo_reference": "CmRaAAAA9zBd0R8QA4jN7MbYqj-0IpW4ADLNlANkX8cArnrdQPrw3cCGKslTBPcRWaxqwQOAiW10M68pGL5nwwMj4dTtE7Xq6eCl0Hci59Rr0gAnoeVVrRS5ZZXhxr573M3QetboEhBWE1NLEet0b-KaNPykuMAfGhREDWIDiQ4OP6OVwWUvW-mdBEIr3g", "width": 4608}], "place_id": "ChIJ-3fa_u790YUR63Ix9Dqqj1U", "plus_code": {"compound_code": "9W47+G4 Mexico City, CDMX, Mexico", "global_code": "76F29W47+G4"}, "rating": 4, "reference": "ChIJ-3fa_u790YUR63Ix9Dqqj1U", "scope": "GOOGLE", "types": ["restaurant", "food", "point_of_interest", "establishment"], "user_ratings_total": 146, "vicinity": "Ermita Iztapalapa 1432 C, El Molino, Ciudad de M\u00e9xico"}, {"business_status": "OPERATIONAL", "geometry": {"location": {"lat": 19.3563802, "lng": -99.0871391}, "viewport": {"northeast": {"lat": 19.3577788302915, "lng": -99.08576956970849}, "southwest": {"lat": 19.35508086970849, "lng": -99.08846753029151}}}, "icon": "https://maps.gstatic.com/mapfiles/place_api/icons/v1/png_71/restaurant-71.png", "name": "El Rinc\u00f3n Del Sabor Cocina Econ\u00f3mica", "opening_hours": {"open_now": false}, "photos": [{"height": 1381, "html_attributions": ["<a href=\"https://maps.google.com/maps/contrib/106686266156652047553\">Cris Arriaga</a>"], "photo_reference": "CmRaAAAAa60ZY5FKNnu-d9i-xInFzrVRu5nCtTwSHphlI3X7FEeX8cNqm8lDMyPPvyVAC-BKGNvsMxx6RN_dboSuimb1rBlpH9qQsovyESvtyeKW2BYB5VUTG3L1RA88fEkakPjMEhDan_-YQG5SwYygEjRb9_eUGhQcFfKFox8GWv2KmK86580TXNR7ZA", "width": 1623}], "place_id": "ChIJi8g7-e790YURK952vV2Uv2s", "plus_code": {"compound_code": "9W47+H4 Mexico City, CDMX, Mexico", "global_code": "76F29W47+H4"}, "rating": 5, "reference": "ChIJi8g7-e790YURK952vV2Uv2s", "scope": "GOOGLE", "types": ["restaurant", "food", "point_of_interest", "establishment"], "user_ratings_total": 2, "vicinity": "Ermita Iztapalapa 1435A, El Molino, Ciudad de M\u00e9xico"}, {"business_status": "OPERATIONAL", "geometry": {"location": {"lat": 19.35638119999999, "lng": -99.0871252}, "viewport": {"northeast": {"lat": 19.3577769802915, "lng": -99.08575636970849}, "southwest": {"lat": 19.3550790197085, "lng": -99.08845433029151}}}, "icon": "https://maps.gstatic.com/mapfiles/place_api/icons/v1/png_71/restaurant-71.png", "name": "La Chulada", "opening_hours": {"open_now": true}, "photos": [{"height": 2048, "html_attributions": ["<a href=\"https://maps.google.com/maps/contrib/108956508388469783389\">La Chulada</a>"], "photo_reference": "CmRaAAAAlNHTqOPAbCFvK3k-m-TYN0vNUi6_s7GudLjMDVL-nqTb8LWgACKVcJDNaGg-zBNVSUmIrOQCUwoG6tUg4iC46caRkSthJeZMiiCMdSGIft7CsNW_umFxH0O1dRMoMumeEhCKFlhi2jYZ4L8NIP21J3kYGhT1R41n59k9_Ig-AM734j10AbKe0g", "width": 1536}], "place_id": "ChIJW30m-e790YURYkx8fj6K8r8", "plus_code": {"compound_code": "9W47+H4 Mexico City, CDMX, Mexico", "global_code": "76F29W47+H4"}, "rating": 4, "reference": "ChIJW30m-e790YURYkx8fj6K8r8", "scope": "GOOGLE", "types": ["restaurant", "food", "point_of_interest", "establishment"], "user_ratings_total": 52, "vicinity": "Ermita Iztapalapa 1435, El Molino Iztapalapa, Ciudad de M\u00e9xico"}, {"business_status": "OPERATIONAL", "geometry": {"location": {"lat": 19.3558496, "lng": -99.08606639999999}, "viewport": {"northeast": {"lat": 19.3572919302915, "lng": -99.0846682697085}, "southwest": {"lat": 19.3545939697085, "lng": -99.08736623029151}}}, "icon": "https://maps.gstatic.com/mapfiles/place_api/icons/v1/png_71/restaurant-71.png", "name": "Flautas El Benavides", "opening_hours": {"open_now": false}, "place_id": "ChIJg5GZXu790YURUCaOlG_oySQ", "plus_code": {"compound_code": "9W47+8H Mexico City, CDMX, Mexico", "global_code": "76F29W47+8H"}, "reference": "ChIJg5GZXu790YURUCaOlG_oySQ", "scope": "GOOGLE", "types": ["restaurant", "food", "point_of_interest", "establishment"], "vicinity": "Ermita Iztapalapa 1441, El Molino"}]