[{"business_status": "OPERATIONAL", "formatted_address": "Ermita Iztapalapa 1435, El Molino Iztapalapa, Iztapalapa, 09000 Ciudad de M\u00e9xico, CDMX", "geometry": {"location": {"lat": 19.3563812, "lng": -99.0871252}, "viewport": {"northeast": {"lat": 19.35777782989272, "lng": -99.08575552010728}, "southwest": {"lat": 19.35507817010728, "lng": -99.08845517989272}}}, "icon": "https://maps.gstatic.com/mapfiles/place_api/icons/v1/png_71/restaurant-71.png", "name": "La Chulada", "opening_hours": {"open_now": true}, "photos": [{"height": 2048, "html_attributions": ["<a href=\"https://maps.google.com/maps/contrib/108956508388469783389\">A Google User</a>"], "photo_reference": "CmRaAAAAQJe1iwoo_rXOxmdd1sL4uXsPuWEL_9pb-J8kuXUOLgrQii5y2q6wGPblSMcYJO8GEwnJbJXWB7bqrMNyWSu2dWbo33ybETbiatD1zOxzkQejaf3ra_U_FsFne0TutcY6EhDmZBYYXGJmmf-_ZS4j-l7NGhRBrwaqPPWCCdON0Mcy95camwH-Cg", "width": 1536}], "place_id": "ChIJW30m-e790YURYkx8fj6K8r8", "plus_code": {"compound_code": "9W47+H4 Mexico City", "global_code": "76F29W47+H4"}, "rating": 4, "reference": "ChIJW30m-e790YURYkx8fj6K8r8", "types": ["restaurant", "food", "point_of_interest", "establishment"], "user_ratings_total": 52}, {"business_status": "CLOSED_TEMPORARILY", "formatted_address": "San Marcos 4, Santa Mar\u00eda del Monte, Iztapalapa, 09850 Ciudad de M\u00e9xico, CDMX", "geometry": {"location": {"lat": 19.3535308, "lng": -99.0887223}, "viewport": {"northeast": {"lat": 19.35479462989272, "lng": -99.08734177010729}, "southwest": {"lat": 19.35209497010727, "lng": -99.09004142989274}}}, "icon": "https://maps.gstatic.com/mapfiles/place_api/icons/v1/png_71/restaurant-71.png", "name": "Alitas Momoxtli", "permanently_closed": true, "photos": [{"height": 2592, "html_attributions": ["<a href=\"https://maps.google.com/maps/contrib/115619636714698288619\">A Google User</a>"], "photo_reference": "CmRaAAAAmrLzbRx-4tNkPUBoSl6r_x457vfhgD4-KM7mrFngK1kcoUwI3v3xE9TcbD4qhQI270koSeJQzWHKCOzXhDHiMMiEFmmrfned0YaDPHIIyyx-521HdrQN1Lo5P6THIoA9EhAXrb2PkMimC8l1sCd5Fcj0GhTb7XCVYD37KSIGq0V-LwCzWEDQiw", "width": 4608}], "place_id": "ChIJeyfySCz90YURoEOBl_fWyIM", "plus_code": {"compound_code": "9W36+CG Mexico City", "global_code": "76F29W36+CG"}, "rating": 0, "reference": "ChIJeyfySCz90YURoEOBl_fWyIM", "types": ["restaurant", "food", "point_of_interest", "establishment"], "user_ratings_total": 0}, {"business_status": "OPERATIONAL", "formatted_address": "Ermita Iztapalapa 108, San Pablo, Iztapalapa, 09000 Ciudad de M\u00e9xico, CDMX", "geometry": {"location": {"lat": 19.3566688, "lng": -99.08699999999999}, "viewport": {"northeast": {"lat": 19.35810047989272, "lng": -99.08558442010727}, "southwest": {"lat": 19.35540082010728, "lng": -99.08828407989272}}}, "icon": "https://maps.gstatic.com/mapfiles/place_api/icons/v1/png_71/restaurant-71.png", "name": "TORTAS \"LAS GOLONDRINAS\"", "opening_hours": {"open_now": true}, "photos": [{"height": 5664, "html_attributions": ["<a href=\"https://maps.google.com/maps/contrib/100620296565067690642\">Angie Ottcs</a>"], "photo_reference": "CmRaAAAAFu38prmIH-CZBaPhCS_cq4CYe46UVxQhg7-q8zFtcN5x3Y4oC_1xTA_fht_XQoEzj1xKrRyRRWOhvup0Uf-6ATc4kYmf14soRzHxI3hD__R2Ptz21ZXQNMUPadUC4K5BEhBjr_17gSppVC4NdLcmW7p4GhTneNnbJmkQwLWfEfhi9wZF6cSHQQ", "width": 2752}], "place_id": "ChIJU0mY8O790YURzN9BhdetR58", "plus_code": {"compound_code": "9W47+M6 Mexico City", "global_code": "76F29W47+M6"}, "rating": 4.4, "reference": "ChIJU0mY8O790YURzN9BhdetR58", "types": ["restaurant", "food", "point_of_interest", "establishment"], "user_ratings_total": 45}, {"business_status": "OPERATIONAL", "formatted_address": "Morelos 34, San Pablo, Iztapalapa, 09000 Ciudad de M\u00e9xico, CDMX", "geometry": {"location": {"lat": 19.3590454, "lng": -99.0878157}, "viewport": {"northeast": {"lat": 19.36037367989272, "lng": -99.08641997010729}, "southwest": {"lat": 19.35767402010728, "lng": -99.08911962989274}}}, "icon": "https://maps.gstatic.com/mapfiles/place_api/icons/v1/png_71/restaurant-71.png", "name": "La gloria", "opening_hours": {"open_now": true}, "photos": [{"height": 1200, "html_attributions": ["<a href=\"https://maps.google.com/maps/contrib/115656975379192142901\">A Google User</a>"], "photo_reference": "CmRaAAAAheCrQjvjXbmToKrw8L7ln-IiH5vMSfHrVnvPkuou_oU-nXlDJRBXb_orguqlQ0J_tDh7tJnruRsSHpZWO6Was0J2C64Hfqo_Zm7lt1o7NOJDva6AfPJsASVDmW9cG-YgEhBgvvVr-aKrUoAkK8VcNKHWGhRfgu3wlmZUmMmAB8HNh0l9wz5ZEw", "width": 1600}], "place_id": "ChIJ79FrK-_90YURJjlcXsbt7DM", "plus_code": {"compound_code": "9W56+JV Mexico City", "global_code": "76F29W56+JV"}, "rating": 4.4, "reference": "ChIJ79FrK-_90YURJjlcXsbt7DM", "types": ["bar", "restaurant", "food", "point_of_interest", "establishment"], "user_ratings_total": 171}, {"business_status": "OPERATIONAL", "formatted_address": "Aldama 72, San Pablo, Iztapalapa, 09000 Ciudad de M\u00e9xico, CDMX", "geometry": {"location": {"lat": 19.3592499, "lng": -99.0913719}, "viewport": {"northeast": {"lat": 19.36056687989272, "lng": -99.09003437010728}, "southwest": {"lat": 19.35786722010728, "lng": -99.09273402989272}}}, "icon": "https://maps.gstatic.com/mapfiles/place_api/icons/v1/png_71/restaurant-71.png", "name": "Ayluardo's", "opening_hours": {"open_now": true}, "photos": [{"height": 1920, "html_attributions": ["<a href=\"https://maps.google.com/maps/contrib/117548538095976843674\">Faby</a>"], "photo_reference": "CmRaAAAAc6TtLtkNwtJHj3Ogl4zdhPmjIE7WHulVqlemTIY1bimC5EHQI7j84HG2ivkSnBChOglTXurdNbFNc0DBbI0Qw5j-KLZPqGmUcw6WbiyjqXaRDpD0TMqP6bB__fljAT7KEhCA8TZBEgkNVw4MYBPYOoAbGhT72J9ZKHFVeWqAuwVZDgd4lH_bCg", "width": 1080}], "place_id": "ChIJ_f3cC-b90YURoK-DTTA9JsE", "plus_code": {"compound_code": "9W55+MF Mexico City", "global_code": "76F29W55+MF"}, "price_level": 2, "rating": 3.9, "reference": "ChIJ_f3cC-b90YURoK-DTTA9JsE", "types": ["restaurant", "food", "point_of_interest", "establishment"], "user_ratings_total": 384}, {"business_status": "OPERATIONAL", "formatted_address": "Moctezuma#304, San Miguel, Iztapalapa, 09360 CDMX", "geometry": {"location": {"lat": 19.3578146, "lng": -99.0822075}, "viewport": {"northeast": {"lat": 19.35915352989272, "lng": -99.08083012010728}, "southwest": {"lat": 19.35645387010728, "lng": -99.08352977989273}}}, "icon": "https://maps.gstatic.com/mapfiles/place_api/icons/v1/png_71/restaurant-71.png", "name": "La Cocina de Angelo's", "opening_hours": {"open_now": true}, "photos": [{"height": 1836, "html_attributions": ["<a href=\"https://maps.google.com/maps/contrib/100359325369301863589\">Angelo Flores</a>"], "photo_reference": "CmRaAAAA0ADvhI2duUKqWavKhnHXPDhsMNe-8hEI0C6BtCziryMixlu6NzFs2TFU9mD2f37PigMlNChOFkzTO5kXl3A8Pi5t-T6AkDExJ4zb-pN_syWRSLwF7QJSPbZM1RoWKyW-EhDc5746fHy9xcJJyk96K1EIGhTb-PHUbXPZeFcNslASoFsWWPibdA", "width": 3264}], "place_id": "ChIJBwNoXuz90YUR5-TSWPXZ_KE", "plus_code": {"compound_code": "9W59+44 San Miguel, Mexico City", "global_code": "76F29W59+44"}, "price_level": 1, "rating": 4.6, "reference": "ChIJBwNoXuz90YUR5-TSWPXZ_KE", "types": ["restaurant", "food", "point_of_interest", "establishment"], "user_ratings_total": 87}, {"business_status": "OPERATIONAL", "formatted_address": "Av. Javier Rojo G\u00f3mez 62, San Pablo, Iztapalapa, 09000 Ciudad de M\u00e9xico, CDMX", "geometry": {"location": {"lat": 19.3588204, "lng": -99.08553959999999}, "viewport": {"northeast": {"lat": 19.36016052989272, "lng": -99.08413667010727}, "southwest": {"lat": 19.35746087010728, "lng": -99.08683632989272}}}, "icon": "https://maps.gstatic.com/mapfiles/place_api/icons/v1/png_71/restaurant-71.png", "name": "Taquer\u00edas kairos", "opening_hours": {"open_now": true}, "photos": [{"height": 3024, "html_attributions": ["<a href=\"https://maps.google.com/maps/contrib/113965321279815663901\">Alberto Calderas</a>"], "photo_reference": "CmRaAAAA0Q1f1DhcbMDXq1cU-QnA947WwRSezCF4B6Mmu0r-KD4ULuBrekRE-ROjluMdYWRMxYLDprP6PhYfpzSs-M6mfcnBeJ_AMPRBL0vnc-XHWxAHSG4Y5cx7_hv5d6_66FMZEhDZVg6Q_Ht_dR50TzJr3TiFGhRmgPR52OkAMCwLNNocHGV0yD31tQ", "width": 4032}], "place_id": "ChIJt8Qfsu790YURTqq-zq7agKw", "plus_code": {"compound_code": "9W57+GQ Mexico City", "global_code": "76F29W57+GQ"}, "rating": 4.1, "reference": "ChIJt8Qfsu790YURTqq-zq7agKw", "types": ["restaurant", "food", "point_of_interest", "establishment"], "user_ratings_total": 371}, {"business_status": "OPERATIONAL", "formatted_address": "Ermita Iztapalapa 383, El Santuario, Iztapalapa, 09820 Ciudad de M\u00e9xico, CDMX", "geometry": {"location": {"lat": 19.3562303, "lng": -99.0907783}, "viewport": {"northeast": {"lat": 19.35765112989272, "lng": -99.08943862010729}, "southwest": {"lat": 19.35495147010728, "lng": -99.09213827989274}}}, "icon": "https://maps.gstatic.com/mapfiles/place_api/icons/v1/png_71/restaurant-71.png", "name": "TAQUERIA La Bola Roja", "opening_hours": {"open_now": true}, "photos": [{"height": 4032, "html_attributions": ["<a href=\"https://maps.google.com/maps/contrib/101391063917010128053\">Edgar Vega</a>"], "photo_reference": "CmRaAAAAjThRpwpHd7xt9AeEVHLOAs0INJzQT9Yr73ueH_x968LQAs4caPejVDuGZeleCaBt7WseOgJ0ltM8C9BCeZCIioSS4ax0lsNaCjJni5JkonpGeyW8wD5zcNk7y26T1WquEhDgD_U2dubQV7jQwWkiSsJuGhTbjmtBQnUVYzc_EDa9aIsqRAR_LQ", "width": 3024}], "place_id": "ChIJ_00Kg-X90YURkR0T9d6dGdk", "plus_code": {"compound_code": "9W45+FM Mexico City", "global_code": "76F29W45+FM"}, "rating": 4.2, "reference": "ChIJ_00Kg-X90YURkR0T9d6dGdk", "types": ["restaurant", "food", "point_of_interest", "establishment"], "user_ratings_total": 443}, {"business_status": "OPERATIONAL", "formatted_address": "Aloe S/N, El Manto, Iztapalapa, 09830 Ciudad de M\u00e9xico, CDMX", "geometry": {"location": {"lat": 19.3494381, "lng": -99.0843684}, "viewport": {"northeast": {"lat": 19.35076482989272, "lng": -99.08305257010728}, "southwest": {"lat": 19.34806517010728, "lng": -99.08575222989272}}}, "icon": "https://maps.gstatic.com/mapfiles/place_api/icons/v1/png_71/restaurant-71.png", "name": "Emy's", "opening_hours": {"open_now": true}, "photos": [{"height": 960, "html_attributions": ["<a href=\"https://maps.google.com/maps/contrib/112892423388634308892\">Martin Duran Parada</a>"], "photo_reference": "CmRaAAAA6CtTRp5JAE5Q49uvF0dms_wcfdZuGZU3sNlPQBZcz0RqWsk8o4qmB8rF6rqET--xHKiahzF5NM8JhmWYd3r9Dei1dvCH1joqJBsTTh_p3D8WzhocoEq_57SITO51hjiYEhAOlDGIUg_3f9cpaYPZvBhJGhQI6s98JuXi9pYsLfojht4rKnHd8Q", "width": 1280}], "place_id": "ChIJDVV92fP90YURZ4p770cxk7M", "plus_code": {"compound_code": "8WX8+Q7 El Manto, Mexico City", "global_code": "76F28WX8+Q7"}, "rating": 4.7, "reference": "ChIJDVV92fP90YURZ4p770cxk7M", "types": ["restaurant", "food", "point_of_interest", "establishment"], "user_ratings_total": 20}, {"business_status": "OPERATIONAL", "formatted_address": "Ermita Iztapalapa 1511, El Molino, Plan de Iguala, Iztapalapa, 09830 Ciudad de M\u00e9xico, CDMX", "geometry": {"location": {"lat": 19.3554372, "lng": -99.0858009}, "viewport": {"northeast": {"lat": 19.35697432989272, "lng": -99.08434407010728}, "southwest": {"lat": 19.35427467010728, "lng": -99.08704372989273}}}, "icon": "https://maps.gstatic.com/mapfiles/place_api/icons/v1/png_71/restaurant-71.png", "name": "Burger King", "opening_hours": {"open_now": true}, "photos": [{"height": 4032, "html_attributions": ["<a href=\"https://maps.google.com/maps/contrib/113973061673775878866\">A Google User</a>"], "photo_reference": "CmRaAAAA8Kb1c6qfMO7y8saLTYqLzXb57pm6GQhP9rzx2iskOXPER3X4MG008ufZ7se7GMxD6wioq973bzLfK32uuSMEQwz3qnljW3CSsaCpQEKHii8-NjwTFiK7hsBajnf7R3VdEhDtUqHLvK34lc2hd6TYwWBvGhR_QaIPyU4gkCKCExHWMNyMW5ZxDA", "width": 3024}], "place_id": "ChIJM5DTdeP90YURIB_wUcqK1xI", "plus_code": {"compound_code": "9W47+5M Mexico City", "global_code": "76F29W47+5M"}, "price_level": 2, "rating": 3.7, "reference": "ChIJM5DTdeP90YURIB_wUcqK1xI", "types": ["restaurant", "food", "point_of_interest", "establishment"], "user_ratings_total": 2605}, {"business_status": "OPERATIONAL", "formatted_address": "San Miguel, Iztapalapa, 09360 Mexico City", "geometry": {"location": {"lat": 19.3559668, "lng": -99.085394}, "viewport": {"northeast": {"lat": 19.35728447989272, "lng": -99.08406697010729}, "southwest": {"lat": 19.35458482010727, "lng": -99.08676662989272}}}, "icon": "https://maps.gstatic.com/mapfiles/place_api/icons/v1/png_71/restaurant-71.png", "name": "Tacos El Cerro", "opening_hours": {"open_now": true}, "photos": [{"height": 3024, "html_attributions": ["<a href=\"https://maps.google.com/maps/contrib/115259970189058384314\">Douttdes Xx</a>"], "photo_reference": "CmRaAAAAw6VnJY9YdDV7ltB2MfJVkTYxESPEHeoLE5i0BM_p1NHmf7wCahlWU8N5ptIY-dLIkeCSaa8BU4BSNmt1OGqCFUKdeS5ouEi-hBb9tQGh4moVgzT24zg3x-suE9a3qdrUEhA6wRIhyUnV-6PZQ5GdD032GhSbTiCdEjBVbny0TLKulV_wHBORPA", "width": 4032}], "place_id": "ChIJj4ON2bv90YURrFMw9-sgrEQ", "plus_code": {"compound_code": "9W47+9R Mexico City", "global_code": "76F29W47+9R"}, "rating": 5, "reference": "ChIJj4ON2bv90YURrFMw9-sgrEQ", "types": ["restaurant", "food", "point_of_interest", "establishment"], "user_ratings_total": 1}, {"business_status": "OPERATIONAL", "formatted_address": "Calle estrella #84 barrio San pablo Cp.0900, San Pablo, 09000 Ciudad de M\u00e9xico, CDMX", "geometry": {"location": {"lat": 19.3582191, "lng": -99.0900242}, "viewport": {"northeast": {"lat": 19.35957077989272, "lng": -99.08868077010729}, "southwest": {"lat": 19.35687112010728, "lng": -99.09138042989274}}}, "icon": "https://maps.gstatic.com/mapfiles/place_api/icons/v1/png_71/restaurant-71.png", "name": "PIZZAS El G\u00fcero", "opening_hours": {"open_now": true}, "photos": [{"height": 3000, "html_attributions": ["<a href=\"https://maps.google.com/maps/contrib/107582691572031060821\">A Google User</a>"], "photo_reference": "CmRaAAAAcQhYpXPV2JhCI-IWLBQBNZPf5JqOIJBCiB2RTqRl__prqWEI9DlKuDone3ifO0L6YpH4WqKD5i6a7oRTTULiVDpC2ylMkXAhw_3GQqnW52NoR7qxLNrd-ZC1S43jQd4zEhB2Ocxq9HLObBIVnOn18_khGhT-iFpjXCcOV1qQE_OmweAuaEwrLg", "width": 4000}], "place_id": "ChIJibzGWe_90YURtiFUdhY6648", "plus_code": {"compound_code": "9W55+7X Mexico City", "global_code": "76F29W55+7X"}, "rating": 4.3, "reference": "ChIJibzGWe_90YURtiFUdhY6648", "types": ["restaurant", "food", "point_of_interest", "establishment"], "user_ratings_total": 84}, {"business_status": "OPERATIONAL", "formatted_address": "Ayuntamiento 39, San Pablo, Iztapalapa, 09000 Ciudad de M\u00e9xico, CDMX", "geometry": {"location": {"lat": 19.3598022, "lng": -99.09152879999999}, "viewport": {"northeast": {"lat": 19.36116187989272, "lng": -99.09021912010728}, "southwest": {"lat": 19.35846222010728, "lng": -99.09291877989273}}}, "icon": "https://maps.gstatic.com/mapfiles/place_api/icons/v1/png_71/restaurant-71.png", "name": "Los Tecolotes", "opening_hours": {"open_now": true}, "photos": [{"height": 3120, "html_attributions": ["<a href=\"https://maps.google.com/maps/contrib/103260073934901106659\">Augusto Avila Urista</a>"], "photo_reference": "CmRaAAAA_LF5pKKw9253WQ-VNB1W7CtFQWXRRIt8SrmnSBMOz-2EEumPrghyfN9Bh5gkxL4HBExGZpq2ggNduK_chQj88_uhoRxAZnGvvPj1uOQpNlY0eIqrAL6RtT3MS4LHoX-yEhADOjfU4Ox2bvPU8FQe2F6cGhT1dwgCsZJSQSbBpegSx4JkvaVNhw", "width": 4160}], "place_id": "ChIJTcWvEub90YURdA4YIiAqMoY", "plus_code": {"compound_code": "9W55+W9 Mexico City", "global_code": "76F29W55+W9"}, "price_level": 1, "rating": 3.9, "reference": "ChIJTcWvEub90YURdA4YIiAqMoY", "types": ["restaurant", "food", "point_of_interest", "establishment"], "user_ratings_total": 379}, {"business_status": "OPERATIONAL", "formatted_address": "Ermita Iztapalapa 385, El Santuario, Iztapalapa, 09836 Ciudad de M\u00e9xico, CDMX", "geometry": {"location": {"lat": 19.3562608, "lng": -99.09053929999999}, "viewport": {"northeast": {"lat": 19.35768142989272, "lng": -99.08919942010729}, "southwest": {"lat": 19.35498177010728, "lng": -99.09189907989273}}}, "icon": "https://maps.gstatic.com/mapfiles/place_api/icons/v1/png_71/restaurant-71.png", "name": "Que Chupe Lupe", "opening_hours": {"open_now": true}, "photos": [{"height": 3120, "html_attributions": ["<a href=\"https://maps.google.com/maps/contrib/116088468371335720379\">Giovanni Xavier Altamirano</a>"], "photo_reference": "CmRaAAAAwYRQ_ZtKedsFZoDw6TTrD5OY-XSfmo-WReROF-oD7RW_yz0g40YilI5nGCXzbWf-jilecbBkxc8mHEe20pvRAbK5Dksq0xweXP9-uO4GR7qpJ6xHwloPpRaIu7rOszHrEhCW-WjAZoGUatplxuBasFcNGhSHrOh1RiBvfkLqbSsaqFZjuVcT9A", "width": 4160}], "place_id": "ChIJmwgcNQf90YURsK9STVCeyPU", "plus_code": {"compound_code": "9W45+GQ Mexico City", "global_code": "76F29W45+GQ"}, "rating": 4.1, "reference": "ChIJmwgcNQf90YURsK9STVCeyPU", "types": ["restaurant", "food", "point_of_interest", "establishment"], "user_ratings_total": 89}, {"business_status": "OPERATIONAL", "formatted_address": "Ermita Iztapalapa 16, El Molino Iztapalapa, Iztapalapa, 09830 Ciudad de M\u00e9xico, CDMX", "geometry": {"location": {"lat": 19.3562366, "lng": -99.0868905}, "viewport": {"northeast": {"lat": 19.35765412989272, "lng": -99.08550932010729}, "southwest": {"lat": 19.35495447010728, "lng": -99.08820897989274}}}, "icon": "https://maps.gstatic.com/mapfiles/place_api/icons/v1/png_71/restaurant-71.png", "name": "LA MICHOACANA", "opening_hours": {"open_now": true}, "place_id": "ChIJFYgb-O790YURHCeJ1mfMK4Y", "plus_code": {"compound_code": "9W47+F6 Mexico City", "global_code": "76F29W47+F6"}, "rating": 5, "reference": "ChIJFYgb-O790YURHCeJ1mfMK4Y", "types": ["restaurant", "food", "point_of_interest", "store", "establishment"], "user_ratings_total": 1}, {"business_status": "OPERATIONAL", "formatted_address": "Cuauht\u00e9moc 2, Iztapalapa, 09570 Ciudad de M\u00e9xico, CDMX", "geometry": {"location": {"lat": 19.3586237, "lng": -99.0912163}, "viewport": {"northeast": {"lat": 19.35995327989272, "lng": -99.08980737010728}, "southwest": {"lat": 19.35725362010727, "lng": -99.09250702989272}}}, "icon": "https://maps.gstatic.com/mapfiles/place_api/icons/v1/png_71/restaurant-71.png", "name": "Taqueria El Rincon Tapatio", "opening_hours": {"open_now": true}, "photos": [{"height": 4160, "html_attributions": ["<a href=\"https://maps.google.com/maps/contrib/109703611665815632208\">Javier Callejas</a>"], "photo_reference": "CmRaAAAABhA8kzoutCR-FFVbZ8GfWbuIQx_FyZSQaf3rhmyn3iThegZHPYEXwE-iuGUuOzBQ8wAat0ijIJ09sHXUACeju2HlC8k_BAJRVh6qq_g24-qxgGx_YdurkA_zgIM2s4apEhAlmSkK6F6HhL3un3meSBWdGhQSRBiLyr847wUBmRtvlXW5gqo3ag", "width": 3120}], "place_id": "ChIJAQCU4-X90YURPA7Z8Fl4CU4", "plus_code": {"compound_code": "9W55+CG Mexico City", "global_code": "76F29W55+CG"}, "rating": 4.3, "reference": "ChIJAQCU4-X90YURPA7Z8Fl4CU4", "types": ["restaurant", "food", "point_of_interest", "establishment"], "user_ratings_total": 87}, {"business_status": "OPERATIONAL", "formatted_address": "Ermita Iztapalapa 1863, Los \u00c1ngeles, Iztapalapa, 09830 Ciudad de M\u00e9xico, CDMX", "geometry": {"location": {"lat": 19.3505809, "lng": -99.0747593}, "viewport": {"northeast": {"lat": 19.35205112989272, "lng": -99.07334877010729}, "southwest": {"lat": 19.34935147010728, "lng": -99.07604842989274}}}, "icon": "https://maps.gstatic.com/mapfiles/place_api/icons/v1/png_71/restaurant-71.png", "name": "Toks", "opening_hours": {"open_now": true}, "photos": [{"height": 2988, "html_attributions": ["<a href=\"https://maps.google.com/maps/contrib/104120066693180244761\">IVY F</a>"], "photo_reference": "CmRaAAAARv1zmrrZW-9JnX7F11S60aW0hVe6aVvlptJWmmvrazi_8exiG0fxgJ5E7YJLA1UbThdDiitD6RocELZgZUXyQIMbM5wLluI_Jp8tOGxLlVY8eExgmBrr3WoJnFuDwJBsEhDtgoPADT93W8EGw-yc10x5GhQpH_NevaChT3zUBZAxZ47PXQQWeQ", "width": 5312}], "place_id": "ChIJ5VB9VuT90YURLadhyJt4xD4", "plus_code": {"compound_code": "9W2G+63 Mexico City", "global_code": "76F29W2G+63"}, "price_level": 2, "rating": 4.2, "reference": "ChIJ5VB9VuT90YURLadhyJt4xD4", "types": ["restaurant", "food", "point_of_interest", "establishment"], "user_ratings_total": 4396}, {"business_status": "OPERATIONAL", "formatted_address": "Eje 5 Oriente (Av. Javier Rojo G\u00f3mez) 66, San Pablo, 09000 Ciudad de M\u00e9xico, CDMX", "geometry": {"location": {"lat": 19.3593488, "lng": -99.0852408}, "viewport": {"northeast": {"lat": 19.36067767989272, "lng": -99.08384747010727}, "southwest": {"lat": 19.35797802010728, "lng": -99.08654712989271}}}, "icon": "https://maps.gstatic.com/mapfiles/place_api/icons/v1/png_71/restaurant-71.png", "name": "El Refugio del Mosco", "opening_hours": {"open_now": true}, "photos": [{"height": 3120, "html_attributions": ["<a href=\"https://maps.google.com/maps/contrib/107129951716103717881\">Jacque LoGamarra</a>"], "photo_reference": "CmRaAAAAL6pY6i-DrPq6k1qJg_iIcmsQphvs_DHwIDOGp3f2QCNBWZxCbsS0E3dJBiniuqvyfgzHm82OdKxPVmKz7LMbxHb94A46Ku0yMTxsbHcUqQjOw6vX40AaRILPrarqa16UEhCOridnGAkgkLtcItr0QWcoGhR-1pGBybQeUqVKzOlkFoQHx3EVbA", "width": 4160}], "place_id": "ChIJN4UTU-n90YURQAr2kDDD10Q", "plus_code": {"compound_code": "9W57+PW Mexico City", "global_code": "76F29W57+PW"}, "price_level": 1, "rating": 4.2, "reference": "ChIJN4UTU-n90YURQAr2kDDD10Q", "types": ["restaurant", "food", "point_of_interest", "establishment"], "user_ratings_total": 133}, {"business_status": "OPERATIONAL", "formatted_address": "Ermita Iztapalapa 1324-B, San Pablo, Iztapalapa, 09000 Ciudad de M\u00e9xico, CDMX", "geometry": {"location": {"lat": 19.3586343, "lng": -99.08942859999999}, "viewport": {"northeast": {"lat": 19.35993312989272, "lng": -99.08809332010728}, "southwest": {"lat": 19.35723347010727, "lng": -99.09079297989273}}}, "icon": "https://maps.gstatic.com/mapfiles/place_api/icons/v1/png_71/restaurant-71.png", "name": "El Chalocho", "opening_hours": {"open_now": true}, "place_id": "ChIJGbZ_Tu_90YURg3ehbfeui8g", "plus_code": {"compound_code": "9W56+F6 Mexico City", "global_code": "76F29W56+F6"}, "rating": 0, "reference": "ChIJGbZ_Tu_90YURg3ehbfeui8g", "types": ["restaurant", "food", "point_of_interest", "establishment"], "user_ratings_total": 0}, {"business_status": "OPERATIONAL", "formatted_address": "Manzana 3 Lote 4, Germanio S/N, San Juan Cerro, 09858 Iztapalapa, CDMX", "geometry": {"location": {"lat": 19.3462088, "lng": -99.079833}, "viewport": {"northeast": {"lat": 19.34759607989272, "lng": -99.07847802010727}, "southwest": {"lat": 19.34489642010728, "lng": -99.08117767989272}}}, "icon": "https://maps.gstatic.com/mapfiles/place_api/icons/v1/png_71/restaurant-71.png", "name": "Meca", "opening_hours": {"open_now": true}, "photos": [{"height": 4608, "html_attributions": ["<a href=\"https://maps.google.com/maps/contrib/106382982097441189211\">Raul Burgos Granados</a>"], "photo_reference": "CmRaAAAA32DdWyys5gsKpkduGVq3nBOO1yp0WC00TP9s2a7q4RxfP4MHkmd0S13Les1-lMUcCr-ItZBMDoI5RaqGSdXonezMzJ-aR8VRQuV2p6F1oNhKU3VhKlWI1vMiCileZqGREhADIHWni4fxdpGf0w04oe7jGhQxZPLmvtmdyvP6jff8XuAgHhKPrA", "width": 2592}], "place_id": "ChIJt9QeyPT90YURywDmF4joNCc", "plus_code": {"compound_code": "8WWC+F3 Mexico City", "global_code": "76F28WWC+F3"}, "rating": 4.4, "reference": "ChIJt9QeyPT90YURywDmF4joNCc", "types": ["restaurant", "food", "point_of_interest", "establishment"], "user_ratings_total": 13}]