[{"business_status": "OPERATIONAL", "formatted_address": "Av. Viaducto Rio de la Piedad Ciudad de los Deportes Magdalena Mixihuca, Granjas M\u00e9xico, 08400 Ciudad de M\u00e9xico, CDMX", "geometry": {"location": {"lat": 19.4042943, "lng": -99.08574650000001}, "viewport": {"northeast": {"lat": 19.40564412989272, "lng": -99.08439667010728}, "southwest": {"lat": 19.40294447010728, "lng": -99.08709632989273}}}, "icon": "https://maps.gstatic.com/mapfiles/place_api/icons/v1/png_71/stadium-71.png", "name": "Estadio Alfredo Harp Hel\u00fa", "opening_hours": {"open_now": true}, "photos": [{"height": 2448, "html_attributions": ["<a href=\"https://maps.google.com/maps/contrib/101115047168761529286\">Jos\u00e9 Luis Fragoso</a>"], "photo_reference": "CmRaAAAA1DY7rk1zbLLQQOhEAoAA8AswgXcb0qGNS-Ndy_-oJsyX_D25bCPYKVlj8wboR2tipfJhsCR-ho60IB6Lk9kXbcFa6hvlQAXMIGC7hZtj4xnaiPB6NfRmo9TYvsiz_AgUEhC4nKmyXqtY-Cp9aG7XfF1sGhTK3kW26xEwljKyQ-W5QpM0cL-8Qw", "width": 3264}], "place_id": "ChIJi3mnaTn80YURx9zrrX9yv6M", "plus_code": {"compound_code": "CW37+PP Mexico City", "global_code": "76F2CW37+PP"}, "rating": 4.8, "reference": "ChIJi3mnaTn80YURx9zrrX9yv6M", "types": ["stadium", "point_of_interest", "establishment"], "user_ratings_total": 8189}, {"business_status": "CLOSED_TEMPORARILY", "formatted_address": "Calz. de Tlalpan 3465, Sta. \u00darsula Coapa, Coyoac\u00e1n, 04650 Ciudad de M\u00e9xico, CDMX", "geometry": {"location": {"lat": 19.3028607, "lng": -99.1505277}, "viewport": {"northeast": {"lat": 19.3074599, "lng": -99.1447498}, "southwest": {"lat": 19.29962949999999, "lng": -99.15854300000001}}}, "icon": "https://maps.gstatic.com/mapfiles/place_api/icons/v1/png_71/stadium-71.png", "name": "Aztec Stadium", "permanently_closed": true, "photos": [{"height": 3132, "html_attributions": ["<a href=\"https://maps.google.com/maps/contrib/117203853644612829532\">luisrobertofutbol@hotmail.com</a>"], "photo_reference": "CmRaAAAA-i5DWZ6m4_bGwdnJjUhoBFsRA-BFzXYcFGAwYGz4EWoLszoRQO85bKHBB9n3ub-4x8iS88QUK1YgJVcVjMNCW-ulgVAx3QFkiL2zRxl_NuHBjsGCnZKAvODvRjA8lcpxEhDS6aWgkWUd0X01Z4UpOAXZGhSi4yDjesM-rcKLyNqgG5tsE6F0VQ", "width": 5108}], "place_id": "ChIJGQkBCFIAzoURlLaQUWnuYZc", "plus_code": {"compound_code": "8R3X+4Q Mexico City", "global_code": "76F28R3X+4Q"}, "rating": 4.5, "reference": "ChIJGQkBCFIAzoURlLaQUWnuYZc", "types": ["stadium", "point_of_interest", "establishment"], "user_ratings_total": 56920}, {"business_status": "OPERATIONAL", "formatted_address": "Fernando Iglesias Calder\u00f3n S/N, Venustiano Carranza, Jard\u00edn Balbuena, 15900 Ciudad de M\u00e9xico, CDMX", "geometry": {"location": {"lat": 19.4102766, "lng": -99.1095521}, "viewport": {"northeast": {"lat": 19.41320545, "lng": -99.1081322}, "southwest": {"lat": 19.40669644999999, "lng": -99.11085259999999}}}, "icon": "https://maps.gstatic.com/mapfiles/place_api/icons/v1/png_71/stadium-71.png", "name": "Baseball Stadium Fray Nano", "photos": [{"height": 3936, "html_attributions": ["<a href=\"https://maps.google.com/maps/contrib/101664238304783501788\">Ramon Leon</a>"], "photo_reference": "CmRaAAAAeML3sw3LcAOxozxRICYQR3q5RfN88fYZvFEG3Ge53krbpG2u0RXRFf4ZGVwpcfv0pN7EZ0s0c_-SBfgm2hxOCoEEUp0nfXtzIRP75xRCVdNZ-_yq5wLK3ykvk7kIiG7UEhAhcccjii737ruUJxNysGEqGhR25lRaYkELSzm4-1uSsilPEm4-lA", "width": 5344}], "place_id": "ChIJ-VOrkpj-0YURixXUrTZIKpk", "plus_code": {"compound_code": "CV6R+45 Mexico City", "global_code": "76F2CV6R+45"}, "rating": 4.4, "reference": "ChIJ-VOrkpj-0YURixXUrTZIKpk", "types": ["stadium", "point_of_interest", "establishment"], "user_ratings_total": 5490}, {"business_status": "CLOSED_TEMPORARILY", "formatted_address": "Calle 1 Ricardo Jaime 3, Iztapalapa, 09200 Ciudad de M\u00e9xico, CDMX", "geometry": {"location": {"lat": 19.3614793, "lng": -99.059292}, "viewport": {"northeast": {"lat": 19.36297702989272, "lng": -99.05791232010726}, "southwest": {"lat": 19.36027737010728, "lng": -99.06061197989271}}}, "icon": "https://maps.gstatic.com/mapfiles/place_api/icons/v1/png_71/stadium-71.png", "name": "Canchas chanchas", "permanently_closed": true, "place_id": "ChIJVZ2OsH_90YUR6_iJX4KFQPg", "plus_code": {"compound_code": "9W6R+H7 Mexico City", "global_code": "76F29W6R+H7"}, "rating": 4, "reference": "ChIJVZ2OsH_90YUR6_iJX4KFQPg", "types": ["stadium", "point_of_interest", "establishment"], "user_ratings_total": 1}, {"business_status": "CLOSED_TEMPORARILY", "formatted_address": "Calle Indiana 255, Cd. de los Deportes, Benito Ju\u00e1rez, 03710 Ciudad de M\u00e9xico, CDMX", "geometry": {"location": {"lat": 19.3834469, "lng": -99.1782654}, "viewport": {"northeast": {"lat": 19.38547475, "lng": -99.17651995000001}, "southwest": {"lat": 19.38133855, "lng": -99.18001575}}}, "icon": "https://maps.gstatic.com/mapfiles/place_api/icons/v1/png_71/stadium-71.png", "name": "Estadio Azul", "permanently_closed": true, "photos": [{"height": 2322, "html_attributions": ["<a href=\"https://maps.google.com/maps/contrib/113784461632749031085\">josari .</a>"], "photo_reference": "CmRaAAAAwoWHZjqsNQKvy07uOZ9GbzLgdaRvZsghk8TZ-kuHapS1NofI5mmyYkrLxUcW5Htq2fswTBh31uErzOfq-zsZnHOiGvxQlMzv5mEpV2shvSkhvyrfgJ0v2sIebMM7QdmYEhBqobz6phJujBwRCVLxnNfhGhT74e2Ropo2Xp3lXrHf5JaoC60y4w", "width": 4128}], "place_id": "ChIJu_WbZ53_0YURJKUxXtIlvOk", "plus_code": {"compound_code": "9RMC+9M Mexico City", "global_code": "76F29RMC+9M"}, "rating": 4.3, "reference": "ChIJu_WbZ53_0YURJKUxXtIlvOk", "types": ["stadium", "point_of_interest", "establishment"], "user_ratings_total": 14237}, {"business_status": "CLOSED_TEMPORARILY", "formatted_address": "Av de los Insurgentes Sur S/N, C.U., Coyoac\u00e1n, 04510 Ciudad de M\u00e9xico, CDMX", "geometry": {"location": {"lat": 19.3319125, "lng": -99.1921777}, "viewport": {"northeast": {"lat": 19.33647864999999, "lng": -99.1875148}, "southwest": {"lat": 19.32672645, "lng": -99.1974748}}}, "icon": "https://maps.gstatic.com/mapfiles/place_api/icons/v1/png_71/stadium-71.png", "name": "Estadio Ol\u00edmpico Universitario", "permanently_closed": true, "photos": [{"height": 1840, "html_attributions": ["<a href=\"https://maps.google.com/maps/contrib/101239517767046041332\">A Google User</a>"], "photo_reference": "CmRaAAAA8BlgkmUs0uw-GYwlTayv3npLgD2nBrc1_3tvev6GIOx0xChqoxvssoBRhszsIIFSVLwu1bb6dk_Ef8hlhOA1cp7Isfff4M86q0kmyXonO-5eAneBdAre8aeCgWCYMi60EhCZAgpbZaJutzhorhTWyoaFGhT8-Y3g-s-xO_Hs2NkL0JmUqAYqQg", "width": 3264}], "place_id": "ChIJz9X9XP7_zYUR4gSAZe8hcrg", "plus_code": {"compound_code": "8RJ5+Q4 Mexico City", "global_code": "76F28RJ5+Q4"}, "rating": 4.7, "reference": "ChIJz9X9XP7_zYUR4gSAZe8hcrg", "types": ["stadium", "point_of_interest", "establishment"], "user_ratings_total": 23962}, {"business_status": "OPERATIONAL", "formatted_address": "Av, Viad. R\u00edo de la Piedad S/N, Granjas M\u00e9xico, Iztacalco, 08400 Ciudad de M\u00e9xico, CDMX", "geometry": {"location": {"lat": 19.405162, "lng": -99.09558870000001}, "viewport": {"northeast": {"lat": 19.40927010000001, "lng": -99.08792639999997}, "southwest": {"lat": 19.4004209, "lng": -99.10023360000001}}}, "icon": "https://maps.gstatic.com/mapfiles/place_api/icons/v1/png_71/stadium-71.png", "name": "Foro Sol", "photos": [{"height": 1952, "html_attributions": ["<a href=\"https://maps.google.com/maps/contrib/106851416375466626646\">Cristian</a>"], "photo_reference": "CmRaAAAAbppg2AG8aRsnB8wCfyS995Pie-aCjtnzycczqfTR4FJgTuQipC_ICsZ6g3CjikNJgk9tvYy3LTx--nYebDVXY6yN7a_Re_For4gzu0-YeCcHssYtaTnO02x6n1hFPeNfEhDFwJbmS8JYLNz2nfeL3FKoGhQ3WiU_nifXowvyoh90iMsEZMaIhg", "width": 3264}], "place_id": "ChIJYczSHCT80YURcAFpPX1ZlNk", "plus_code": {"compound_code": "CW43+3Q Mexico City", "global_code": "76F2CW43+3Q"}, "rating": 4.6, "reference": "ChIJYczSHCT80YURcAFpPX1ZlNk", "types": ["stadium", "point_of_interest", "establishment"], "user_ratings_total": 30573}, {"business_status": "OPERATIONAL", "formatted_address": "Av. Gral. L\u00e1zaro C\u00e1rdenas s/n, Benito Ju\u00e1rez, 57940 Nezahualc\u00f3yotl, M\u00e9x.", "geometry": {"location": {"lat": 19.4057897, "lng": -98.9870692}, "viewport": {"northeast": {"lat": 19.40695357989272, "lng": -98.98611677010729}, "southwest": {"lat": 19.40425392010728, "lng": -98.98881642989272}}}, "icon": "https://maps.gstatic.com/mapfiles/place_api/icons/v1/png_71/stadium-71.png", "name": "Estadio Neza 86", "photos": [{"height": 2988, "html_attributions": ["<a href=\"https://maps.google.com/maps/contrib/105143792918166207379\">German Mora</a>"], "photo_reference": "CmRaAAAArOHNTtppJz-9Bj-zJ-qUD9gzWv_vfqVSzOOrGVResxWUEw6mwoPuYyAsVJmwbD4j5YdcDkvrX8SMVK6VojW7DBMCL-YuwH6HbJzSiUO3VKIj5kOEpU5rYFMKieCdTafmEhAvKbOG1nMAtZ-VQtR-XFRhGhRZQTaBxGvoYc7ESjS4PmVQFmDP5Q", "width": 5312}], "place_id": "ChIJL9scZBfj0YURdMcW9_uJWSA", "plus_code": {"compound_code": "C247+85 Ciudad Nezahualc\u00f3yotl, State of Mexico", "global_code": "76F3C247+85"}, "rating": 3.8, "reference": "ChIJL9scZBfj0YURdMcW9_uJWSA", "types": ["stadium", "point_of_interest", "establishment"], "user_ratings_total": 2048}, {"business_status": "CLOSED_TEMPORARILY", "formatted_address": "Estadio, Vista Azul, Benito Ju\u00e1rez, 03710 Santiago de Quer\u00e9taro, Qro.", "geometry": {"location": {"lat": 19.3834469, "lng": -99.1782654}, "viewport": {"northeast": {"lat": 19.38493857989273, "lng": -99.17648452010728}, "southwest": {"lat": 19.38223892010728, "lng": -99.17918417989273}}}, "icon": "https://maps.gstatic.com/mapfiles/place_api/icons/v1/png_71/stadium-71.png", "name": "Estadio Azul Y Plaza De Toros Desde Lo Alto", "permanently_closed": true, "photos": [{"height": 3120, "html_attributions": ["<a href=\"https://maps.google.com/maps/contrib/114725943743702721241\">Robert Diaz</a>"], "photo_reference": "CmRaAAAAqfvS141k2uvVRqgKZ8s3QGGbU2yTaeHmk0dZ6V-wrkGSPjjROzH1Is1Mg1aYaMYKd7JX4RzvZ0Xs0SZPy-yG953ABqLsxENIv0tLt7xVDxl4bsAmrH4kW8syPGsljSUrEhBY4ImkIFuN8yz5pL3RNqjvGhTFUD4YfudUq-2FRyqHyDxv27YfIg", "width": 4160}], "place_id": "ChIJHRhYUJ3_0YUR5npJ1bhP6z8", "plus_code": {"compound_code": "9RMC+9M Mexico City", "global_code": "76F29RMC+9M"}, "rating": 4.3, "reference": "ChIJHRhYUJ3_0YUR5npJ1bhP6z8", "types": ["stadium", "point_of_interest", "establishment"], "user_ratings_total": 43}, {"business_status": "CLOSED_TEMPORARILY", "formatted_address": "Palacio Nacional 157, Metropolitana 2da Secc, 57740 Nezahualc\u00f3yotl, M\u00e9x.", "geometry": {"location": {"lat": 19.3921868, "lng": -99.0250027}, "viewport": {"northeast": {"lat": 19.39346217989272, "lng": -99.02349167010729}, "southwest": {"lat": 19.39076252010727, "lng": -99.02619132989273}}}, "icon": "https://maps.gstatic.com/mapfiles/place_api/icons/v1/png_71/stadium-71.png", "name": "Estadio Metropolitano", "permanently_closed": true, "place_id": "ChIJkZWsznv90YURn-l1aoOsMDY", "plus_code": {"compound_code": "9XRF+VX Ciudad Nezahualc\u00f3yotl, State of Mexico", "global_code": "76F29XRF+VX"}, "rating": 0, "reference": "ChIJkZWsznv90YURn-l1aoOsMDY", "types": ["stadium", "point_of_interest", "establishment"], "user_ratings_total": 0}, {"business_status": "CLOSED_TEMPORARILY", "formatted_address": "Boulevard 4, Granjas M\u00e9xico, Iztacalco, 08400 Ciudad de M\u00e9xico, CDMX", "geometry": {"location": {"lat": 19.4075425, "lng": -99.10051729999999}, "viewport": {"northeast": {"lat": 19.40889232989272, "lng": -99.09916747010729}, "southwest": {"lat": 19.40619267010728, "lng": -99.10186712989272}}}, "icon": "https://maps.gstatic.com/mapfiles/place_api/icons/v1/png_71/stadium-71.png", "name": "Arena Gamos", "permanently_closed": true, "photos": [{"height": 2268, "html_attributions": ["<a href=\"https://maps.google.com/maps/contrib/116841598789110091172\">pabel octavio rosas montero</a>"], "photo_reference": "CmRaAAAATs3WRsULP7PCrq7uuKZl2Np_ahpxcX8CdaLW1jIEyJ3pNxqUrRABBWh33Tw_t9QOwgyKzBEsKlmBFA_FmNTkvbN_jv6mKRZ5YeOnRCNX39-1qtzocgq406j9KFj42U6-EhCiQ2_rLvXrWnnEbaTrqK4fGhQMrW4-UJyNQcdzC9x2cPrmWMlrww", "width": 4032}], "place_id": "ChIJYxl8DYT90YURRGPuaRQ8kDc", "plus_code": {"compound_code": "CV5X+2Q Mexico City", "global_code": "76F2CV5X+2Q"}, "rating": 3.8, "reference": "ChIJYxl8DYT90YURRGPuaRQ8kDc", "types": ["stadium", "point_of_interest", "establishment"], "user_ratings_total": 4}, {"business_status": "OPERATIONAL", "formatted_address": "Calz Taxque\u00f1a 1961-C, San Francisco Culhuacan, San Francisco Culhuacan de Sta Ana, Coyoac\u00e1n, 04260 Ciudad de M\u00e9xico, CDMX", "geometry": {"location": {"lat": 19.3381307, "lng": -99.1183935}, "viewport": {"northeast": {"lat": 19.33950842989272, "lng": -99.11708397010727}, "southwest": {"lat": 19.33680877010728, "lng": -99.11978362989272}}}, "icon": "https://maps.gstatic.com/mapfiles/place_api/icons/v1/png_71/stadium-71.png", "name": "BASE Trolebuses Estadio CU-San Francisco Culhuac\u00e1n (Metro Taxque\u00f1a, Metro MIguel \u00c1ngel de Quevedo)", "photos": [{"height": 3264, "html_attributions": ["<a href=\"https://maps.google.com/maps/contrib/110395064743155494836\">Estrella Rosas</a>"], "photo_reference": "CmRaAAAA-x1SFGrF5xexDCOLnxsRNnVqvsSJb26rd4RvzMDw_FtK4sDPSPXdrGml2Lsp2ilsF7geOEZWpId3cXuMGGhNizJtMn4b_Tc7HWVY6NdF147mDaudxWVbswWRvL5co1tIEhAyThLjiDQCSyUFEV5TA86sGhST0mzL2TsuSwvJNAkzfUYUrU5MYQ", "width": 1632}], "place_id": "ChIJS9tLjOEBzoUR1OlbSPmcy10", "plus_code": {"compound_code": "8VQJ+7J Mexico City", "global_code": "76F28VQJ+7J"}, "rating": 3.9, "reference": "ChIJS9tLjOEBzoUR1OlbSPmcy10", "types": ["stadium", "point_of_interest", "establishment"], "user_ratings_total": 109}, {"business_status": "OPERATIONAL", "formatted_address": "Cto. Estadio Ol\u00edmpico, C.U., Coyoac\u00e1n, 04510 Ciudad de M\u00e9xico, CDMX", "geometry": {"location": {"lat": 19.3336151, "lng": -99.19213239999999}, "viewport": {"northeast": {"lat": 19.33501367989273, "lng": -99.19078177010728}, "southwest": {"lat": 19.33231402010728, "lng": -99.19348142989273}}}, "icon": "https://maps.gstatic.com/mapfiles/place_api/icons/v1/png_71/stadium-71.png", "name": "Estadio Universitario Cu", "photos": [{"height": 2322, "html_attributions": ["<a href=\"https://maps.google.com/maps/contrib/110577834851046947574\">Carlos Valencia</a>"], "photo_reference": "CmRaAAAAnNh6QNcFDYvAWMi4kv8VmsuGPuIqEbmwAFZxaN2Ld2wb7rIlT2t89reGO5hL6giD5WbfV5EFB8r19Wt-Jg3Belat4zqCt9VLDH8lBfsk3pFptmeaJ56oykHMrDOYZ6YwEhCMNjV9-FAwJcI8Ovq9CSDzGhQjWB-eYXaw-66RZLuPJii8Ikvqbg", "width": 4128}], "place_id": "ChIJbbqQpf7_zYURnsC3ajkdjHU", "plus_code": {"compound_code": "8RM5+C4 Mexico City", "global_code": "76F28RM5+C4"}, "rating": 4.8, "reference": "ChIJbbqQpf7_zYURnsC3ajkdjHU", "types": ["stadium", "point_of_interest", "establishment"], "user_ratings_total": 451}, {"business_status": "CLOSED_TEMPORARILY", "formatted_address": "Xalpa, Iztapalapa, 09640 Mexico City, CDMX", "geometry": {"location": {"lat": 19.3373564, "lng": -99.013117}, "viewport": {"northeast": {"lat": 19.33873397989273, "lng": -99.01174917010728}, "southwest": {"lat": 19.33603432010728, "lng": -99.01444882989273}}}, "icon": "https://maps.gstatic.com/mapfiles/place_api/icons/v1/png_71/stadium-71.png", "name": "Liga Las Canchas", "permanently_closed": true, "photos": [{"height": 2448, "html_attributions": ["<a href=\"https://maps.google.com/maps/contrib/112983080699927292420\">A Google User</a>"], "photo_reference": "CmRaAAAArH-lc9_ZGanmlvpp7qc1Uel0PCfJZYhxXp8fA0GALOYp7CgcNAfI54X3HnPA1vokIQTb_N6t2N3ov4u45RFSCHQUjLT7_WRDBGl-LEJo8DRYe4f30MU_ytvOolUeSG0_EhBRugOsvFiSwLcPcDxIelDcGhTM7V-0LOes5K4PM2mrAdOZy9Adqg", "width": 3264}], "place_id": "ChIJkZQOzKwCzoURFumIWjLxdY8", "plus_code": {"compound_code": "8XPP+WQ Mexico City", "global_code": "76F28XPP+WQ"}, "rating": 3.6, "reference": "ChIJkZQOzKwCzoURFumIWjLxdY8", "types": ["stadium", "point_of_interest", "establishment"], "user_ratings_total": 30}, {"business_status": "CLOSED_TEMPORARILY", "formatted_address": "Calz Acoxpa 14, Coapa, Villa L\u00e1zaro C\u00e1rdenas, Tlalpan, 14370 L\u00e1zaro C\u00e1rdenas, CDMX", "geometry": {"location": {"lat": 19.2996136, "lng": -99.14106819999999}, "viewport": {"northeast": {"lat": 19.30073932989272, "lng": -99.13981457010728}, "southwest": {"lat": 19.29803967010728, "lng": -99.14251422989273}}}, "icon": "https://maps.gstatic.com/mapfiles/place_api/icons/v1/png_71/stadium-71.png", "name": "Estadio Centenario Marista", "permanently_closed": true, "photos": [{"height": 1920, "html_attributions": ["<a href=\"https://maps.google.com/maps/contrib/102014645445526508889\">Cesar Cortes</a>"], "photo_reference": "CmRaAAAAPqkz2A59V2GZAhIh1tirdX2V2rGeGYwM8dBTWXcU7BV5CB3j5qY0PMEgIwpOEN0nFqswlRb6NZB3YDHOVi9fC3YZMnQBqyPx2zlOy7rCCXi3YAxqM4Ivt76nTVMoFRG-EhAsY2RsTj2ZIc3T69_I9HMDGhRATvzdulWiANmXeki7M5A29zV3VA", "width": 3200}], "place_id": "ChIJOxE9OqwBzoURGZnsJs_X2Uw", "plus_code": {"compound_code": "7VX5+RH Villa L\u00e1zaro C\u00e1rdenas, Mexico City", "global_code": "76F27VX5+RH"}, "rating": 4.7, "reference": "ChIJOxE9OqwBzoURGZnsJs_X2Uw", "types": ["stadium", "point_of_interest", "establishment"], "user_ratings_total": 3}, {"business_status": "OPERATIONAL", "formatted_address": "Av. Jos\u00e9 del Pilar Le\u00f3n, S\u00e1nchez 56-88, 57460 Nezahualc\u00f3yotl, CDMX", "geometry": {"location": {"lat": 19.3996, "lng": -99.054}, "viewport": {"northeast": {"lat": 19.40094337989272, "lng": -99.05258702010728}, "southwest": {"lat": 19.39824372010728, "lng": -99.05528667989273}}}, "icon": "https://maps.gstatic.com/mapfiles/place_api/icons/v1/png_71/stadium-71.png", "name": "Arena San Juan", "photos": [{"height": 333, "html_attributions": ["<a href=\"https://maps.google.com/maps/contrib/116510833118147547783\">Helena Markos</a>"], "photo_reference": "CmRaAAAAdFIM3k5RWwL9ru6NG1zvGeZ7oU4T3rgTICvUU77BidWKjYIs9xy_ayzHg7uSv6_L0EZ2iCcslwP0HUZyBZD56uIf9bQkHEOhjbRjLUzroh6lCnbK71H9AFu3pCvuomiVEhDgXfdzTawjDK0miXhxXEdEGhRy4SX8wVJO-XLIRRl3skcUkqD9Rw", "width": 500}], "place_id": "ChIJkQJgBPn80YURtTLLycwzoBc", "plus_code": {"compound_code": "9WXW+R9 Ciudad Nezahualc\u00f3yotl, State of Mexico", "global_code": "76F29WXW+R9"}, "rating": 4.2, "reference": "ChIJkQJgBPn80YURtTLLycwzoBc", "types": ["stadium", "point_of_interest", "establishment"], "user_ratings_total": 409}, {"business_status": "CLOSED_TEMPORARILY", "formatted_address": "Calz. del Hueso #388, Coapa, Girasoles III, Coyoac\u00e1n, 04920 Ciudad de M\u00e9xico, CDMX", "geometry": {"location": {"lat": 19.3088201, "lng": -99.1273435}, "viewport": {"northeast": {"lat": 19.31005472989272, "lng": -99.12559372010728}, "southwest": {"lat": 19.30735507010728, "lng": -99.12829337989272}}}, "icon": "https://maps.gstatic.com/mapfiles/place_api/icons/v1/png_71/stadium-71.png", "name": "Campo RAYOS", "permanently_closed": true, "photos": [{"height": 1080, "html_attributions": ["<a href=\"https://maps.google.com/maps/contrib/101254300168083655681\">A Google User</a>"], "photo_reference": "CmRaAAAAjhTbVEhkM7CebNp7e5n_mCyTZRVu6Zf-g1ymTKaDiFusE3gT4zZ6b7YU-4PTCiXDXm7qMZZgoTnvF6MwK0vQihwDTcX1CvLyfHk-dtGLiKvb6iXT9mlh66iwycdjueaTEhBgutZyo873Q7f5MGASOeaVGhTmOkF63B0XUPcdJaAt8MtH0csLAw", "width": 1920}], "place_id": "ChIJRfBEdT0BzoURzx1ZcYEG6Xk", "plus_code": {"compound_code": "8V5F+G3 Mexico City", "global_code": "76F28V5F+G3"}, "rating": 0, "reference": "ChIJRfBEdT0BzoURzx1ZcYEG6Xk", "types": ["stadium", "point_of_interest", "establishment"], "user_ratings_total": 0}, {"business_status": "OPERATIONAL", "formatted_address": "Escolar D, C.U., Coyoac\u00e1n, 04510 Coyac\u00e1n, CDMX", "geometry": {"location": {"lat": 19.3265633, "lng": -99.1868126}, "viewport": {"northeast": {"lat": 19.32821015, "lng": -99.18525975}, "southwest": {"lat": 19.32503235, "lng": -99.18906234999999}}}, "icon": "https://maps.gstatic.com/mapfiles/place_api/icons/v1/png_71/stadium-71.png", "name": "Roberto stadium \"Tapatio\" Mendez", "photos": [{"height": 3072, "html_attributions": ["<a href=\"https://maps.google.com/maps/contrib/104098212109388624391\">A Google User</a>"], "photo_reference": "CmRaAAAAB_zH7TtZeTGrMq7NdIuV60wQjhIOBNOeSk9wzmoWeroqHgopH-zU3wo8gvV-5fPzSq16oTqWMgVhMfayKi5xpJH_vJ7wBk4x14mHfCOJO4Q3Hi_lTjJzZk8P1-i4zvTlEhDT5C0U7xQKMEcA9A2-BnkFGhT8_8RCE-1hUVqh6r5fW2Kpt_g-bw", "width": 4096}], "place_id": "ChIJQxSqTgYAzoURs9NLVsbu2dY", "plus_code": {"compound_code": "8RG7+J7 University City, Mexico City", "global_code": "76F28RG7+J7"}, "rating": 4.5, "reference": "ChIJQxSqTgYAzoURs9NLVsbu2dY", "types": ["stadium", "point_of_interest", "establishment"], "user_ratings_total": 885}, {"business_status": "CLOSED_TEMPORARILY", "formatted_address": "Nte. 1 3, Isidro Fabela, Tlalpan, 14030 Ciudad de M\u00e9xico, CDMX", "geometry": {"location": {"lat": 19.2987143, "lng": -99.1762608}, "viewport": {"northeast": {"lat": 19.30001577989272, "lng": -99.17480667010729}, "southwest": {"lat": 19.29731612010728, "lng": -99.17750632989272}}}, "icon": "https://maps.gstatic.com/mapfiles/place_api/icons/v1/png_71/stadium-71.png", "name": "Estadio de B\u00e9isbol \"Chicote Ayala\"", "permanently_closed": true, "photos": [{"height": 2592, "html_attributions": ["<a href=\"https://maps.google.com/maps/contrib/111040372072033880839\">Airmara Guardado</a>"], "photo_reference": "CmRaAAAAQOqedOUcCRWr_7wKET8g8o1HN_MypBm2s51EuVl3dTNxtgnXt2XXKr3qC_uAFh3wXFRzTbaX-0e2U5oPy7s8VI3WcFWeAaodRTZhr_ngB5uf_Ev1BdKdPc74upZN0uH1EhD1hH1M7qx1sUuKoSzPozVdGhRuLD4YTpzKiiR3_MDMsK9ARUcp6g", "width": 1944}], "place_id": "ChIJrZ2Ya6cluoYRDauTwY8iV_A", "plus_code": {"compound_code": "7RXF+FF Mexico City", "global_code": "76F27RXF+FF"}, "rating": 3.9, "reference": "ChIJrZ2Ya6cluoYRDauTwY8iV_A", "types": ["stadium", "point_of_interest", "establishment"], "user_ratings_total": 10}, {"business_status": "CLOSED_TEMPORARILY", "formatted_address": "Av. Luis Enrique Erro s/n, Zacatenco, Gustavo A. Madero, 07738 Ciudad de M\u00e9xico, CDMX", "geometry": {"location": {"lat": 19.5018761, "lng": -99.1385581}, "viewport": {"northeast": {"lat": 19.50329927989272, "lng": -99.13764197010728}, "southwest": {"lat": 19.50059962010728, "lng": -99.14034162989273}}}, "icon": "https://maps.gstatic.com/mapfiles/place_api/icons/v1/png_71/stadium-71.png", "name": "Estadio Wilfrido Massieu", "permanently_closed": true, "photos": [{"height": 2448, "html_attributions": ["<a href=\"https://maps.google.com/maps/contrib/101106335386366421819\">Gerardo L\u00f3pez Osorio</a>"], "photo_reference": "CmRaAAAAb-U9swMTExBhaKE3SvbDl3wOSAL554hLudHgYo7x38q3DiMZfYP2maK4F3DPNCOfUVoTjSy7-PEhON_C_VGici4AOY1ciDCrW5Kdu6bKOIhT9L5kRcTzT_Fchl0q9E85EhDNBIQ5nRGcQmozLEJleZ5-GhS6H4KMoBfr92OiJgCgf0zHIZITCQ", "width": 3264}], "place_id": "ChIJo99QQrb50YURjBuwzYewDRo", "plus_code": {"compound_code": "GV26+QH Mexico City", "global_code": "76F2GV26+QH"}, "rating": 4.7, "reference": "ChIJo99QQrb50YURjBuwzYewDRo", "types": ["stadium", "point_of_interest", "establishment"], "user_ratings_total": 2870}]