[{"business_status": "OPERATIONAL", "formatted_address": "Ermita Iztapalapa 1330, San Pablo, Iztapalapa, 09000 Ciudad de M\u00e9xico, CDMX", "geometry": {"location": {"lat": 19.3586108, "lng": -99.0893979}, "viewport": {"northeast": {"lat": 19.35991692989272, "lng": -99.08806057010729}, "southwest": {"lat": 19.35721727010728, "lng": -99.09076022989272}}}, "icon": "https://maps.gstatic.com/mapfiles/place_api/icons/v1/png_71/generic_business-71.png", "name": "Viajes Ermita", "opening_hours": {"open_now": false}, "photos": [{"height": 1463, "html_attributions": ["<a href=\"https://maps.google.com/maps/contrib/103797533680189224748\">Viajes ermita</a>"], "photo_reference": "CmRaAAAARa_pyn-6yoJggY1vcSUBTYjeeVREFE0MdVZFRsvEmq2i9mAvtPmga-Iy1buGgkAJhLFHxm27MEaVhyR371W8A6MOYeVrjgiN15gsygeuMRQEYQQSGp8xAD1MziVxrSxcEhDefyQEaoNUePX-vGQsxASuGhTrFrPdzjgJlh_mgxjOnG7HNB5WTw", "width": 2048}], "place_id": "ChIJ73u0Se_90YUR13bM0VJY1fI", "plus_code": {"compound_code": "9W56+C6 Mexico City", "global_code": "76F29W56+C6"}, "rating": 4.9, "reference": "ChIJ73u0Se_90YUR13bM0VJY1fI", "types": ["travel_agency", "point_of_interest", "establishment"], "user_ratings_total": 39}, {"business_status": "OPERATIONAL", "formatted_address": "09000, La Asunci\u00f3n, 09000 Ciudad de M\u00e9xico, CDMX", "geometry": {"location": {"lat": 19.3612858, "lng": -99.0937371}, "viewport": {"northeast": {"lat": 19.36258937989273, "lng": -99.09240217010728}, "southwest": {"lat": 19.35988972010728, "lng": -99.09510182989271}}}, "icon": "https://maps.gstatic.com/mapfiles/place_api/icons/v1/png_71/generic_business-71.png", "name": "DENYFF TOURS", "opening_hours": {"open_now": true}, "photos": [{"height": 720, "html_attributions": ["<a href=\"https://maps.google.com/maps/contrib/100094106119592465844\">A Google User</a>"], "photo_reference": "CmRaAAAAzqL6PfQy9pu7JyNQ1bmKhG2Fp4J_AnB0aAVoXhqw6Kb6yOjvQ7diWsHcknEMTzQGrQhAP7k4xI_HNLJ5PkQft2ErRemHX4rChRsquiETNsfV0Jo09WBNAXLfgC_nIU4YEhDdZmYpLJeVPUrW8RAvbyMrGhQXEB_dbcj91YDFtPK0osLvKuYpnw", "width": 1280}], "place_id": "ChIJz8BoknH90YURdEffkoTX3eI", "plus_code": {"compound_code": "9W64+GG Mexico City", "global_code": "76F29W64+GG"}, "rating": 0, "reference": "ChIJz8BoknH90YURdEffkoTX3eI", "types": ["travel_agency", "point_of_interest", "establishment"], "user_ratings_total": 0}, {"business_status": "OPERATIONAL", "formatted_address": "Ermita Iztapalapa 179, Ricardo Flores Mag\u00f3n, Iztapalapa, 09820 Ciudad de M\u00e9xico, CDMX", "geometry": {"location": {"lat": 19.3554661, "lng": -99.0965854}, "viewport": {"northeast": {"lat": 19.35689922989271, "lng": -99.09524687010727}, "southwest": {"lat": 19.35419957010727, "lng": -99.09794652989271}}}, "icon": "https://maps.gstatic.com/mapfiles/place_api/icons/v1/png_71/generic_business-71.png", "name": "Viajes Paraiso", "opening_hours": {"open_now": false}, "photos": [{"height": 3024, "html_attributions": ["<a href=\"https://maps.google.com/maps/contrib/112308515959831543725\">A Google User</a>"], "photo_reference": "CmRaAAAAtgJclkzTIevxCPCOysBpz5Ag7bn8fZvsDsyDb1fEvWXSbVdCOdG3NphMQurRCZdR3EQRjvHN5RuBQCQ1oGVBoOqCLEqfgKsZWZ5OtVX3rDSTKBWcI_VygyiLtRHxccLlEhCoEsyOUMgJDBuynOzTlBmwGhR7ljbnuCQS8KsENw-ofdHix235jA", "width": 4032}], "place_id": "ChIJSS_AfSr90YURtT8fauITxyo", "plus_code": {"compound_code": "9W43+59 Mexico City", "global_code": "76F29W43+59"}, "rating": 5, "reference": "ChIJSS_AfSr90YURtT8fauITxyo", "types": ["travel_agency", "point_of_interest", "establishment"], "user_ratings_total": 2}, {"business_status": "OPERATIONAL", "formatted_address": "Ermita Iztapalapa 2955, Amp San Miguel, Iztapalapa, 09360 Ciudad de M\u00e9xico, CDMX", "geometry": {"location": {"lat": 19.3503892, "lng": -99.07173929999999}, "viewport": {"northeast": {"lat": 19.35164197989272, "lng": -99.07043017010727}, "southwest": {"lat": 19.34894232010728, "lng": -99.07312982989272}}}, "icon": "https://maps.gstatic.com/mapfiles/place_api/icons/v1/png_71/generic_business-71.png", "name": "AVC Travel", "opening_hours": {"open_now": false}, "photos": [{"height": 3264, "html_attributions": ["<a href=\"https://maps.google.com/maps/contrib/105875338908793419944\">Edgar Garcia</a>"], "photo_reference": "CmRaAAAAU4bq4dd1ETADUT0kD0QQdtZrtLXkPWN-63uXMq-7n-maB4u3nvhnE4jHpYlPEWjoJRnmdgQTHhOZc62Eu3t8PGEv3LE6L50e8-tsKJ4CTZUiS-qWk4y5YCBj9CgDTEK7EhCHS7j6ioq1_MSOTGhy6IBnGhQJpQoNtoHS8yOWxG6u6nlybaHnag", "width": 1836}], "place_id": "ChIJUVXl7Y790YURW3On9ZclK5s", "plus_code": {"compound_code": "9W2H+58 Mexico City", "global_code": "76F29W2H+58"}, "rating": 3.9, "reference": "ChIJUVXl7Y790YURW3On9ZclK5s", "types": ["travel_agency", "point_of_interest", "establishment"], "user_ratings_total": 12}, {"business_status": "OPERATIONAL", "formatted_address": "Av. Luis Hidalgo Monroy 332, San Miguel, Iztapalapa, 09360 Ciudad de M\u00e9xico, CDMX", "geometry": {"location": {"lat": 19.3559007, "lng": -99.0804125}, "viewport": {"northeast": {"lat": 19.35733117989272, "lng": -99.07903412010728}, "southwest": {"lat": 19.35463152010728, "lng": -99.08173377989272}}}, "icon": "https://maps.gstatic.com/mapfiles/place_api/icons/v1/png_71/generic_business-71.png", "name": "mexicoturiguz TODO MEXICO MAGICO", "opening_hours": {"open_now": false}, "place_id": "ChIJvwUiz3_90YURPHlLwM8OvGs", "plus_code": {"compound_code": "9W49+9R Mexico City", "global_code": "76F29W49+9R"}, "rating": 0, "reference": "ChIJvwUiz3_90YURPHlLwM8OvGs", "types": ["travel_agency", "point_of_interest", "establishment"], "user_ratings_total": 0}, {"business_status": "OPERATIONAL", "formatted_address": "Puentetitla No.42, Ricardo Flores Mag\u00f3n, Iztapalapa, 09820 Ciudad de M\u00e9xico, CDMX", "geometry": {"location": {"lat": 19.3538328, "lng": -99.0991332}, "viewport": {"northeast": {"lat": 19.35520037989272, "lng": -99.09783047010728}, "southwest": {"lat": 19.35250072010728, "lng": -99.10053012989272}}}, "icon": "https://maps.gstatic.com/mapfiles/place_api/icons/v1/png_71/generic_business-71.png", "name": "Turismo Breton", "place_id": "ChIJ7y7z3OL90YUR8CoXHb9kbTc", "plus_code": {"compound_code": "9W32+G8 Mexico City", "global_code": "76F29W32+G8"}, "rating": 0, "reference": "ChIJ7y7z3OL90YUR8CoXHb9kbTc", "types": ["travel_agency", "point_of_interest", "establishment"], "user_ratings_total": 0}, {"business_status": "OPERATIONAL", "formatted_address": "Ermita Iztapalapa 964, Sta B\u00e1rbara, Iztapalapa, 09060 Ciudad de M\u00e9xico, CDMX", "geometry": {"location": {"lat": 19.3562532, "lng": -99.1008234}, "viewport": {"northeast": {"lat": 19.35754737989273, "lng": -99.09946612010728}, "southwest": {"lat": 19.35484772010728, "lng": -99.10216577989273}}}, "icon": "https://maps.gstatic.com/mapfiles/place_api/icons/v1/png_71/generic_business-71.png", "name": "Servicios Tur\u00edsticos Cervantes", "opening_hours": {"open_now": false}, "photos": [{"height": 498, "html_attributions": ["<a href=\"https://maps.google.com/maps/contrib/101171798532783971959\">A Google User</a>"], "photo_reference": "CmRaAAAASJeejIXte-SKRVGex82QtENPUEGzsA-9GPTV3OOXY9BoOJcSBLswdRm6URuf8jesT40F5VqIUn5XrOxozaKFYO1Lc_sHjLAzYa0--WM06umoIlyGXt9pnP9rh6cNibQ_EhDQCQho8NxcrEXZ1AVdkuN4GhTyf3_RO2JWk94jgYQK2SaIDARRmg", "width": 888}], "place_id": "ChIJra5obD_90YURR2onV-RpbSM", "plus_code": {"compound_code": "9V4X+GM Mexico City", "global_code": "76F29V4X+GM"}, "rating": 0, "reference": "ChIJra5obD_90YURR2onV-RpbSM", "types": ["travel_agency", "point_of_interest", "establishment"], "user_ratings_total": 0}, {"business_status": "OPERATIONAL", "formatted_address": "Av Canal de Tezontle 1520, Dr Alfonso Ortiz Tirado, Iztapalapa, 09020 Ciudad de M\u00e9xico, CDMX", "geometry": {"location": {"lat": 19.3843892, "lng": -99.07887459999999}, "viewport": {"northeast": {"lat": 19.38566117989272, "lng": -99.07753742010728}, "southwest": {"lat": 19.38296152010728, "lng": -99.08023707989273}}}, "icon": "https://maps.gstatic.com/mapfiles/place_api/icons/v1/png_71/generic_business-71.png", "name": "BestDay Plaza Oriente", "opening_hours": {"open_now": true}, "photos": [{"height": 496, "html_attributions": ["<a href=\"https://maps.google.com/maps/contrib/116321958054308532501\">Carlo Mej\u00eda</a>"], "photo_reference": "CmRaAAAAMOSrts71F7oWRk1dH7h0EJ3E4x4xXsVPZ5bBDbade96NLiMAvcXUjEOy0YjQSh5S-a8mZ7l2lnpw1FjYlKsWS4b44HmVBlUNYAT__Deb0wxWF3KGwgp8sPkuNTxwOZx9EhBnH4oq5H7OJMrzivpmlAHcGhRtnhGHXfxkXcz_lm6csskNOPo9aA", "width": 1024}], "place_id": "ChIJVzTY4sn90YURilOXk_6feuw", "plus_code": {"compound_code": "9WMC+QF Mexico City", "global_code": "76F29WMC+QF"}, "rating": 3.9, "reference": "ChIJVzTY4sn90YURilOXk_6feuw", "types": ["travel_agency", "real_estate_agency", "point_of_interest", "establishment"], "user_ratings_total": 187}, {"business_status": "OPERATIONAL", "formatted_address": "Ampliaci\u00f3n San Miguel, Ermita Iztapalapa 2955, 2da Amp San Miguel, Iztapalapa, 09360 Ciudad de M\u00e9xico, CDMX", "geometry": {"location": {"lat": 19.3503892, "lng": -99.07173929999999}, "viewport": {"northeast": {"lat": 19.35164197989272, "lng": -99.07043017010727}, "southwest": {"lat": 19.34894232010728, "lng": -99.07312982989272}}}, "icon": "https://maps.gstatic.com/mapfiles/place_api/icons/v1/png_71/generic_business-71.png", "name": "Vive tu Fin", "opening_hours": {"open_now": false}, "place_id": "ChIJudc78I790YURbY3m9kQ7iQA", "plus_code": {"compound_code": "9W2H+58 Mexico City", "global_code": "76F29W2H+58"}, "rating": 5, "reference": "ChIJudc78I790YURbY3m9kQ7iQA", "types": ["travel_agency", "point_of_interest", "establishment"], "user_ratings_total": 2}, {"business_status": "OPERATIONAL", "formatted_address": "Canal R\u00edo Churubusco 1635, \u00c1rea Federal Central de Abastos, Iztapalapa, 09040 Ciudad de M\u00e9xico, CDMX", "geometry": {"location": {"lat": 19.3781957, "lng": -99.0952715}, "viewport": {"northeast": {"lat": 19.37953042989272, "lng": -99.09415817010728}, "southwest": {"lat": 19.37683077010728, "lng": -99.09685782989273}}}, "icon": "https://maps.gstatic.com/mapfiles/place_api/icons/v1/png_71/generic_business-71.png", "name": "BestDay", "opening_hours": {"open_now": true}, "photos": [{"height": 450, "html_attributions": ["<a href=\"https://maps.google.com/maps/contrib/113556690148314891699\">BestDay Plaza Central</a>"], "photo_reference": "CmRaAAAANei-uVcxBtmC9AReUiaRWpnBefAA5UGy-MVc-b7TGWlcCLYr88iJpCB1rsE3U5CiPD75lmt9h1S3yP2cRGM0tOjO6epDzYc5zDETY7gSt8iGvIibTfa5IKnOlcUDheRfEhAN4hBBaZEFC9STKcLtL8B5GhSkYqPF4S7fqicNAkYz1u5dBBt3dw", "width": 800}], "place_id": "ChIJcaQR_Nn90YURw2sOsT3DD-c", "plus_code": {"compound_code": "9WH3+7V Mexico City", "global_code": "76F29WH3+7V"}, "rating": 3.5, "reference": "ChIJcaQR_Nn90YURw2sOsT3DD-c", "types": ["travel_agency", "point_of_interest", "establishment"], "user_ratings_total": 15}, {"business_status": "OPERATIONAL", "formatted_address": "Margaritas Mz35 Lt19 Local 2, Los Angeles, 09830 Iztapalapa, CDMX", "geometry": {"location": {"lat": 19.3456238, "lng": -99.0684452}, "viewport": {"northeast": {"lat": 19.34698152989272, "lng": -99.06712597010728}, "southwest": {"lat": 19.34428187010728, "lng": -99.06982562989272}}}, "icon": "https://maps.gstatic.com/mapfiles/place_api/icons/v1/png_71/generic_business-71.png", "name": "MGA Travel S.A de C.V", "opening_hours": {"open_now": false}, "place_id": "ChIJ32ImgYj90YURi9RL_B8_k1Q", "plus_code": {"compound_code": "8WWJ+6J Mexico City", "global_code": "76F28WWJ+6J"}, "rating": 4, "reference": "ChIJ32ImgYj90YURi9RL_B8_k1Q", "types": ["travel_agency", "point_of_interest", "establishment"], "user_ratings_total": 1}, {"business_status": "OPERATIONAL", "formatted_address": "Calle 3 Miguel R\u00edos 33, Iztapalapa, 09200 Ciudad de M\u00e9xico, CDMX", "geometry": {"location": {"lat": 19.3603091, "lng": -99.05951429999999}, "viewport": {"northeast": {"lat": 19.36161127989272, "lng": -99.05793137010727}, "southwest": {"lat": 19.35891162010728, "lng": -99.0606310298927}}}, "icon": "https://maps.gstatic.com/mapfiles/place_api/icons/v1/png_71/generic_business-71.png", "name": "Millennium Tours", "place_id": "ChIJ3dOM1p390YURud_kBc8BvQ0", "plus_code": {"compound_code": "9W6R+45 Mexico City", "global_code": "76F29W6R+45"}, "rating": 0, "reference": "ChIJ3dOM1p390YURud_kBc8BvQ0", "types": ["travel_agency", "point_of_interest", "establishment"], "user_ratings_total": 0}, {"business_status": "OPERATIONAL", "formatted_address": "Av. Toltecas 119-A, Sta B\u00e1rbara, Iztapalapa, 09000 Ciudad de M\u00e9xico, CDMX", "geometry": {"location": {"lat": 19.3599463, "lng": -99.1041049}, "viewport": {"northeast": {"lat": 19.36131222989272, "lng": -99.10280157010727}, "southwest": {"lat": 19.35861257010728, "lng": -99.10550122989272}}}, "icon": "https://maps.gstatic.com/mapfiles/place_api/icons/v1/png_71/generic_business-71.png", "name": "EdKa Viajes y Eventos", "opening_hours": {"open_now": false}, "photos": [{"height": 674, "html_attributions": ["<a href=\"https://maps.google.com/maps/contrib/117548060684285232539\">A Google User</a>"], "photo_reference": "CmRaAAAAuxxGhpSrxHWKSGoQYr_g2b69K0NLJsxwwWhXuVuYvB2SN46JTyQkZpw-o2AoJk2ggStbcqg5P4kVFtOxf122QlGO3ymFU8ePF0xAYW68qsfeE8WxkPL5F0y6X3eA_ynAEhAkUvRODxkCtZOAJXDn7JYSGhTuxcEhT7sDWtp-gUN-_kGuS9a15Q", "width": 1200}], "place_id": "ChIJzzcDzXr_0YURPH8GLyVs-uw", "plus_code": {"compound_code": "9V5W+X9 Mexico City", "global_code": "76F29V5W+X9"}, "rating": 0, "reference": "ChIJzzcDzXr_0YURPH8GLyVs-uw", "types": ["travel_agency", "point_of_interest", "establishment"], "user_ratings_total": 0}, {"business_status": "OPERATIONAL", "formatted_address": "Zentralia Churubusco AV. RIO CHURUBUSCO Exterior: 1072 Local: LA -36, Cda. 2 Tierra Nueva, Rosita, 09420 Ciudad de M\u00e9xico", "geometry": {"location": {"lat": 19.379068, "lng": -99.10189059999999}, "viewport": {"northeast": {"lat": 19.38040637989272, "lng": -99.10045177010728}, "southwest": {"lat": 19.37770672010728, "lng": -99.10315142989272}}}, "icon": "https://maps.gstatic.com/mapfiles/place_api/icons/v1/png_71/generic_business-71.png", "name": "BestDay Zentralia Churubusco", "opening_hours": {"open_now": false}, "photos": [{"height": 3456, "html_attributions": ["<a href=\"https://maps.google.com/maps/contrib/105143792918166207379\">German Mora</a>"], "photo_reference": "CmRaAAAA2ha0y4HWp2W_E3Phvq7_LDoEqBqpRqDUUggb-cWrdJvEsRRfDCsP0jKjqEoORSqfCFXDDm4hV04Sp8m718a7v4-rVwPIeTpde2BW2dtDsArR6A7IR9kgABPrxpVxin_jEhDKSLtlZLmPMB7IFYel7mHwGhTuezqEAVmX6FDRI6_aCRG6Xm-hMg", "width": 4608}], "place_id": "ChIJHY2QZHj-0YURHpQEzS7W40o", "plus_code": {"compound_code": "9VHX+J6 Mexico City", "global_code": "76F29VHX+J6"}, "rating": 4, "reference": "ChIJHY2QZHj-0YURHpQEzS7W40o", "types": ["travel_agency", "point_of_interest", "establishment"], "user_ratings_total": 39}, {"business_status": "OPERATIONAL", "formatted_address": "Av Canal de Tezontle 1512, \u00c1rea Federal Central de Abastos, Iztapalapa, 09020 Ciudad de M\u00e9xico, CDMX", "geometry": {"location": {"lat": 19.3843915, "lng": -99.08304609999999}, "viewport": {"northeast": {"lat": 19.38562157989272, "lng": -99.08183727010727}, "southwest": {"lat": 19.38292192010728, "lng": -99.08453692989272}}}, "icon": "https://maps.gstatic.com/mapfiles/place_api/icons/v1/png_71/generic_business-71.png", "name": "Viajes El Corte Ingles", "place_id": "ChIJb2nSGrb90YURufp2fVsvy4Y", "plus_code": {"compound_code": "9WM8+QQ Mexico City", "global_code": "76F29WM8+QQ"}, "rating": 4, "reference": "ChIJb2nSGrb90YURufp2fVsvy4Y", "types": ["travel_agency", "point_of_interest", "establishment"], "user_ratings_total": 8}, {"business_status": "OPERATIONAL", "formatted_address": "Av. R\u00edo Soto La Marina 81, Paseos de Churubusco, Iztapalapa, 09030 Ciudad de M\u00e9xico, CDMX", "geometry": {"location": {"lat": 19.3859664, "lng": -99.0865292}, "viewport": {"northeast": {"lat": 19.38736527989272, "lng": -99.08516267010728}, "southwest": {"lat": 19.38466562010728, "lng": -99.08786232989272}}}, "icon": "https://maps.gstatic.com/mapfiles/place_api/icons/v1/png_71/generic_business-71.png", "name": "Viajes Far Away", "opening_hours": {"open_now": false}, "photos": [{"height": 960, "html_attributions": ["<a href=\"https://maps.google.com/maps/contrib/112363141230063373542\">A Google User</a>"], "photo_reference": "CmRaAAAAJVyNZ3yvyfKaadlTqvF5bsD8yZ1Gt5P-J3iyUfiOgmELucljHnzHuH1dIqgx0Dcw63f03Zzre74H2djdx96CgPjJQRu2RG9YEErKJyoISlVphk-T30y9vIw2AjUK3I3bEhCYHAx1nswOCWahOH5VjasQGhRna3_7_nYGK2v8crZy2bTib7drsA", "width": 960}], "place_id": "ChIJawiz9sz90YURK-E4gwpdPkE", "plus_code": {"compound_code": "9WP7+99 Mexico City", "global_code": "76F29WP7+99"}, "rating": 4, "reference": "ChIJawiz9sz90YURK-E4gwpdPkE", "types": ["travel_agency", "point_of_interest", "establishment"], "user_ratings_total": 1}, {"business_status": "OPERATIONAL", "formatted_address": "Calle Toltecas No 115 Local 1 entre 5 de Mayo y, Cobos, Sta B\u00e1rbara, 09000 Ciudad de M\u00e9xico, CDMX", "geometry": {"location": {"lat": 19.3621622, "lng": -99.10331680000002}, "viewport": {"northeast": {"lat": 19.36351247989272, "lng": -99.10196842010728}, "southwest": {"lat": 19.36081282010728, "lng": -99.10466807989272}}}, "icon": "https://maps.gstatic.com/mapfiles/place_api/icons/v1/png_71/generic_business-71.png", "name": "EDKA Viajes y Eventos", "opening_hours": {"open_now": false}, "place_id": "ChIJy_8TzVL_0YURTuTwfhWBg7k", "plus_code": {"compound_code": "9V6W+VM Mexico City", "global_code": "76F29V6W+VM"}, "rating": 0, "reference": "ChIJy_8TzVL_0YURTuTwfhWBg7k", "types": ["travel_agency", "point_of_interest", "establishment"], "user_ratings_total": 0}, {"business_status": "OPERATIONAL", "formatted_address": "Av. R\u00edo Churubusco SN, Central de Abasto, Iztapalapa, 09040 Ciudad de M\u00e9xico, CDMX", "geometry": {"location": {"lat": 19.377702, "lng": -99.09304399999999}, "viewport": {"northeast": {"lat": 19.37924372989272, "lng": -99.09168867010727}, "southwest": {"lat": 19.37654407010728, "lng": -99.09438832989272}}}, "icon": "https://maps.gstatic.com/mapfiles/place_api/icons/v1/png_71/generic_business-71.png", "name": "PriceTravel - Plaza Central", "opening_hours": {"open_now": true}, "place_id": "ChIJV2bgYdD90YURkkxPXPtqFeE", "plus_code": {"compound_code": "9WH4+3Q Mexico City", "global_code": "76F29WH4+3Q"}, "rating": 4.3, "reference": "ChIJV2bgYdD90YURkkxPXPtqFeE", "types": ["travel_agency", "point_of_interest", "establishment"], "user_ratings_total": 8}, {"business_status": "OPERATIONAL", "formatted_address": "Av. Paseo de los Jardines 17, Paseos de Taxque\u00f1a, Coyoac\u00e1n, 04250 Ciudad de M\u00e9xico, CDMX", "geometry": {"location": {"lat": 19.3503043, "lng": -99.1272096}, "viewport": {"northeast": {"lat": 19.35166117989272, "lng": -99.1257609701073}, "southwest": {"lat": 19.34896152010728, "lng": -99.12846062989273}}}, "icon": "https://maps.gstatic.com/mapfiles/place_api/icons/v1/png_71/generic_business-71.png", "name": "Pachbe. Agencia de viajes", "opening_hours": {"open_now": false}, "photos": [{"height": 1073, "html_attributions": ["<a href=\"https://maps.google.com/maps/contrib/101798499838573314373\">Pachbe. Agencia de viajes</a>"], "photo_reference": "CmRaAAAAihRj3kBL_7GpyshQ0T2eY4j8STLSUXRRdI5LhDdzrdACbQyzgpOfSM_872j2GLZ_4sZcpZ_d15L8sInr48Sb4lKXTfle4fbV9o7sbCwq0n86UuJvEmPJqXihUNlfxdXwEhDAo86jfijXWni-TvIkw7o-GhQHaA2fMlWYmlOpNiJeTfvnt6bgxA", "width": 2930}], "place_id": "ChIJqco2ggwBzoURMeaW_1ySfXQ", "plus_code": {"compound_code": "9V2F+44 Mexico City", "global_code": "76F29V2F+44"}, "rating": 4.7, "reference": "ChIJqco2ggwBzoURMeaW_1ySfXQ", "types": ["travel_agency", "point_of_interest", "establishment"], "user_ratings_total": 18}, {"business_status": "OPERATIONAL", "formatted_address": "Sin referencia No. 18756 13, Tulyehualco Canal de Garay, Iztapalapa, 09919 Ciudad de M\u00e9xico, CDMX", "geometry": {"location": {"lat": 19.3140222, "lng": -99.07340110000001}, "viewport": {"northeast": {"lat": 19.31539367989272, "lng": -99.07208142010728}, "southwest": {"lat": 19.31269402010727, "lng": -99.07478107989273}}}, "icon": "https://maps.gstatic.com/mapfiles/place_api/icons/v1/png_71/generic_business-71.png", "name": "Agencia De Viajes Borges", "place_id": "ChIJlZuc4EMCzoUR4e72nRPBync", "plus_code": {"compound_code": "8W7G+JJ Mexico City", "global_code": "76F28W7G+JJ"}, "rating": 0, "reference": "ChIJlZuc4EMCzoUR4e72nRPBync", "types": ["travel_agency", "point_of_interest", "establishment"], "user_ratings_total": 0}]