[{"business_status": "OPERATIONAL", "formatted_address": "Av. H. Escuela Naval Militar S/N, Coapa, Ex-Ejido de San Pablo Tepetlapa, Coyoac\u00e1n, 04900 Coyoac\u00e1n, CDMX", "geometry": {"location": {"lat": 19.319074, "lng": -99.1217271}, "viewport": {"northeast": {"lat": 19.32103502989272, "lng": -99.11662215000001}, "southwest": {"lat": 19.31833537010728, "lng": -99.12713075}}}, "icon": "https://maps.gstatic.com/mapfiles/place_api/icons/v1/png_71/generic_business-71.png", "name": "Zool\u00f3gico Los Coyotes", "opening_hours": {"open_now": false}, "photos": [{"height": 1836, "html_attributions": ["<a href=\"https://maps.google.com/maps/contrib/102048273155234033318\">A Google User</a>"], "photo_reference": "CmRaAAAA5VBe-htgMjVVl35QAADgkcEPfREBVlmA6dNvDue5BiqpAAazqk9rpUpJj2kLM0bFputkYXBkD97BFzhikrugr_-qzCnFCreFCINtFodwP2NVrt4oyfHkJy-RhOR2ouBfEhDFWBHwCzc3ZVX3bDZkiWOCGhRv8dMZxIuUtreI5v8LDoO03b2ZlQ", "width": 3264}], "place_id": "ChIJQ8Am9uoBzoURbb9JdFtzXxc", "plus_code": {"compound_code": "8V9H+J8 Ex-Ejido de San Pablo Tepetlapa, Mexico City", "global_code": "76F28V9H+J8"}, "rating": 4.4, "reference": "ChIJQ8Am9uoBzoURbb9JdFtzXxc", "types": ["zoo", "tourist_attraction", "point_of_interest", "establishment"], "user_ratings_total": 13469}, {"business_status": "CLOSED_TEMPORARILY", "formatted_address": "Calz. Chivatito s/n, Bosque de Chapultepec I Secc, Miguel Hidalgo, 11850 Cdad. de Mexico, CDMX", "geometry": {"location": {"lat": 19.4232085, "lng": -99.1895256}, "viewport": {"northeast": {"lat": 19.42612119999999, "lng": -99.18616260000002}, "southwest": {"lat": 19.4218352, "lng": -99.19064659999998}}}, "icon": "https://maps.gstatic.com/mapfiles/place_api/icons/v1/png_71/generic_business-71.png", "name": "Zool\u00f3gico de Chapultepec", "permanently_closed": true, "photos": [{"height": 2160, "html_attributions": ["<a href=\"https://maps.google.com/maps/contrib/112013207076081565433\">Josue Mendoza</a>"], "photo_reference": "CmRaAAAAnr5KSKQItEr5GZ8cRNQB8xCJAlxBCJc_siS3PSZefx1v0tq8TOqkiN_TQ2zlZJIhx5FeMX-9gTAPXEIqJO2cul5hWuqEg_bXzXRNR654O_FJ8os54weDlAkCSlfSfrZ9EhBx2ZQ130LQJmIRNAToXLtEGhS-HDpeOS4YLqrAj2QZ7rS_bjQmng", "width": 3840}], "place_id": "ChIJwXColAIC0oURBKBWFzsqhkI", "plus_code": {"compound_code": "CRF6+75 Cdad. de Mexico, Mexico City", "global_code": "76F2CRF6+75"}, "rating": 4.1, "reference": "ChIJwXColAIC0oURBKBWFzsqhkI", "types": ["zoo", "tourist_attraction", "point_of_interest", "establishment"], "user_ratings_total": 46009}, {"business_status": "CLOSED_TEMPORARILY", "formatted_address": "Av. Jos\u00e9 Loreto Fabela S/N, Pueblo de San Juan de Arag\u00f3n, Gustavo A. Madero, 07969 Ciudad de M\u00e9xico, CDMX", "geometry": {"location": {"lat": 19.4611421, "lng": -99.0811449}, "viewport": {"northeast": {"lat": 19.46234657989272, "lng": -99.07975132010728}, "southwest": {"lat": 19.45964692010728, "lng": -99.08245097989273}}}, "icon": "https://maps.gstatic.com/mapfiles/place_api/icons/v1/png_71/generic_business-71.png", "name": "Zoo San Juan De Aragon", "permanently_closed": true, "photos": [{"height": 3024, "html_attributions": ["<a href=\"https://maps.google.com/maps/contrib/115935929928578684667\">Ang\u00e9lica Guevara Gonz\u00e1lez</a>"], "photo_reference": "CmRaAAAALZqTdENPpayL83WgNMNLgWxVhJTBWe1aycDbivHCRK_pQKskeaOS0jdjVsjRt2jvs1B3YHsvK0Z7JIe-pBWYHi_lTq1YaGpDmnN2x8vdPR0P64nAG-a7OzEVO97mYOVHEhBFxh59iATTbBEM55gH7n2fGhTK7beUOALMHqO9chbwdxSLsoIFqA", "width": 4032}], "place_id": "ChIJG_ytk8H70YUR_gOGciXfVZQ", "plus_code": {"compound_code": "FW69+FG San Juan de Arag\u00f3n, Mexico City", "global_code": "76F2FW69+FG"}, "rating": 4.1, "reference": "ChIJG_ytk8H70YUR_gOGciXfVZQ", "types": ["zoo", "tourist_attraction", "point_of_interest", "establishment"], "user_ratings_total": 12680}, {"business_status": "OPERATIONAL", "formatted_address": "Calle Glorieta de Colon 391, Villada, 57710 Nezahualc\u00f3yotl, M\u00e9x.", "geometry": {"location": {"lat": 19.3942584, "lng": -99.0053734}, "viewport": {"northeast": {"lat": 19.3974249, "lng": -99.00073669999999}, "southwest": {"lat": 19.3915841, "lng": -99.0094483}}}, "icon": "https://maps.gstatic.com/mapfiles/place_api/icons/v1/png_71/generic_business-71.png", "name": "Parque Del Pueblo Zoologico", "opening_hours": {"open_now": false}, "photos": [{"height": 4160, "html_attributions": ["<a href=\"https://maps.google.com/maps/contrib/111150993519554997392\">Julio Cesar Perez</a>"], "photo_reference": "CmRaAAAAngbC_nRBQcE5ElUrUw-Bq0SBxQUUK3z9s0JgyqJcX8ZS449djLCBW8GYOjjtV0jmHsuTH1WAMhI4fHsS7eqdpHV_Xd2SSzs4q1rkLPXzfM6zpjOfJoNZI_E4e5flTS4tEhBKbwhhfJCvKd_4X7a62dImGhRns0c4l1Kl4h02nPrTR6qgj_AV7A", "width": 2340}], "place_id": "ChIJVe15uynj0YURsfqpINLIGw4", "plus_code": {"compound_code": "9XVV+PV Ciudad Nezahualc\u00f3yotl, State of Mexico", "global_code": "76F29XVV+PV"}, "rating": 4.2, "reference": "ChIJVe15uynj0YURsfqpINLIGw4", "types": ["zoo", "tourist_attraction", "point_of_interest", "establishment"], "user_ratings_total": 12130}, {"business_status": "OPERATIONAL", "formatted_address": "Av. Adolfo L\u00f3pez Mateos 57, Metropolitana 2da Secc, 57740 Nezahualc\u00f3yotl, M\u00e9x.", "geometry": {"location": {"lat": 19.3919572, "lng": -99.03311939999999}, "viewport": {"northeast": {"lat": 19.39335492989272, "lng": -99.03186102010729}, "southwest": {"lat": 19.39065527010728, "lng": -99.03456067989273}}}, "icon": "https://maps.gstatic.com/mapfiles/place_api/icons/v1/png_71/generic_business-71.png", "name": "Zool\u00f3gico p3 (gorilas)", "place_id": "ChIJxbpX7B_90YURuknKol1-QgY", "plus_code": {"compound_code": "9XR8+QQ Ciudad Nezahualc\u00f3yotl, State of Mexico", "global_code": "76F29XR8+QQ"}, "rating": 5, "reference": "ChIJxbpX7B_90YURuknKol1-QgY", "types": ["zoo", "point_of_interest", "establishment"], "user_ratings_total": 1}, {"business_status": "CLOSED_TEMPORARILY", "formatted_address": "Bosque de Chapultepec, Av Acuario S/N, I, Miguel Hidalgo, 11580 Ciudad de M\u00e9xico, CDMX", "geometry": {"location": {"lat": 19.4230677, "lng": -99.1881155}, "viewport": {"northeast": {"lat": 19.42457697989272, "lng": -99.18658727010727}, "southwest": {"lat": 19.42187732010728, "lng": -99.18928692989272}}}, "icon": "https://maps.gstatic.com/mapfiles/place_api/icons/v1/png_71/generic_business-71.png", "name": "Tras las Huellas del Jaguar", "permanently_closed": true, "photos": [{"height": 2448, "html_attributions": ["<a href=\"https://maps.google.com/maps/contrib/112540408765720662603\">Gerardo L\u00f3pez</a>"], "photo_reference": "CmRaAAAA3Y5o_Rx9OEGzm419Itx0Q3JmkgRUz0T2p_b9G51YJp9bEp3Jbpuo0ym7MERhijMa9Of0txF5eBeuixVDJG_EFFKaLCvE4Zon4nvSSK939GzSNHkAT9z-9mAc9iC9ip90EhAQrkF8MmLHlpxmzznBLudLGhQp9DZwpCECMPJB0VRK4fgDcYGtOA", "width": 3106}], "place_id": "ChIJ7ZfOQ1b_0YUR-kuqiQE8IPw", "plus_code": {"compound_code": "CRF6+6Q Mexico City", "global_code": "76F2CRF6+6Q"}, "rating": 3.6, "reference": "ChIJ7ZfOQ1b_0YUR-kuqiQE8IPw", "types": ["zoo", "point_of_interest", "establishment"], "user_ratings_total": 7}, {"business_status": "OPERATIONAL", "formatted_address": "Bosque de Chapultepec I Secc, Miguel Hidalgo, 11100 Mexico City, CDMX", "geometry": {"location": {"lat": 19.4227007, "lng": -99.18869219999999}, "viewport": {"northeast": {"lat": 19.42405502989272, "lng": -99.18736347010729}, "southwest": {"lat": 19.42135537010728, "lng": -99.19006312989274}}}, "icon": "https://maps.gstatic.com/mapfiles/place_api/icons/v1/png_71/generic_business-71.png", "name": "Mariposario Del Zoologico De Chapultepec", "opening_hours": {"open_now": false}, "photos": [{"height": 1908, "html_attributions": ["<a href=\"https://maps.google.com/maps/contrib/117469708008647641515\">Giocatore Z Gio</a>"], "photo_reference": "CmRaAAAANmJn2xDh9qHHf7ehIihwEe81w6xfdplXEdtIx-yk9bBIF25BaRAuRzwE-nB31zlOrlChQHn3Ha0mV30RvUvwFI-ZevwHQ5-BSW2w1hIQWGWHKuyvnHyeoCgPSRnwdEsfEhBOPNeeZmlLH_aSB8dzGhZoGhTUq64Kt9WqCKn0fJw1W_atF2n7og", "width": 4032}], "place_id": "ChIJoeb_OFb_0YURYTQP7Mdi23E", "plus_code": {"compound_code": "CRF6+3G Mexico City", "global_code": "76F2CRF6+3G"}, "rating": 4.6, "reference": "ChIJoeb_OFb_0YURYTQP7Mdi23E", "types": ["zoo", "point_of_interest", "establishment"], "user_ratings_total": 308}, {"business_status": "CLOSED_TEMPORARILY", "formatted_address": "Polanco, Polanco V Secc, Miguel Hidalgo, 11560 Mexico City", "geometry": {"location": {"lat": 19.428229, "lng": -99.1889748}, "viewport": {"northeast": {"lat": 19.42952507989272, "lng": -99.18775127010727}, "southwest": {"lat": 19.42682542010728, "lng": -99.19045092989272}}}, "icon": "https://maps.gstatic.com/mapfiles/place_api/icons/v1/png_71/generic_business-71.png", "name": "ESTACIONAMIENTO ZOOLOGICO", "permanently_closed": true, "place_id": "ChIJ2bM5lCH_0YURXLR1pzTMcOQ", "plus_code": {"compound_code": "CRH6+7C Mexico City", "global_code": "76F2CRH6+7C"}, "rating": 5, "reference": "ChIJ2bM5lCH_0YURXLR1pzTMcOQ", "types": ["zoo", "point_of_interest", "establishment"], "user_ratings_total": 1}, {"business_status": "OPERATIONAL", "formatted_address": "Zool\u00f3gico de Chapultepec, Calz. Chivatito, Bosque de Chapultepec I Secc, Miguel Hidalgo, 11100 Ciudad de M\u00e9xico, CDMX", "geometry": {"location": {"lat": 19.4223648, "lng": -99.1918675}, "viewport": {"northeast": {"lat": 19.42378027989272, "lng": -99.19048002010729}, "southwest": {"lat": 19.42108062010728, "lng": -99.19317967989274}}}, "icon": "https://maps.gstatic.com/mapfiles/place_api/icons/v1/png_71/generic_business-71.png", "name": "Aviario Moctezuma", "opening_hours": {"open_now": false}, "photos": [{"height": 1456, "html_attributions": ["<a href=\"https://maps.google.com/maps/contrib/112525120131106838193\">JAIME DIAZ</a>"], "photo_reference": "CmRaAAAAahpOmLt9HcIZ2Eu24TqRzRnC9y3GVS-nyj5CLEE4Q7hJ_FieiFicyl-DCzH4_Ba1HSB_g2iuN2VNsl_3VTnVpC-F9SF7j0v2sJMzJbXtdqZOds1x1l24jyQ1pext4l3vEhCoF6zw8ZNpnsIUaJiTg94BGhTkUzeUprueskgF-_v8QNbOOQZ0nw", "width": 2592}], "place_id": "ChIJ-VzMuv0B0oUR5_OgRrrtb_0", "plus_code": {"compound_code": "CRC5+W7 Mexico City", "global_code": "76F2CRC5+W7"}, "rating": 4.3, "reference": "ChIJ-VzMuv0B0oUR5_OgRrrtb_0", "types": ["zoo", "point_of_interest", "establishment"], "user_ratings_total": 49}, {"business_status": "OPERATIONAL", "formatted_address": "Bosque de Chapultepec I Secc, Miguel Hidalgo, 11100 Mexico City", "geometry": {"location": {"lat": 19.4221091, "lng": -99.18923269999999}, "viewport": {"northeast": {"lat": 19.42345892989272, "lng": -99.18788287010727}, "southwest": {"lat": 19.42075927010728, "lng": -99.19058252989271}}}, "icon": "https://maps.gstatic.com/mapfiles/place_api/icons/v1/png_71/generic_business-71.png", "name": "Panda", "place_id": "ChIJp-6Vn37_0YURc8bNRrJZYhM", "plus_code": {"compound_code": "CRC6+R8 Mexico City", "global_code": "76F2CRC6+R8"}, "rating": 0, "reference": "ChIJp-6Vn37_0YURc8bNRrJZYhM", "types": ["zoo", "point_of_interest", "establishment"], "user_ratings_total": 0}, {"business_status": "CLOSED_TEMPORARILY", "formatted_address": "Zool\u00f3gico de San Juan de Arag\u00f3n, Gustavo A. Madero, 07979 Mexico City", "geometry": {"location": {"lat": 19.4624056, "lng": -99.0840247}, "viewport": {"northeast": {"lat": 19.46535355, "lng": -99.08241647010729}, "southwest": {"lat": 19.46142295, "lng": -99.08511612989273}}}, "icon": "https://maps.gstatic.com/mapfiles/place_api/icons/v1/png_71/generic_business-71.png", "name": "AVIARIO", "permanently_closed": true, "photos": [{"height": 1960, "html_attributions": ["<a href=\"https://maps.google.com/maps/contrib/110499894291937238915\">Chiquilinelgrande Elgrande</a>"], "photo_reference": "CmRaAAAAUEWx4GHu2uqGp9-wP49QGEwyt7z-a-JXNbhalVkKD14xV3kBRoSbpt5lFTIfJK551c9e_qB_ATLY9D6aAiIVCYzzsO1PSDha3R4ou7JUU5Ics_rgzevYa51JMCc_JFamEhCNucf1OoncL0hGNDf4IjY7GhTGBgdZXsilVcb0jvPZnjoUnXyqJg", "width": 4032}], "place_id": "ChIJ4VE1Jxj70YURbvK20HDc__o", "plus_code": {"compound_code": "FW68+X9 Mexico City", "global_code": "76F2FW68+X9"}, "rating": 5, "reference": "ChIJ4VE1Jxj70YURbvK20HDc__o", "types": ["zoo", "point_of_interest", "establishment"], "user_ratings_total": 1}, {"business_status": "OPERATIONAL", "formatted_address": "Parques del Pedregal, Tlalpan, 14010 Mexico City, CDMX", "geometry": {"location": {"lat": 19.2994822, "lng": -99.19086109999999}, "viewport": {"northeast": {"lat": 19.30081612989272, "lng": -99.18965587010727}, "southwest": {"lat": 19.29811647010728, "lng": -99.19235552989271}}}, "icon": "https://maps.gstatic.com/mapfiles/place_api/icons/v1/png_71/park-71.png", "name": "Parque", "opening_hours": {"open_now": true}, "photos": [{"height": 3096, "html_attributions": ["<a href=\"https://maps.google.com/maps/contrib/111953787485853294299\">Negro Blanco</a>"], "photo_reference": "CmRaAAAAWxywBIwds4G7iPRT0Hf1gMgOReBLXUe_nTa42M3Rd0t-q-pZWWL2XGHpWLpB8iZ4LUER6nr-18-64npmAJowToqKlHSorBEMAKwfWYSVEd1hrDUFi_-gL3j5hE-EA6kmEhA36-mJtSAI9EiCj338iRePGhRiqYIAHSJk0WO0D2aNUEwJNJ7c4Q", "width": 4128}], "place_id": "ChIJ4-3p6df_zYUR_UQY1l5TqbY", "plus_code": {"compound_code": "7RX5+QM Mexico City", "global_code": "76F27RX5+QM"}, "rating": 4.8, "reference": "ChIJ4-3p6df_zYUR_UQY1l5TqbY", "types": ["zoo", "park", "point_of_interest", "establishment"], "user_ratings_total": 8}, {"business_status": "OPERATIONAL", "formatted_address": "Retorno 1 Roberto Koch 65 Ext, Impi Picos, Iztacalco, 08760 Ciudad de M\u00e9xico", "geometry": {"location": {"lat": 19.3866848, "lng": -99.10262209999999}, "viewport": {"northeast": {"lat": 19.38803587989272, "lng": -99.10127987010728}, "southwest": {"lat": 19.38533622010728, "lng": -99.10397952989273}}}, "icon": "https://maps.gstatic.com/mapfiles/place_api/icons/v1/png_71/generic_business-71.png", "name": "DOG COMMANDER", "opening_hours": {"open_now": false}, "photos": [{"height": 887, "html_attributions": ["<a href=\"https://maps.google.com/maps/contrib/108030142224899597520\">A Google User</a>"], "photo_reference": "CmRaAAAAxN105qiHzuivSNh2ztjhQWJPxl8nl9LgUP35m2xpq1pNF1cMIJsN4V961Isk_8C6qO5gncWjZ9aMgUG1G8NS9mQkFHmBBFk_rEZEOOY1i7sQp2dw5FQjtk3dyaO4ILusEhAC8Yioym6D8-xQJRtsiO6QGhR-Tq1NycdpqqX8JDzcFZlCdT-AcQ", "width": 655}], "place_id": "ChIJD2n_6X_-0YURhvifnbltNW8", "plus_code": {"compound_code": "9VPW+MX Mexico City", "global_code": "76F29VPW+MX"}, "rating": 4.7, "reference": "ChIJD2n_6X_-0YURhvifnbltNW8", "types": ["zoo", "point_of_interest", "establishment"], "user_ratings_total": 15}, {"business_status": "OPERATIONAL", "formatted_address": "Camino a Belen, Santa Mar\u00eda S/N, 55908 Oxtotipac, M\u00e9x.", "geometry": {"location": {"lat": 19.6654446, "lng": -98.822029}, "viewport": {"northeast": {"lat": 19.66683797989272, "lng": -98.8179394}, "southwest": {"lat": 19.66413832010728, "lng": -98.82339220000001}}}, "icon": "https://maps.gstatic.com/mapfiles/place_api/icons/v1/png_71/generic_business-71.png", "name": "Reino Animal", "opening_hours": {"open_now": false}, "photos": [{"height": 3120, "html_attributions": ["<a href=\"https://maps.google.com/maps/contrib/102721361962163102230\">cristina sanchez</a>"], "photo_reference": "CmRaAAAAUvvMkiGrGvOkmqYrQdzsZXtAqj3wkCHZpUd04AeBkmW5zW_k1HAqSk4yxCdgPRGJFzOqdMH559xmwF9dWkdrdV0oE7GeA-592XsjOAanWuSI0ajYc1ota4tkl4OY1CD0EhDd_X_Y0DtSzC822g7iyPIeGhRZ3r7WwkNBfxEKkIxGGewd6TRTkA", "width": 4160}], "place_id": "ChIJHf5Hr1kd0oURLVMdQYfFXgo", "plus_code": {"compound_code": "M58H+55 Oxtotipac, State of Mexico", "global_code": "76F3M58H+55"}, "rating": 4.5, "reference": "ChIJHf5Hr1kd0oURLVMdQYfFXgo", "types": ["zoo", "tourist_attraction", "amusement_park", "point_of_interest", "establishment"], "user_ratings_total": 8291}, {"business_status": "OPERATIONAL", "formatted_address": "Nautla 5, Roma Sur, Cuauht\u00e9moc, 06760 Ciudad de M\u00e9xico, CDMX", "geometry": {"location": {"lat": 19.4084804, "lng": -99.1644618}, "viewport": {"northeast": {"lat": 19.40984357989273, "lng": -99.16305257010728}, "southwest": {"lat": 19.40714392010728, "lng": -99.16575222989273}}}, "icon": "https://maps.gstatic.com/mapfiles/place_api/icons/v1/png_71/park-71.png", "name": "Julio y Marga Casa Encantada", "opening_hours": {"open_now": true}, "place_id": "ChIJz1oabZ3_0YURuNhVJ4KpPXo", "plus_code": {"compound_code": "CR5P+96 Mexico City", "global_code": "76F2CR5P+96"}, "rating": 5, "reference": "ChIJz1oabZ3_0YURuNhVJ4KpPXo", "types": ["zoo", "park", "point_of_interest", "establishment"], "user_ratings_total": 1}, {"business_status": "OPERATIONAL", "formatted_address": "Carr. La Marquesa - Chalma La Marquesa, 52743, Toluca de Lerdo, CDMX", "geometry": {"location": {"lat": 19.3683512, "lng": -99.19058539999999}, "viewport": {"northeast": {"lat": 19.36970672989272, "lng": -99.18929372010727}, "southwest": {"lat": 19.36700707010728, "lng": -99.19199337989272}}}, "icon": "https://maps.gstatic.com/mapfiles/place_api/icons/v1/png_71/park-71.png", "name": "El potrero", "photos": [{"height": 2322, "html_attributions": ["<a href=\"https://maps.google.com/maps/contrib/114465398899876059783\">Rosalba Valle</a>"], "photo_reference": "CmRaAAAARzZGCaWFnLLehvHvDDyTJxe5VsgNoRDL19wYphYo1D6JzgA6K-UUTvywomnWFbGcoih69cKAxaz0aSAv8N6eokDny8xRsxRjvXjs910RFv9KRmVKjcexNgFN16k9VChSEhAdyQbDKIElJrnGwQ6zah5gGhRbQpSMTsiYgraFvkw4Nao0Xl6GJg", "width": 4128}], "place_id": "ChIJu8G_QkEB0oURPV6cbMH8hOc", "plus_code": {"compound_code": "9R95+8Q Mexico City", "global_code": "76F29R95+8Q"}, "rating": 0, "reference": "ChIJu8G_QkEB0oURPV6cbMH8hOc", "types": ["zoo", "park", "point_of_interest", "establishment"], "user_ratings_total": 0}, {"business_status": "OPERATIONAL", "formatted_address": "Unnamed Road, M\u00e9x.", "geometry": {"location": {"lat": 19.4060622, "lng": -98.96212799999999}, "viewport": {"northeast": {"lat": 19.40735282989272, "lng": -98.96095737010728}, "southwest": {"lat": 19.40465317010728, "lng": -98.96365702989272}}}, "icon": "https://maps.gstatic.com/mapfiles/place_api/icons/v1/png_71/park-71.png", "name": "Granja Interactiva Chantlalcalli", "opening_hours": {"open_now": false}, "photos": [{"height": 3456, "html_attributions": ["<a href=\"https://maps.google.com/maps/contrib/106928246791271076382\">adrian guzman D.</a>"], "photo_reference": "CmRaAAAAh0PzRZ3UCiR2JpQTTSLTcZcfiu1sxc6Fc6IKn2RKfRdtKc8YftfVobDEtjnxh9x0DwIoS56qNHIubA51sA-MKEophXbRdZojRN9jCHfZrSbJZGOpaRpjAxChSpoRZuOHEhCLiqpOffWF-ZyTFi0o-bx3GhT0GDil0WwfnkqzwxWmozBeBEVE0g", "width": 4608}], "place_id": "ChIJtTkZi33j0YURG0Vi_HQI-SE", "plus_code": {"compound_code": "C24Q+C4 Chimalhuacan, State of Mexico", "global_code": "76F3C24Q+C4"}, "rating": 4.5, "reference": "ChIJtTkZi33j0YURG0Vi_HQI-SE", "types": ["zoo", "park", "point_of_interest", "establishment"], "user_ratings_total": 22}, {"business_status": "OPERATIONAL", "formatted_address": "Parques del Pedregal, Tlalpan, 14738 Mexico City", "geometry": {"location": {"lat": 19.29589, "lng": -99.1934883}, "viewport": {"northeast": {"lat": 19.29716732989272, "lng": -99.19215637010727}, "southwest": {"lat": 19.29446767010728, "lng": -99.19485602989272}}}, "icon": "https://maps.gstatic.com/mapfiles/place_api/icons/v1/png_71/park-71.png", "name": "\u00c1rea Natural Protegida \"Bosque de Tlalpan\"", "opening_hours": {"open_now": false}, "photos": [{"height": 853, "html_attributions": ["<a href=\"https://maps.google.com/maps/contrib/103851732348091631706\">A Google User</a>"], "photo_reference": "CmRaAAAADRyYyhFlAKe1EPCe_vCiIbgeZF9spBJEMwbkjpmO6UrdhZVU9JKys4HID_JbqL0k0t6GX79fFeNaRemQ1oC3XPRqXwDvsXiu6oSRQz7kMm9pML_KWI4yG5wYPrM33N_KEhDlt96HVhPUnzlBhfmEovZUGhQ_zBseOM8q68DBkNBSkBBGw5FRsw", "width": 1280}], "place_id": "ChIJicu2NGz_zYURm3TCBmR7Nw0", "plus_code": {"compound_code": "7RW4+9J Mexico City", "global_code": "76F27RW4+9J"}, "rating": 0, "reference": "ChIJicu2NGz_zYURm3TCBmR7Nw0", "types": ["zoo", "park", "point_of_interest", "establishment"], "user_ratings_total": 0}, {"business_status": "OPERATIONAL", "formatted_address": "C. Ca\u00f1ada s/n, La Carbonera, La Magdalena Contreras, 10640 Ciudad de M\u00e9xico, CDMX", "geometry": {"location": {"lat": 19.2985898, "lng": -99.2515813}, "viewport": {"northeast": {"lat": 19.30025642989272, "lng": -99.25016482010727}, "southwest": {"lat": 19.29755677010728, "lng": -99.25286447989271}}}, "icon": "https://maps.gstatic.com/mapfiles/place_api/icons/v1/png_71/park-71.png", "name": "La Ca\u00f1ada Park", "opening_hours": {"open_now": true}, "photos": [{"height": 3120, "html_attributions": ["<a href=\"https://maps.google.com/maps/contrib/102298782372733453849\">paco Gomez</a>"], "photo_reference": "CmRaAAAAnRv_R-XtmZQdKsV92SBczSTvArFgww_yFUoOzEAVJPL7ZWWhPIFQyPG0I6bm6lMcjwAXhfT7H2qaQ6IU0mUhLRImZ06j2unhrYUukFhJ7rqoD0UWJvnWgZVHtMoA2-nVEhBBwluDykvvcbL2xQ_AkaMzGhT_xJ_b3tbKpDV6a1m1Kc-bXR1tmw", "width": 4160}], "place_id": "ChIJLdxPRRf_zYURc9IGGU2T3VY", "plus_code": {"compound_code": "7PXX+C9 Mexico City", "global_code": "76F27PXX+C9"}, "rating": 4.4, "reference": "ChIJLdxPRRf_zYURc9IGGU2T3VY", "types": ["zoo", "park", "point_of_interest", "establishment"], "user_ratings_total": 99}, {"business_status": "OPERATIONAL", "formatted_address": "Carretera Federal, Cuernavaca - Taxco Km. 55, 62652 Teacalco, Gro.", "geometry": {"location": {"lat": 18.6134628, "lng": -99.4460898}, "viewport": {"northeast": {"lat": 18.61481187989272, "lng": -99.44474007010727}, "southwest": {"lat": 18.61211222010728, "lng": -99.44743972989272}}}, "icon": "https://maps.gstatic.com/mapfiles/place_api/icons/v1/png_71/generic_business-71.png", "name": "Zoofari", "opening_hours": {"open_now": false}, "photos": [{"height": 1840, "html_attributions": ["<a href=\"https://maps.google.com/maps/contrib/112707285978880066485\">Luis Gomez</a>"], "photo_reference": "CmRaAAAAWNku5IZwCcoTS7E3M5v3LfliQbehSA4e3-6Nc1UCunNwDWrwWhEu0guLZqvPUmPs1rr3eeoFLCnhG9taXfD3WdIYRvBOQvBuNzY8XpCzkuqMWBacs5pGIZQL9WtXpLx0EhCsAUmDCaZewOHwi3D7a0RYGhR8hCRjNEkDX27hFGz8-jnjjBv43Q", "width": 3264}], "place_id": "ChIJj2ZJgonMzYURAwEGVyR2tdk", "plus_code": {"compound_code": "JH73+9H Teacalco, Morelos", "global_code": "76C2JH73+9H"}, "rating": 4.6, "reference": "ChIJj2ZJgonMzYURAwEGVyR2tdk", "types": ["zoo", "tourist_attraction", "point_of_interest", "establishment"], "user_ratings_total": 2587}]