[{"business_status": "CLOSED_TEMPORARILY", "formatted_address": "Eje 2 Pte 363, Roma Sur, Cuauht\u00e9moc, 06760 Ciudad de M\u00e9xico, CDMX", "geometry": {"location": {"lat": 19.4047448, "lng": -99.1610877}, "viewport": {"northeast": {"lat": 19.40612367989272, "lng": -99.15960647010728}, "southwest": {"lat": 19.40342402010728, "lng": -99.16230612989271}}}, "icon": "https://maps.gstatic.com/mapfiles/place_api/icons/v1/png_71/worship_jewish-71.png", "name": "Sinagoga", "permanently_closed": true, "photos": [{"height": 4032, "html_attributions": ["<a href=\"https://maps.google.com/maps/contrib/113692437531660690137\">Carlos Mejia</a>"], "photo_reference": "CmRaAAAAfzTe1e_joxlYP00NFWp4jtfEcB1rqGYbb9vynXaFNlS6s5B2Ep9tXSojcoyUaOyXoUQpLncZHHQeXZgQQU_-7_bmhttdIBHIsXGoyYzr2a7aJXm2djC0vrRuGg5GqB1EEhCHu2OHRbf-AAVWo7oCdXHNGhR6KmXA7P7xtf2T7EiqpphW2No3cg", "width": 3024}], "place_id": "ChIJ7_B0khb_0YUR9Rt0rgQm5Bo", "plus_code": {"compound_code": "CR3Q+VH Mexico City", "global_code": "76F2CR3Q+VH"}, "rating": 4.8, "reference": "ChIJ7_B0khb_0YUR9Rt0rgQm5Bo", "types": ["synagogue", "place_of_worship", "point_of_interest", "establishment"], "user_ratings_total": 12}, {"business_status": "OPERATIONAL", "formatted_address": "Calle Quer\u00e9taro 110, Roma Nte., Cuauht\u00e9moc, 06700 Ciudad de M\u00e9xico, CDMX", "geometry": {"location": {"lat": 19.4147846, "lng": -99.1596215}, "viewport": {"northeast": {"lat": 19.41621412989272, "lng": -99.15828922010728}, "southwest": {"lat": 19.41351447010728, "lng": -99.16098887989273}}}, "icon": "https://maps.gstatic.com/mapfiles/place_api/icons/v1/png_71/worship_jewish-71.png", "name": "Monte Sinai", "photos": [{"height": 3456, "html_attributions": ["<a href=\"https://maps.google.com/maps/contrib/109759923892835877475\">Caracol Natiroots</a>"], "photo_reference": "CmRaAAAAScWLngr9oy-TKXFrFq8VoUtxSqQA0OD8UDB6NUKlpw-T1f9RdGUHH_XzC4Bdt_T5Zj7AUyGtmlInDUZtGUUwCM69MQLN4IUlFINihOu8ukZJ94ehgOjxEjUdVUlDFSVuEhBIoKE1eksUso7jI69McAupGhQrma74gTDhrmm2od4opmbzgZWf_g", "width": 5184}], "place_id": "ChIJBRDpgzv_0YURCPBqMYYQKQY", "plus_code": {"compound_code": "CR7R+W5 Mexico City", "global_code": "76F2CR7R+W5"}, "rating": 4.3, "reference": "ChIJBRDpgzv_0YURCPBqMYYQKQY", "types": ["synagogue", "place_of_worship", "point_of_interest", "establishment"], "user_ratings_total": 20}, {"business_status": "CLOSED_TEMPORARILY", "formatted_address": "Justo Sierra 71, Centro Hist\u00f3rico de la Cdad. de M\u00e9xico, Centro, Cuauht\u00e9moc, 06020 Ejido del, CDMX", "geometry": {"location": {"lat": 19.4351573, "lng": -99.1282234}, "viewport": {"northeast": {"lat": 19.43655317989272, "lng": -99.12686657010727}, "southwest": {"lat": 19.43385352010727, "lng": -99.12956622989272}}}, "icon": "https://maps.gstatic.com/mapfiles/place_api/icons/v1/png_71/worship_jewish-71.png", "name": "Historic Synagogue Justo Sierra 71", "permanently_closed": true, "photos": [{"height": 5184, "html_attributions": ["<a href=\"https://maps.google.com/maps/contrib/108921026350500139780\">oscar</a>"], "photo_reference": "CmRaAAAAv4OkenpLzHa32EgeuUtF5fmj-hkplLWYCubgZ1kBxO1jd0Iaq6cofbhfBl2HW6fulXQXURSTB1bDRREvHUmVYp1YJ9SefAhgGcRAowHO2_Bffl8WEVSZTjb93CLTvpm3EhCn6ssHmUIHgNmi8gXSqmXqGhTkATVfHBTD-LkikaoqCBwqq7LzuQ", "width": 3456}], "place_id": "ChIJOQDflzT50YURLDp8Gi33zio", "plus_code": {"compound_code": "CVPC+3P Centro, Mexico City", "global_code": "76F2CVPC+3P"}, "rating": 4.9, "reference": "ChIJOQDflzT50YURLDp8Gi33zio", "types": ["synagogue", "place_of_worship", "point_of_interest", "establishment"], "user_ratings_total": 13}, {"business_status": "CLOSED_TEMPORARILY", "formatted_address": "Fernando Montes de Oca 32, Colonia Condesa, Cuauht\u00e9moc, 06140 Ciudad de M\u00e9xico, CDMX", "geometry": {"location": {"lat": 19.4124592, "lng": -99.1740506}, "viewport": {"northeast": {"lat": 19.41388482989272, "lng": -99.17265852010728}, "southwest": {"lat": 19.41118517010728, "lng": -99.17535817989273}}}, "icon": "https://maps.gstatic.com/mapfiles/place_api/icons/v1/png_71/worship_jewish-71.png", "name": "Jewish Community Center Condesa", "permanently_closed": true, "photos": [{"height": 595, "html_attributions": ["<a href=\"https://maps.google.com/maps/contrib/117702853685846034803\">No\u00e9 Hern\u00e1ndez Pe\u00f1a</a>"], "photo_reference": "CmRaAAAAWY0mp-jdxl9yDSm-LPWi0cDyhyIqxUPiiBHuzi_XiO5aaIdFxeuJkWT8CgfUmFxj6ofTfVlhqtI61rm2-gV06FH6WGlPIuNwWfjVYxnoqvolR0XJaEeVrrR-LF2ZOAt8EhCWCpbTNNKtPUD56LhNz9kXGhQZHxApNiKf-tDMv3P44xtxptf56g", "width": 394}], "place_id": "ChIJ73WQ6EP_0YUR4l4bC-rgvZk", "plus_code": {"compound_code": "CR6G+X9 Mexico City", "global_code": "76F2CR6G+X9"}, "rating": 4.5, "reference": "ChIJ73WQ6EP_0YUR4l4bC-rgvZk", "types": ["synagogue", "place_of_worship", "point_of_interest", "establishment"], "user_ratings_total": 29}, {"business_status": "OPERATIONAL", "formatted_address": "Polanco, Polanco III Secc, Miguel Hidalgo, 11550 Mexico City", "geometry": {"location": {"lat": 19.4339335, "lng": -99.1960242}, "viewport": {"northeast": {"lat": 19.43528332989272, "lng": -99.19467437010728}, "southwest": {"lat": 19.43258367010727, "lng": -99.19737402989271}}}, "icon": "https://maps.gstatic.com/mapfiles/place_api/icons/v1/png_71/worship_jewish-71.png", "name": "Sinagoga Brit Braja", "place_id": "ChIJKxrCmBAD0oURM3sdQY7WbLo", "plus_code": {"compound_code": "CRM3+HH Mexico City", "global_code": "76F2CRM3+HH"}, "rating": 5, "reference": "ChIJKxrCmBAD0oURM3sdQY7WbLo", "types": ["synagogue", "place_of_worship", "point_of_interest", "establishment"], "user_ratings_total": 6}, {"business_status": "CLOSED_TEMPORARILY", "formatted_address": "1140, Lomas de Chapultepec, Miguel Hidalgo, 11000 Ciudad de M\u00e9xico, CDMX", "geometry": {"location": {"lat": 19.412998, "lng": -99.21767419999999}, "viewport": {"northeast": {"lat": 19.41439097989272, "lng": -99.21637247010727}, "southwest": {"lat": 19.41169132010728, "lng": -99.21907212989271}}}, "icon": "https://maps.gstatic.com/mapfiles/place_api/icons/v1/png_71/worship_jewish-71.png", "name": "Beth Israel", "permanently_closed": true, "photos": [{"height": 854, "html_attributions": ["<a href=\"https://maps.google.com/maps/contrib/115328775701386830404\">Javier Brenes</a>"], "photo_reference": "CmRaAAAAk9GAcRck1TM_50eaIQ23dcn-GnO7Gs26guEcYCD7HMat_6TIN7Ax5hsKLuw-ZlKL5b2uOE23jXgNaadYlvDoKoUdQ1La1zRMgz3m30RigJhzNxgEtOojQy1mT35rV6aLEhCpz6PjEhMw9QR099peGKsMGhSmk-Ds0pToEBi7cSyY8PDJnRzBhg", "width": 640}], "place_id": "ChIJf1BqYJEB0oUR2Ks8RBGXLAQ", "plus_code": {"compound_code": "CQ7J+5W Mexico City", "global_code": "76F2CQ7J+5W"}, "rating": 4.7, "reference": "ChIJf1BqYJEB0oUR2Ks8RBGXLAQ", "types": ["synagogue", "place_of_worship", "point_of_interest", "establishment"], "user_ratings_total": 19}, {"business_status": "CLOSED_TEMPORARILY", "formatted_address": "Amsterdam, Hip\u00f3dromo, Cuauht\u00e9moc, 06100 Ciudad de M\u00e9xico, CDMX", "geometry": {"location": {"lat": 19.4130698, "lng": -99.170645}, "viewport": {"northeast": {"lat": 19.41443237989272, "lng": -99.16932572010728}, "southwest": {"lat": 19.41173272010728, "lng": -99.17202537989272}}}, "icon": "https://maps.gstatic.com/mapfiles/place_api/icons/v1/png_71/worship_jewish-71.png", "name": "Beit Kneset Etz Haim", "permanently_closed": true, "place_id": "ChIJQYsZbuD_0YUR8zadmE5roMk", "plus_code": {"compound_code": "CR7H+6P Mexico City", "global_code": "76F2CR7H+6P"}, "rating": 2, "reference": "ChIJQYsZbuD_0YUR8zadmE5roMk", "types": ["synagogue", "place_of_worship", "point_of_interest", "establishment"], "user_ratings_total": 1}, {"business_status": "CLOSED_TEMPORARILY", "formatted_address": "Calle S\u00f3crates 371, Polanco, Polanco II Secc, Miguel Hidalgo, 11550 Ciudad de M\u00e9xico, CDMX", "geometry": {"location": {"lat": 19.4319976, "lng": -99.20405369999999}, "viewport": {"northeast": {"lat": 19.43331797989272, "lng": -99.20260552010728}, "southwest": {"lat": 19.43061832010728, "lng": -99.20530517989273}}}, "icon": "https://maps.gstatic.com/mapfiles/place_api/icons/v1/png_71/worship_jewish-71.png", "name": "Sinagoga Magu\u00e9n David", "permanently_closed": true, "photos": [{"height": 4096, "html_attributions": ["<a href=\"https://maps.google.com/maps/contrib/100289534035202124841\">Juan Uribe</a>"], "photo_reference": "CmRaAAAAXzXk2H63PWn_XeXk8lWwjERiyyFPX7S31_R2YEptxQ55MxxtfEL2-zF5G0myctEHCRJD9aOYjC0FRoovgo6CWPf9uCcz63nexyUPergunb0Fm6zHn46ysT1-HSAAmo5PEhAmVq0qjl03kWujC03ncZzYGhRWuXIRq5Os1McaVeio2tQ2kxC4Lg", "width": 3072}], "place_id": "ChIJk5JWrx0C0oURgIYfGh5Y6bc", "plus_code": {"compound_code": "CQJW+Q9 Mexico City", "global_code": "76F2CQJW+Q9"}, "rating": 4.7, "reference": "ChIJk5JWrx0C0oURgIYfGh5Y6bc", "types": ["synagogue", "place_of_worship", "point_of_interest", "establishment"], "user_ratings_total": 97}, {"business_status": "OPERATIONAL", "formatted_address": "Eugenio Sue 20, Polanco, Polanco IV Secc, Miguel Hidalgo, 11550 Ciudad de M\u00e9xico, CDMX", "geometry": {"location": {"lat": 19.4282992, "lng": -99.1948273}, "viewport": {"northeast": {"lat": 19.42964742989272, "lng": -99.19346562010728}, "southwest": {"lat": 19.42694777010728, "lng": -99.19616527989272}}}, "icon": "https://maps.gstatic.com/mapfiles/place_api/icons/v1/png_71/worship_jewish-71.png", "name": "Beth Itzjak", "photos": [{"height": 3024, "html_attributions": ["<a href=\"https://maps.google.com/maps/contrib/107775554161122371406\">A Google User</a>"], "photo_reference": "CmRaAAAAyiS33TAJ8ummQrOxdc7NjXQEOFXt370UWw8-cCBaPxy980M4W-HjtI2gqU1DN0GQP_miLW3oBeR7r50tFNDeeVQpJhc3Rpc8k3C1bVadXcd8LkiuN7uOf-bwUwiQZPueEhCvNicjQ5FfrINPuoCj7MS2GhQksZ6iwMO1ZKf2FOoy6UGBO9VRjQ", "width": 4032}], "place_id": "ChIJiz_KMP8B0oURGBTx3jaPAdk", "plus_code": {"compound_code": "CRH4+83 Mexico City", "global_code": "76F2CRH4+83"}, "rating": 4.4, "reference": "ChIJiz_KMP8B0oURGBTx3jaPAdk", "types": ["synagogue", "place_of_worship", "point_of_interest", "establishment"], "user_ratings_total": 28}, {"business_status": "CLOSED_TEMPORARILY", "formatted_address": "Av. loma de la Palma 133, Lomas de Vista Hermosa, Cuajimalpa de Morelos, 05100 Ciudad de M\u00e9xico, CDMX", "geometry": {"location": {"lat": 19.383055, "lng": -99.2735457}, "viewport": {"northeast": {"lat": 19.38467777989272, "lng": -99.27221322010729}, "southwest": {"lat": 19.38197812010728, "lng": -99.27491287989274}}}, "icon": "https://maps.gstatic.com/mapfiles/place_api/icons/v1/png_71/worship_jewish-71.png", "name": "SINAGOGA", "permanently_closed": true, "place_id": "ChIJSyCXvisB0oURgY1l3QAtB8Y", "plus_code": {"compound_code": "9PMG+6H Mexico City", "global_code": "76F29PMG+6H"}, "rating": 4.6, "reference": "ChIJSyCXvisB0oURgY1l3QAtB8Y", "types": ["synagogue", "place_of_worship", "point_of_interest", "establishment"], "user_ratings_total": 10}, {"business_status": "OPERATIONAL", "formatted_address": "Calle, Fuente del Pescador 35, Lomas de Tecamachalco, 53950 Naucalpan de Ju\u00e1rez, M\u00e9x.", "geometry": {"location": {"lat": 19.4116328, "lng": -99.242673}, "viewport": {"northeast": {"lat": 19.41304832989272, "lng": -99.2413820201073}, "southwest": {"lat": 19.41034867010728, "lng": -99.24408167989273}}}, "icon": "https://maps.gstatic.com/mapfiles/place_api/icons/v1/png_71/worship_jewish-71.png", "name": "Ramat Shalom Synagogue", "photos": [{"height": 3264, "html_attributions": ["<a href=\"https://maps.google.com/maps/contrib/108642646937430257681\">A Google User</a>"], "photo_reference": "CmRaAAAAeNZ8dtjkkjH_4IpHMaF8r1lPe0P7BCYKxlrrhWwunUoyYgKoX1HzCctzP1HnDqjtq7i2HRbfjh_FqSivYTg712_o2ywU1KiIZmPP5EmZZq9Wond5lAQ-NcpuCtPQ-2ewEhD8TNbUG57OsKrYxxLLKQEAGhSygVBl7bbv4tQv1M2XolNxTFZtJg", "width": 2448}], "place_id": "ChIJo5eLo3EB0oUR4hGdZJe5xBY", "plus_code": {"compound_code": "CQ64+MW Naucalpan de Ju\u00e1rez, State of Mexico", "global_code": "76F2CQ64+MW"}, "rating": 4.6, "reference": "ChIJo5eLo3EB0oUR4hGdZJe5xBY", "types": ["synagogue", "place_of_worship", "point_of_interest", "establishment"], "user_ratings_total": 136}, {"business_status": "CLOSED_TEMPORARILY", "formatted_address": "Av. Horacio 1722, Polanco, Polanco I Secc, Miguel Hidalgo, 10000 Ciudad de M\u00e9xico, CDMX", "geometry": {"location": {"lat": 19.4350523, "lng": -99.20915989999999}, "viewport": {"northeast": {"lat": 19.43657857989272, "lng": -99.20779802010728}, "southwest": {"lat": 19.43387892010728, "lng": -99.21049767989271}}}, "icon": "https://maps.gstatic.com/mapfiles/place_api/icons/v1/png_71/worship_jewish-71.png", "name": "Comunidad Bet-El", "permanently_closed": true, "place_id": "ChIJydCXLB8C0oURcfeyew_nSXg", "plus_code": {"compound_code": "CQPR+28 Mexico City", "global_code": "76F2CQPR+28"}, "rating": 4.9, "reference": "ChIJydCXLB8C0oURcfeyew_nSXg", "types": ["synagogue", "place_of_worship", "point_of_interest", "establishment"], "user_ratings_total": 22}, {"business_status": "OPERATIONAL", "formatted_address": "Calle Calder\u00f3n de la Barca 339, Polanco, Polanco II Secc, Miguel Hidalgo, 11550 Ciudad de M\u00e9xico, CDMX", "geometry": {"location": {"lat": 19.4373251, "lng": -99.198702}, "viewport": {"northeast": {"lat": 19.43867802989272, "lng": -99.19742467010728}, "southwest": {"lat": 19.43597837010728, "lng": -99.20012432989272}}}, "icon": "https://maps.gstatic.com/mapfiles/place_api/icons/v1/png_71/worship_jewish-71.png", "name": "Chabad Mexico", "photos": [{"height": 2160, "html_attributions": ["<a href=\"https://maps.google.com/maps/contrib/103628495717910063747\">\u05ea\u05d3\u05d4\u05e8 \u05e7\u05d0\u05e8\u05d5</a>"], "photo_reference": "CmRZAAAADX468cLaVNKokENefTj1NFVBCBP7kIanvyUxjoyec7TOiFLXTCn9vKpct4XlMvTobxuL4P4OCOwJVL4p_APWu_HMSphtCr4Dv09Hfs_4gRTI8yWlGygvo8Sm5eZRex2yEhD8ka85AfY69tm0FCKTOPSsGhTHz4lIB6I9EsWiH3lqPX50L6rY4g", "width": 3840}], "place_id": "ChIJC11pjQQC0oUR0cOtTc5jV_Q", "plus_code": {"compound_code": "CRP2+WG Mexico City", "global_code": "76F2CRP2+WG"}, "rating": 4.8, "reference": "ChIJC11pjQQC0oUR0cOtTc5jV_Q", "types": ["synagogue", "place_of_worship", "point_of_interest", "establishment"], "user_ratings_total": 47}, {"business_status": "CLOSED_TEMPORARILY", "formatted_address": "Av. Secretar\u00eda de Marina 580, Lomas del Chamizal, Cuajimalpa de Morelos, 05129 Ciudad de M\u00e9xico, CDMX", "geometry": {"location": {"lat": 19.3933562, "lng": -99.26522460000001}, "viewport": {"northeast": {"lat": 19.39470632989272, "lng": -99.26381262010729}, "southwest": {"lat": 19.39200667010727, "lng": -99.26651227989272}}}, "icon": "https://maps.gstatic.com/mapfiles/place_api/icons/v1/png_71/worship_jewish-71.png", "name": "Birkat Itzhak", "permanently_closed": true, "place_id": "ChIJ8yGt5ToB0oURpmLvab5inA8", "plus_code": {"compound_code": "9PVM+8W Mexico City", "global_code": "76F29PVM+8W"}, "rating": 4.3, "reference": "ChIJ8yGt5ToB0oURpmLvab5inA8", "types": ["synagogue", "place_of_worship", "point_of_interest", "establishment"], "user_ratings_total": 6}, {"business_status": "CLOSED_TEMPORARILY", "formatted_address": "Av. Horacio 1220, Polanco, Polanco III Secc, Miguel Hidalgo, 11550 Ciudad de M\u00e9xico, CDMX", "geometry": {"location": {"lat": 19.4341227, "lng": -99.2011792}, "viewport": {"northeast": {"lat": 19.43550627989272, "lng": -99.19982457010727}, "southwest": {"lat": 19.43280662010728, "lng": -99.20252422989272}}}, "icon": "https://maps.gstatic.com/mapfiles/place_api/icons/v1/png_71/worship_jewish-71.png", "name": "Kolel Dirshu", "permanently_closed": true, "photos": [{"height": 585, "html_attributions": ["<a href=\"https://maps.google.com/maps/contrib/102879326221939623434\">A Google User</a>"], "photo_reference": "CmRaAAAAK-AT5gSr-pN_3ux-zoWibr4ggIiYJ4wzqGIMO50RwRl9BMhsxKL30-e2BDqWltdmwyI6M-5N_OC_t23cNq7KMs7u-PtDEcfht6uEBmiJirlUHb7bHWKQ53g25XM-EeRLEhAAGCGlkuLtaRl4tx4L48rSGhT0NQdFgYy2PvDl8p7g-vcOtH2_kg", "width": 1040}], "place_id": "ChIJo8dCvJ8D0oUReIKvEaZF028", "plus_code": {"compound_code": "CQMX+JG Mexico City", "global_code": "76F2CQMX+JG"}, "rating": 4.4, "reference": "ChIJo8dCvJ8D0oUReIKvEaZF028", "types": ["synagogue", "place_of_worship", "point_of_interest", "establishment"], "user_ratings_total": 7}, {"business_status": "CLOSED_TEMPORARILY", "formatted_address": "53950, Fuente de San Sulpicio 16, Lomas de Tecamachalco, Naucalpan de Ju\u00e1rez, M\u00e9x.", "geometry": {"location": {"lat": 19.4235131, "lng": -99.2381963}, "viewport": {"northeast": {"lat": 19.42486337989272, "lng": -99.23688202010729}, "southwest": {"lat": 19.42216372010728, "lng": -99.23958167989272}}}, "icon": "https://maps.gstatic.com/mapfiles/place_api/icons/v1/png_71/worship_jewish-71.png", "name": "Sinagoga Beth Yehoshua Monte Sinai", "permanently_closed": true, "place_id": "ChIJp2erwX4B0oURs-mXf59S88A", "plus_code": {"compound_code": "CQF6+CP Naucalpan de Ju\u00e1rez, State of Mexico", "global_code": "76F2CQF6+CP"}, "rating": 4.9, "reference": "ChIJp2erwX4B0oURs-mXf59S88A", "types": ["synagogue", "place_of_worship", "point_of_interest", "establishment"], "user_ratings_total": 8}, {"business_status": "OPERATIONAL", "formatted_address": "Calle Calder\u00f3n de la Barca 339, Polanco, Polanco III Secc, Miguel Hidalgo, 11550 Ciudad de M\u00e9xico, CDMX", "geometry": {"location": {"lat": 19.4373428, "lng": -99.1986154}, "viewport": {"northeast": {"lat": 19.43869757989272, "lng": -99.19738082010728}, "southwest": {"lat": 19.43599792010728, "lng": -99.20008047989272}}}, "icon": "https://maps.gstatic.com/mapfiles/place_api/icons/v1/png_71/worship_jewish-71.png", "name": "Chabad", "place_id": "ChIJGRO-FGgD0oURkj97VdxLZyw", "plus_code": {"compound_code": "CRP2+WH Mexico City", "global_code": "76F2CRP2+WH"}, "rating": 3.7, "reference": "ChIJGRO-FGgD0oURkj97VdxLZyw", "types": ["synagogue", "place_of_worship", "point_of_interest", "establishment"], "user_ratings_total": 3}, {"business_status": "CLOSED_TEMPORARILY", "formatted_address": "52787, Pje. Interlomas 2, Bosque de las Palmas, Naucalpan de Ju\u00e1rez, M\u00e9x.", "geometry": {"location": {"lat": 19.4014456, "lng": -99.2756451}, "viewport": {"northeast": {"lat": 19.40293397989272, "lng": -99.27426977010727}, "southwest": {"lat": 19.40023432010728, "lng": -99.2769694298927}}}, "icon": "https://maps.gstatic.com/mapfiles/place_api/icons/v1/png_71/worship_jewish-71.png", "name": "Templo Shaare Tzion", "permanently_closed": true, "photos": [{"height": 2592, "html_attributions": ["<a href=\"https://maps.google.com/maps/contrib/106342096683876567533\">Jos\u00e9 Marcos</a>"], "photo_reference": "CmRaAAAAu2RVn97vkYkaZZ7yLZTZM5S-EW8aj8anGDH6_-hnqTaIB_NwT4mdwxeKygcppCeVcQPpDDJNeKDexxO4TaWZa6LuwYrbtypSgoY7s1QHVBkHMOYHxknwYB5L-83ygUcUEhATcuhNNsPOZIMNob_VMLolGhSK1p2FkND-gWG0Z7dLSJzLjpIaQw", "width": 3872}], "place_id": "ChIJhzJknjUB0oURpkcdur8y2ZI", "plus_code": {"compound_code": "CP2F+HP Naucalpan de Ju\u00e1rez, State of Mexico", "global_code": "76F2CP2F+HP"}, "rating": 4.6, "reference": "ChIJhzJknjUB0oURpkcdur8y2ZI", "types": ["synagogue", "place_of_worship", "point_of_interest", "establishment"], "user_ratings_total": 25}, {"business_status": "CLOSED_TEMPORARILY", "formatted_address": "Bosque de Sabinos 180, Bosque de las Lomas, Miguel Hidalgo, 11700 Ciudad de M\u00e9xico, CDMX", "geometry": {"location": {"lat": 19.4003511, "lng": -99.2424028}, "viewport": {"northeast": {"lat": 19.40177337989272, "lng": -99.24102917010727}, "southwest": {"lat": 19.39907372010728, "lng": -99.24372882989272}}}, "icon": "https://maps.gstatic.com/mapfiles/place_api/icons/v1/png_71/worship_jewish-71.png", "name": "Templo sabinos Maguen David", "permanently_closed": true, "photos": [{"height": 3456, "html_attributions": ["<a href=\"https://maps.google.com/maps/contrib/105020488801673945690\">rodrigo barreiro</a>"], "photo_reference": "CmRaAAAA5S7X95K0xFVlRq9Soa0aPj87ARgbN0rOTprb0Nr1lAYDrb4b6w3tkEK2NugGnnTLZJm627ECG_-uiiC-VG0dLNZWRn1lt-iIj-DxrhtEug5V-4pVAVBlI3VFuxoXqy1UEhCSUj8VQsel6cDFBNfo3mmiGhTfd73suKlUAucMaVIiInjaKs2uIw", "width": 4608}], "place_id": "ChIJ26OSTAwB0oURn9tV-MTzSXI", "plus_code": {"compound_code": "CQ25+42 Mexico City", "global_code": "76F2CQ25+42"}, "rating": 4.8, "reference": "ChIJ26OSTAwB0oURn9tV-MTzSXI", "types": ["synagogue", "place_of_worship", "point_of_interest", "establishment"], "user_ratings_total": 34}, {"business_status": "CLOSED_TEMPORARILY", "formatted_address": "Fuente de Templanza 22, San Miguel Tecamachalco, Lomas de Tecamachalco, 53950 Naucalpan de Ju\u00e1rez, M\u00e9x.", "geometry": {"location": {"lat": 19.4272516, "lng": -99.2283499}, "viewport": {"northeast": {"lat": 19.42861562989272, "lng": -99.22701027010727}, "southwest": {"lat": 19.42591597010728, "lng": -99.22970992989272}}}, "icon": "https://maps.gstatic.com/mapfiles/place_api/icons/v1/png_71/worship_jewish-71.png", "name": "Centro Comunitario Maguen David Eliahu Fasja", "permanently_closed": true, "photos": [{"height": 4160, "html_attributions": ["<a href=\"https://maps.google.com/maps/contrib/100890613650085902039\">Rafael de Sahag\u00fan</a>"], "photo_reference": "CmRaAAAAMQllWbxipX5fXmQeP11JF_8wvn3MbkE6fUO6vyAXFlgk7ko77cmw_1rQpjLHfjglrTVEt8f5DgUrEMzUtfE0FfYmSPT2ft7OUFPRScgGHCqxXmUsEJIyXJ7HPqQ_uHRJEhBLAYcPV9St8E8IIzt4yp1UGhTRjNJKrNPK6JQSvTUbJvP0_Iu-qw", "width": 2000}], "place_id": "ChIJn6FjT4cB0oUROeOSu1eGbNw", "plus_code": {"compound_code": "CQGC+WM Naucalpan de Ju\u00e1rez, State of Mexico", "global_code": "76F2CQGC+WM"}, "rating": 4.6, "reference": "ChIJn6FjT4cB0oUROeOSu1eGbNw", "types": ["synagogue", "place_of_worship", "point_of_interest", "establishment"], "user_ratings_total": 16}]